Subject_cm,Timestamp,SampleDate_cm,SampleTime_cm,Configuration_cm,Scenario_cm,DisTime_cm,MarkingTxt_cm,Application_cm,EntId_cm,Site_cm,ExerciseId_cm,ForceId_cm,Category_cm,Country_cm,Domain_cm,Kind_cm,Extra_cm,Specific_cm,Subcategory_cm,AltCategory_cm,AltCountry_cm,AltDomain_cm,AltKind_cm,ECEF_X_cm,ECEF_Y_cm,ECEF_Z_cm,OriPhi_cm,OriPsi_cm,OriTheta_cm,LinVelX_cm,LinVelY_cm,LinVelZ_cm,LinAccX_cm,LinAccY_cm,LinAccZ_cm,AngVelX_cm,AngVelY_cm,AngVelZ_cm,DrAlg_cm,Appearance_cm,Latitude_cm,Longitude_cm,Altitude_cm,Heading_cm,Pitch_cm,Roll_cm,CalibratedAirspeed_cm,CM_Altitude_Lead_cm,CM_Altitude_Wing_cm,CM_Airspeed_cm,Subject_ac,SampleDate_ac,SampleTime_ac,Configuration_ac,Scenario_ac,DisTime_ac,MarkingTxt_ac,Application_ac,EntId_ac,Site_ac,ExerciseId_ac,ForceId_ac,Category_ac,Country_ac,Domain_ac,Kind_ac,Extra_ac,Specific_ac,Subcategory_ac,AltCategory_ac,AltCountry_ac,AltDomain_ac,AltKind_ac,ECEF_X_ac,ECEF_Y_ac,ECEF_Z_ac,OriPhi_ac,OriPsi_ac,OriTheta_ac,LinVelX_ac,LinVelY_ac,LinVelZ_ac,LinAccX_ac,LinAccY_ac,LinAccZ_ac,AngVelX_ac,AngVelY_ac,AngVelZ_ac,DrAlg_ac,Appearance_ac,Latitude_ac,Longitude_ac,Altitude_ac,Heading_ac,Pitch_ac,Roll_ac,CalibratedAirspeed_ac,CM_Altitude_Lead_ac,CM_Altitude_Wing_ac,CM_Airspeed_ac,Bank_Angle_Condition,distance_nm,Distance_Condition,angle_between_vel,angle_between_pos,Cone_Condition,angle_between_pos_nose,Nose_Cone_Condition,Intercept_Criteria
11,1970-07-23 11:25:48.320800606,2025-09-16,2025-09-26 15:00:32.080,AH,C,3976301986,JASSM,3,123,76,2,2,1,225,9,2,0,1,26,0,0,0,0,-155693.37927420562,-4777235.290010299,4213515.272917271,-2.71093,-1.01118,0.751842,33.625,-53.5,-59.0,0.0,0.0,0.0,0.0,0.0,0.0,2,0,41.588057465168255,-91.86664810562245,9999.994772278076,155.9386415327429,-0.0032690306270418,-0.0006580760609323,,8582.48906893005,10960.61793957396,150,11,2025-09-16,2025-09-26 15:00:32.021,AH,C,3327539238,HAWK11,1,1,73,2,1,1,225,2,1,0,0,12,1,225,2,1,-145757.20349295562,-4790658.427705611,4199146.634245396,2.30088,2.78072,-0.410819,-100.75,30.25,31.375,-0.0625,-6.96875,6.73438,0.0214844,0.00585938,0.00195312,4,0,41.41307285929825,-91.742703477912,10960.812171348893,-60.21826088870127,2.3541968668075035,-2.9360036594953143,177.88,8582.48906893005,10960.61793957396,150,True,11.881424766718983,False,136.26719867377653,176.0053203336517,False,39.803059872684905,False,False
11,1970-07-23 11:25:48.330315807,2025-09-16,2025-09-26 15:00:33.031,AH,C,3977494814,JASSM,3,123,76,2,2,1,225,9,2,0,1,26,0,0,0,0,-155659.80114920562,-4777288.907197799,4213456.124479771,-2.71093,-1.01118,0.751842,33.625,-53.5,-59.0,0.0,0.0,0.0,0.0,0.0,0.0,2,0,41.58734575664255,-91.86622488280771,10000.00304592443,155.93892245358109,-0.0024901026387895,-0.0006592075271618,,8582.48906893005,10960.61793957396,150,11,2025-09-16,2025-09-26 15:00:32.725,AH,C,3328374338,HAWK11,1,1,73,2,1,1,225,2,1,0,0,12,1,225,2,1,-145827.86560233062,-4790636.998018111,4199168.606901646,2.3049,2.78341,-0.411682,-100.875,30.125,31.375,0.046875,-7.23438,7.03125,0.00585938,0.00390625,0.00390625,4,0,41.41333586823089,-91.74355560196146,10961.0832671339,-60.282987869643854,2.489823041334422,-2.6464329654251326,178.173,8582.48906893005,10960.61793957396,150,True,11.803004164756931,False,136.20172904857827,176.11585881487716,False,39.98252392708072,False,False
11,1970-07-23 11:25:48.339379319,2025-09-16,2025-09-26 15:00:33.937,AH,C,3978626670,JASSM,3,123,76,2,2,1,225,9,2,0,1,26,0,0,0,0,-155627.93884451812,-4777339.782197799,4213399.995573521,-2.71093,-1.01118,0.751842,33.625,-53.5,-59.0,0.0,0.0,0.0,0.0,0.0,0.0,2,0,41.58667040904745,-91.86582329592927,10000.002272563062,155.93918900957445,-0.0017509726367386,-0.0006602840225805,,8582.48906893005,10960.61793957396,150,11,2025-09-16,2025-09-26 15:00:34.021,AH,C,3329726402,HAWK11,1,1,73,2,1,1,225,2,1,0,0,12,1,225,2,1,-145943.06872733062,-4790602.526338424,4199204.323698521,2.29896,2.78782,-0.417722,-101.0,29.75,31.375,-0.140625,-7.20312,6.95312,0.0,-0.00585938,-0.00195312,4,0,41.41376115980688,-91.74494469729096,10962.447542125949,-60.20017331968743,2.8986834896044176,-2.8811161429621035,178.393,8582.48906893005,10960.61793957396,150,True,11.707203846616627,False,136.05680927387422,176.3094874232286,False,40.32834373570449,False,False
11,1970-07-23 11:25:48.348255626,2025-09-16,2025-09-26 15:00:34.825,AH,C,3979702030,JASSM,3,123,76,2,2,1,225,9,2,0,1,26,0,0,0,0,-155597.66736014312,-4777388.116182174,4213346.667448521,-2.71083,-1.01118,0.751842,33.625,-53.5,-59.0,0.0,0.0,0.0,0.0,0.0,0.0,2,0,41.58602877345502,-91.8654417675862,9999.998948438022,155.9394422482875,-0.0010487410325539,0.0048438232545128,,8582.48906893005,10960.61793957396,150,11,2025-09-16,2025-09-26 15:00:34.631,AH,C,3330680802,HAWK11,1,1,73,2,1,1,225,2,1,0,0,12,1,225,2,1,-146024.03943045562,-4790578.786104049,4199229.392057896,2.3003,2.79386,-0.416859,-101.125,29.25,31.375,-0.1875,-7.17188,6.95312,0.015625,-0.00976562,-0.00390625,4,0,41.41405692355608,-91.74592085810109,10964.535503880788,-60.45830503040983,3.090297914780728,-2.6772958211966245,178.259,8582.48906893005,10960.61793957396,150,True,11.629187995041287,False,135.8715189751285,176.44398350799636,False,40.65569993990358,False,False
11,1970-07-23 11:25:48.358796414,2025-09-16,2025-09-26 15:00:35.879,AH,C,3980835098,JASSM,3,123,76,2,2,1,225,9,2,0,1,26,0,0,0,0,-155565.77087576812,-4777439.043916549,4213290.479948521,-2.71083,-1.01118,0.751842,33.625,-53.5,-59.0,0.0,0.0,0.0,0.0,0.0,0.0,2,0,41.58535272037694,-91.8650397669744,10000.0039735743,155.93970907195876,-0.0003088381685198,0.0048427540077738,,8582.48906893005,10960.61793957396,150,11,2025-09-16,2025-09-26 15:00:35.726,AH,C,3331953334,HAWK11,1,1,73,2,1,1,225,2,1,0,0,12,1,225,2,1,-146131.54138358062,-4790547.477510299,4199262.798307896,2.30519,2.79424,-0.416763,-101.25,28.875,31.5,0.09375,-7.0625,6.84375,0.0078125,0.00390625,0.0117188,4,0,41.41444916935824,-91.74721680912072,10968.100236096434,-60.477171759384326,3.1018216718065785,-2.389091080279338,178.051,8582.48906893005,10960.61793957396,150,True,11.537257228737335,False,135.77034223265284,176.62824425144328,False,40.950585356611555,False,False
11,1970-07-23 11:25:48.367341369,2025-09-16,2025-09-26 15:00:36.734,AH,C,3981968674,JASSM,3,123,76,2,2,1,225,9,2,0,1,26,0,0,0,0,-155533.86071951812,-4777489.993135299,4213234.265104771,-2.71083,-1.01118,0.751842,33.625,-53.5,-59.0,0.0,0.0,0.0,0.0,0.0,0.0,2,0,41.58467635614995,-91.86463760257884,10000.00454386273,155.93997600077583,0.0004314000449488,0.0048416760909065,,8582.48906893005,10960.61793957396,150,11,2025-09-16,2025-09-26 15:00:36.927,AH,C,3333424698,HAWK11,1,1,73,2,1,1,225,2,1,0,0,12,1,225,2,1,-146257.15857108062,-4790511.516572799,4199301.835417271,2.56961,2.79156,-0.429706,-101.125,28.875,31.875,-0.453125,-7.17188,6.92188,0.589844,0.0,-0.0117188,4,0,41.41490379458252,-91.74873093355193,10973.811246772051,-59.84974878244387,3.522576279816992,12.734370157433316,179.395,8582.48906893005,10960.61793957396,150,False,11.437644491444171,False,135.92925458351246,176.84871141202908,False,41.02276340934634,False,False
11,1970-07-23 11:25:48.377216128,2025-09-16,2025-09-26 15:00:37.721,AH,C,3983160246,JASSM,3,123,76,2,2,1,225,9,2,0,1,26,0,0,0,0,-155500.31677420562,-4777543.547822799,4213175.171354771,-2.71083,-1.01118,0.751842,33.625,-53.5,-59.0,0.0,0.0,0.0,0.0,0.0,0.0,2,0,41.58396537440921,-91.8642148577677,9999.999687455342,155.9402565856014,0.0012095254104337,0.0048405477291549,,8582.48906893005,10960.61793957396,150,11,2025-09-16,2025-09-26 15:00:38.021,AH,C,3334736998,HAWK11,1,1,73,2,1,1,225,2,1,0,0,12,1,225,2,1,-146367.24841483062,-4790476.968721236,4199338.405729771,3.11676,2.77353,-0.477547,-98.25,32.875,34.375,-0.5625,-7.89062,7.65625,0.101562,0.0800781,0.0859375,4,0,41.41533616632999,-91.75005902307456,10976.486443649112,-57.240838629989376,4.788598640060765,43.82046374656235,177.587,8582.48906893005,10960.61793957396,150,False,11.340905074921467,False,138.70916387141853,177.03814764566235,False,38.42615279377548,False,False
11,1970-07-23 11:25:48.386792947,2025-09-16,2025-09-26 15:00:38.679,AH,C,3984233988,JASSM,3,123,76,2,2,1,225,9,2,0,1,26,0,0,0,0,-155470.09118826812,-4777591.807588424,4213121.921354771,-2.71083,-1.01118,0.751938,33.625,-53.5,-59.0,0.0,0.0,0.0,0.0,0.0,0.0,2,0,41.583324693230864,-91.8638339400652,10000.00134246572,155.94280201637446,-0.0030793059344341,0.0048394951844752,,8582.48906893005,10960.61793957396,150,11,2025-09-16,2025-09-26 15:00:38.631,AH,C,3335413030,HAWK11,1,1,73,2,1,1,225,2,1,0,0,12,1,225,2,1,-146422.90857108062,-4790456.830049361,4199358.729948521,3.1322,2.69866,-0.501612,-95.75,36.125,37.0,-0.296875,-9.21875,8.98438,-0.0292969,0.0488281,0.150391,4,0,41.41558304206576,-91.75073147219514,10975.253397783905,-53.56226242094439,3.1266811635880525,42.940637677313546,177.88,8582.48906893005,10960.61793957396,150,False,11.2720765945162,False,141.23342902304918,177.12687688570384,False,35.986902792414966,False,False
11,1970-07-23 11:25:48.397595609,2025-09-16,2025-09-26 15:00:39.759,AH,C,3985427034,JASSM,3,123,76,2,2,1,225,9,2,0,1,26,0,0,0,0,-155436.50622733062,-4777645.426729049,4213062.757292271,-2.71083,-1.01109,0.751938,33.625,-53.5,-59.0,0.0,0.0,0.0,0.0,0.0,0.0,2,0,41.5826128582526,-91.86341069640626,10000.005525552531,155.93943844435816,-0.0039748117269513,0.0010876226576169,,8582.48906893005,10960.61793957396,150,11,2025-09-16,2025-09-26 15:00:39.631,AH,C,3336606028,HAWK11,1,1,73,2,1,1,225,2,1,0,0,12,1,225,2,1,-146517.76208670562,-4790417.571260299,4199399.394011021,-3.03143,2.61227,-0.515322,-91.25,41.625,42.375,-0.359375,-8.8125,8.5625,0.111328,0.0449219,0.015625,4,0,41.41607382350033,-91.75187924665198,10974.093464143938,-49.83694157503474,0.7956108803374311,47.50759715876804,179.652,8582.48906893005,10960.61793957396,150,False,11.17596592285137,False,145.9101351211584,177.27701050786698,False,31.460135138801572,False,False
11,1970-07-23 11:25:48.407336173,2025-09-16,2025-09-26 15:00:40.733,AH,C,3986679732,JASSM,3,123,76,2,2,1,225,9,2,0,1,26,0,0,0,0,-155401.24157889312,-4777701.727510299,4213000.628386021,-2.71083,-1.01109,0.751938,33.625,-53.5,-59.0,0.0,0.0,0.0,0.0,0.0,0.0,2,0,41.58186538105625,-91.8629662950389,10000.001258613076,155.93973339112097,-0.0031567532247947,0.0010864089546427,,8582.48906893005,10960.61793957396,150,11,2025-09-16,2025-09-26 15:00:40.679,AH,C,3337401360,HAWK11,1,1,73,2,1,1,225,2,1,0,0,12,1,225,2,1,-146579.15857108062,-4790387.258760299,4199429.602995396,-3.02444,2.6326,-0.521649,-88.125,46.375,45.625,-0.25,-8.6875,8.40625,-0.0410156,0.0527344,0.0273438,4,0,41.41644689284112,-91.75262397580556,10969.731425189164,-50.35523815922417,1.737850106421991,48.47434922442376,178.222,8582.48906893005,10960.61793957396,150,False,11.091990481297968,False,149.22488500174583,177.36429426750433,False,28.21837008294191,True,False
11,1970-07-23 11:25:48.417993301,2025-09-16,2025-09-26 15:00:41.799,AH,C,3987874626,JASSM,3,123,76,2,2,1,225,9,2,0,1,26,0,0,0,0,-155367.60486014312,-4777755.428682174,4212941.366667271,-2.71083,-1.01109,0.751938,33.625,-53.5,-59.0,0.0,0.0,0.0,0.0,0.0,0.0,2,0,41.58115240566587,-91.86254241844728,9999.99780402954,155.94001471164512,-0.0023764566635578,0.0010852501084809,,8582.48906893005,10960.61793957396,150,11,2025-09-16,2025-09-26 15:00:41.835,AH,C,3339031792,HAWK11,1,1,73,2,1,1,225,2,1,0,0,12,1,225,2,1,-146695.59411795562,-4790318.037080611,4199496.700651646,-3.01398,2.4931,-0.565368,-81.0,53.375,52.125,-0.390625,-9.26562,9.01562,0.00585938,0.0566406,0.0878906,4,0,41.41729040988999,-91.75404063830084,10953.893932641202,-43.49770486769539,-0.7118496421494531,44.99552598327729,180.031,8582.48906893005,10960.61793957396,150,False,10.97161655041779,False,155.3769783397226,177.527859510143,False,22.216628978793636,True,False
11,1970-07-23 11:25:48.427254135,2025-09-16,2025-09-26 15:00:42.725,AH,C,3989126406,JASSM,3,123,76,2,2,1,225,9,2,0,1,26,0,0,0,0,-155332.36657889312,-4777811.684541549,4212879.284636021,-2.71083,-1.01109,0.751938,33.625,-53.5,-59.0,0.0,0.0,0.0,0.0,0.0,0.0,2,0,41.5804055035192,-91.86209837046354,9999.995843234909,155.94030941537028,-0.001559027942501,0.0010840445647621,,8582.48906893005,10960.61793957396,150,11,2025-09-16,2025-09-26 15:00:42.725,AH,C,3340185024,HAWK11,1,1,73,2,1,1,225,2,1,0,0,12,1,225,2,1,-146771.97107108062,-4790262.408174361,4199550.481901646,-3.01207,2.44708,-0.598924,-75.25,58.5,57.0,-0.203125,-9.29688,9.0,-0.0625,0.0566406,0.03125,4,0,41.41797046275415,-91.75497367471294,10939.57381523267,-40.58259592023918,-0.4982838960769764,43.6245563449861,180.361,8582.48906893005,10960.61793957396,150,False,10.867501339892316,False,160.016175123004,177.6172251847133,False,17.65187884386057,True,False
11,1970-07-23 11:25:48.438272925,2025-09-16,2025-09-26 15:00:43.827,AH,C,3990379812,JASSM,3,123,76,2,2,1,225,9,2,0,1,26,0,0,0,0,-155297.08239920562,-4777868.014619674,4212817.124479771,-2.71083,-1.01109,0.751938,33.625,-53.5,-59.0,0.0,0.0,0.0,0.0,0.0,0.0,2,0,41.57965763949692,-91.86165375398517,10000.006420676384,155.94060449203567,-0.0007405459693171,0.0010828429012709,,8582.48906893005,10960.61793957396,150,11,2025-09-16,2025-09-26 15:00:43.725,AH,C,3341457556,HAWK11,1,1,73,2,1,1,225,2,1,0,0,12,1,225,2,1,-146848.53747733062,-4790196.628877486,4199614.061979771,-3.07237,2.37067,-0.640916,-68.75,62.75,62.125,-0.125,-9.48438,9.3125,-0.0722656,0.0429688,0.0839844,4,0,41.41877700408013,-91.7559127142192,10921.580901047571,-36.28473143957407,-0.5646692224793397,37.58461422023336,181.277,8582.48906893005,10960.61793957396,150,False,10.756420672748987,False,164.75373548101575,177.69310956628215,False,12.979679871558975,True,False
11,1970-07-23 11:25:48.448311953,2025-09-16,2025-09-26 15:00:44.831,AH,C,3991631940,JASSM,3,123,76,2,2,1,225,9,2,0,1,26,0,0,0,0,-155261.83435233062,-4777924.284150924,4212755.022917271,-2.71083,-1.01109,0.751938,33.625,-53.5,-59.0,0.0,0.0,0.0,0.0,0.0,0.0,2,0,41.57891052252344,-91.8612096041747,10000.003205269815,155.94089925463808,7.711311548495036e-05,0.0010816347652241,,8582.48906893005,10960.61793957396,150,11,2025-09-16,2025-09-26 15:00:44.927,AH,C,3342928922,HAWK11,1,1,73,2,1,1,225,2,1,0,0,12,1,225,2,1,-146929.61364920562,-4790115.147432174,4199695.315886021,-3.0625,2.28208,-0.689716,-61.125,66.375,67.75,-0.296875,-9.51562,9.375,-0.0195312,0.0410156,0.0292969,4,0,41.419795427246186,-91.75691142572316,10903.683539321144,-31.418297588788526,-0.31267096319776,34.97771625323999,182.671,8582.48906893005,10960.61793957396,150,False,10.632814292622216,False,169.89824175289385,177.75377347260553,False,7.88990719797313,True,False
11,1970-07-23 11:25:48.459352696,2025-09-16,2025-09-26 15:00:45.935,AH,C,3992885424,JASSM,3,123,76,2,2,1,225,9,2,0,1,26,0,0,0,0,-155226.54821951812,-4777980.614229049,4212692.851042271,-2.71083,-1.01109,0.751938,33.625,-53.5,-59.0,0.0,0.0,0.0,0.0,0.0,0.0,2,0,41.578162576358814,-91.86076498480772,9999.996637890195,155.94119432450773,0.000895674127108,0.0010804170437181,,8582.48906893005,10960.61793957396,150,11,2025-09-16,2025-09-26 15:00:45.835,AH,C,3344002620,HAWK11,1,1,73,2,1,1,225,2,1,0,0,12,1,225,2,1,-146981.93005545562,-4790053.169893111,4199758.229948521,-3.08196,2.23386,-0.723176,-55.5,68.25,71.5,-0.078125,-9.3125,9.125,-0.0625,0.0546875,0.0566406,4,0,41.42057926538888,-91.7575593332298,10891.779696863863,-28.64508022535164,0.3192084025370376,32.06874438860117,182.426,8582.48906893005,10960.61793957396,150,False,10.52872957073946,False,173.44194178701875,177.7731732023594,False,4.3667425763918235,True,False
11,1970-07-23 11:25:48.470371848,2025-09-16,2025-09-26 15:00:47.037,AH,C,3994195926,JASSM,3,123,76,2,2,1,225,9,2,0,1,26,0,0,0,0,-155189.65661795562,-4778039.506807174,4212627.854948521,-2.71083,-1.01109,0.752034,33.625,-53.5,-59.0,0.0,0.0,0.0,0.0,0.0,0.0,2,0,41.57738063076442,-91.86030014703395,10000.003084109268,155.9437971719052,-0.0032415143740062,0.0010791274019472,,8582.48906893005,10960.61793957396,150,11,2025-09-16,2025-09-26 15:00:47.021,AH,C,3345394452,HAWK11,1,1,73,2,1,1,225,2,1,0,0,12,1,225,2,1,-147042.23864920562,-4789971.647432174,4199843.763151646,-3.06125,2.13396,-0.764785,-48.75,69.75,75.875,-0.28125,-9.53125,9.39062,-0.00195312,0.0371094,0.03125,4,0,41.42163059286196,-91.758309936152,10881.519859231676,-23.81322537603413,0.5534917047155572,29.413214577797227,183.783,8582.48906893005,10960.61793957396,150,False,10.405974300019382,False,177.54827778041445,177.77634553429672,False,0.5156350275693083,True,False
11,1970-07-23 11:25:48.480254526,2025-09-16,2025-09-26 15:00:48.025,AH,C,3995449504,JASSM,3,123,76,2,2,1,225,9,2,0,1,26,0,0,0,0,-155154.36755545562,-4778095.838838424,4212565.679167271,-2.71083,-1.01109,0.752034,33.625,-53.5,-59.0,0.0,0.0,0.0,0.0,0.0,0.0,2,0,41.57663264349545,-91.8598555127986,10000.00129551154,155.94409224282927,-0.0024229080220139,0.0010779516774452,,8582.48906893005,10960.61793957396,150,11,2025-09-16,2025-09-26 15:00:47.927,AH,C,3346547684,HAWK11,1,1,73,2,1,1,225,2,1,0,0,12,1,225,2,1,-147086.10583670562,-4789902.207979049,4199918.370573521,-3.04495,2.09417,-0.787412,-43.25,70.75,78.75,-0.234375,-8.76562,8.42188,-0.0253906,0.0410156,0.0351562,4,0,41.42253928432941,-91.75885964613347,10876.023567283317,-21.79974167781249,1.0760475076550375,28.77860898888432,182.842,8582.48906893005,10960.61793957396,150,False,10.297098968519796,False,179.290038583812,177.7559659205753,False,2.9539682496294284,True,False
11,1970-07-23 11:25:48.491274333,2025-09-16,2025-09-26 15:00:49.127,AH,C,3996702510,JASSM,3,123,76,2,2,1,225,9,2,0,1,26,0,0,0,0,-155119.09509451812,-4778152.145479049,4212503.530729771,-2.71083,-1.01109,0.752034,33.625,-53.5,-59.0,0.0,0.0,0.0,0.0,0.0,0.0,2,0,41.57588498683386,-91.85941109756004,10000.00234439529,155.94438716406563,-0.001604668767485,0.0010767688511676,,8582.48906893005,10960.61793957396,150,11,2025-09-16,2025-09-26 15:00:49.131,AH,C,3347740684,HAWK11,1,1,73,2,1,1,225,2,1,0,0,12,1,225,2,1,-147125.98474295562,-4789828.729463424,4199998.397917271,-3.0205,2.00721,-0.81857,-37.375,71.875,81.125,-0.3125,-8.96875,8.64062,0.00390625,0.0292969,0.0566406,4,0,41.42350931398778,-91.75936319171032,10872.065386500506,-17.926078760303334,1.4694222440838802,26.679483600845145,183.208,8582.48906893005,10960.61793957396,150,False,10.185856251617983,False,176.08816339729563,177.71595168434666,False,6.1730904362742045,True,False
11,1970-07-23 11:25:48.501301440,2025-09-16,2025-09-26 15:00:50.130,AH,C,3997955448,JASSM,3,123,76,2,2,1,225,9,2,0,1,26,0,0,0,0,-155083.82361014312,-4778208.448213424,4212441.384245396,-2.71083,-1.01109,0.752034,33.625,-53.5,-59.0,0.0,0.0,0.0,0.0,0.0,0.0,2,0,41.575137364633214,-91.85896670578806,10000.002403699884,155.94468206537428,-0.0007864665620256,0.0010755917673157,,8582.48906893005,10960.61793957396,150,11,2025-09-16,2025-09-26 15:00:50.334,AH,C,3349371116,HAWK11,1,1,73,2,1,1,225,2,1,0,0,12,1,225,2,1,-147169.89880545562,-4789727.633760299,4200111.683073521,-2.94323,1.92591,-0.851263,-29.125,72.5,84.5,-0.015625,-8.95312,8.76562,-0.0195312,0.0292969,0.03125,4,0,41.42486738591475,-91.75992511723832,10872.704409933624,-14.371698714654858,2.280713712177449,27.769192791503865,183.0,8582.48906893005,10960.61793957396,150,False,10.05257649823286,False,171.63726915733804,177.6300125930846,False,10.712396459626616,True,False
11,1970-07-23 11:25:48.512329723,2025-09-16,2025-09-26 15:00:51.232,AH,C,3999208462,JASSM,3,123,76,2,2,1,225,9,2,0,1,26,0,0,0,0,-155048.55017264312,-4778264.752900924,4212379.233854771,-2.71083,-1.01109,0.752034,33.625,-53.5,-59.0,0.0,0.0,0.0,0.0,0.0,0.0,2,0,41.57438970303968,-91.85852230011072,10000.002856537169,155.94497697155566,3.177743000198897e-05,0.001074415850564,,8582.48906893005,10960.61793957396,150,11,2025-09-16,2025-09-26 15:00:51.225,AH,C,3350405048,HAWK11,1,1,73,2,1,1,225,2,1,0,0,12,1,225,2,1,-147193.01403983062,-4789664.529268111,4200184.241667271,-2.91341,1.8564,-0.863152,-24.625,72.75,85.5,-0.25,-8.34375,8.10938,-0.0214844,0.03125,0.0507812,4,0,41.4257283382572,-91.7602245422364,10876.7910533782,-11.67587350969088,2.2668683033630472,26.57313306283387,182.426,8582.48906893005,10960.61793957396,150,False,9.951276389507628,False,169.3434985332003,177.5561401055178,False,13.074840280375321,True,False
11,1970-07-23 11:25:48.523352949,2025-09-16,2025-09-26 15:00:52.335,AH,C,4000520088,JASSM,3,123,76,2,2,1,225,9,2,0,1,26,0,0,0,0,-155011.62634451812,-4778323.688447799,4212314.175261021,-2.71074,-1.01099,0.752034,33.625,-53.5,-59.0,0.0,0.0,0.0,0.0,0.0,0.0,2,0,41.57360707685888,-91.85805711372603,9999.998573788447,155.94163708717628,-0.0007884496080329,0.0028086291564423,,8582.48906893005,10960.61793957396,150,11,2025-09-16,2025-09-26 15:00:52.431,AH,C,3351757112,HAWK11,1,1,73,2,1,1,225,2,1,0,0,12,1,225,2,1,-147216.54138358062,-4789579.998994674,4200281.573698521,-2.81207,1.76858,-0.869192,-18.375,73.5,86.375,-0.453125,-7.76562,7.4375,0.0253906,0.0253906,0.0195312,4,0,41.426883896263526,-91.76053677086944,10882.010072477156,-8.412442663969037,1.949026266406366,28.66500855521081,182.512,8582.48906893005,10960.61793957396,150,False,9.831613594666567,False,166.20507754535362,177.43833122318318,False,16.318064937341806,True,False
11,1970-07-23 11:25:48.534374088,2025-09-16,2025-09-26 15:00:53.437,AH,C,4001891076,JASSM,3,123,76,2,2,1,225,9,2,0,1,26,0,0,0,0,-154973.03259451812,-4778385.291963424,4212246.171354771,-2.71074,-1.01099,0.752034,33.625,-53.5,-59.0,0.0,0.0,0.0,0.0,0.0,0.0,2,0,41.57278901827034,-91.85757089977696,9999.998872713062,155.9419597272539,0.0001068299133724,0.0028072790994024,,8582.48906893005,10960.61793957396,150,11,2025-09-16,2025-09-26 15:00:53.335,AH,C,3352950112,HAWK11,1,1,73,2,1,1,225,2,1,0,0,12,1,225,2,1,-147232.08825858062,-4789504.985322799,4200367.616667271,-2.77468,1.70953,-0.872068,-13.125,74.375,86.75,-0.078125,-7.625,7.34375,-0.0214844,0.0195312,0.0449219,4,0,41.42790809830468,-91.76075013543664,10885.526919408892,-6.230950052442775,1.7897092762681606,28.29052280170778,181.888,8582.48906893005,10960.61793957396,150,False,9.718704813026042,False,163.59155019548587,177.31492790347338,False,19.04113624877834,True,False
11,1970-07-23 11:25:48.545252930,2025-09-16,2025-09-26 15:00:54.525,AH,C,4003143814,JASSM,3,123,76,2,2,1,225,9,2,0,1,26,0,0,0,0,-154937.76696951812,-4778441.581025924,4212184.032682896,-2.71074,-1.01099,0.75213,33.625,-53.5,-59.0,0.0,0.0,0.0,0.0,0.0,0.0,2,0,41.57204152162185,-91.8571266259365,10000.000516983286,155.94454779852703,-0.0040648210380555,0.0028059896820666,,8582.48906893005,10960.61793957396,150,11,2025-09-16,2025-09-26 15:00:54.521,AH,C,3354421476,HAWK11,1,1,73,2,1,1,225,2,1,0,0,12,1,225,2,1,-147244.47888358062,-4789411.635713424,4200473.179167271,-2.87823,1.60838,-0.857112,-7.625,75.375,86.875,-0.015625,-7.45312,7.10938,-0.3125,0.0,0.0253906,4,0,41.42917371798927,-91.76093252152798,10886.103927667818,-2.5613656668952745,0.6036655843707288,18.023683175329992,181.803,8582.48906893005,10960.61793957396,150,False,9.598154733218765,False,160.86537073647952,177.14565193376959,False,21.922553108539375,True,False
11,1970-07-23 11:25:48.555282548,2025-09-16,2025-09-26 15:00:55.528,AH,C,4004398020,JASSM,3,123,76,2,2,1,225,9,2,0,1,26,0,0,0,0,-154902.45935233062,-4778497.936494674,4212121.817839146,-2.71074,-1.01099,0.75213,33.625,-53.5,-59.0,0.0,0.0,0.0,0.0,0.0,0.0,2,0,41.571293122095724,-91.85668183358364,10000.000164324294,155.94484294339213,-0.0032457787913856,0.0028047897653954,,8582.48906893005,10960.61793957396,150,11,2025-09-16,2025-09-26 15:00:55.521,AH,C,3355336108,HAWK11,1,1,73,2,1,1,225,2,1,0,0,12,1,225,2,1,-147249.16638358062,-4789352.360322799,4200539.892057896,-3.02741,1.58058,-0.851839,-5.5,76.125,86.75,-0.109375,-6.76562,6.48438,-0.167969,-0.00195312,0.00585938,4,0,41.42997580419745,-91.7610103263244,10885.546036922824,-1.5285975807321948,0.2599556442005687,8.282609118917348,182.218,8582.48906893005,10960.61793957396,150,True,9.504563310447706,False,159.81911772615516,177.0215583899555,False,23.083274671549837,True,False
11,1970-07-23 11:25:48.566291693,2025-09-16,2025-09-26 15:00:56.629,AH,C,4005708824,JASSM,3,123,76,2,2,1,225,9,2,0,1,26,0,0,0,0,-154865.55896170562,-4778556.831025924,4212056.796354771,-2.71074,-1.01099,0.75213,33.625,-53.5,-59.0,0.0,0.0,0.0,0.0,0.0,0.0,2,0,41.57051097816139,-91.8562169882755,9999.996390264716,155.9451513898629,-0.0023898059229924,0.0028035425264929,,8582.48906893005,10960.61793957396,150,11,2025-09-16,2025-09-26 15:00:56.725,AH,C,3356926774,HAWK11,1,1,73,2,1,1,225,2,1,0,0,12,1,225,2,1,-147254.91833670562,-4789249.957979049,4200653.913542271,3.09519,1.5939,-0.843594,-4.25,76.875,86.5,-0.015625,-6.6875,6.29688,0.0195312,-0.00390625,0.0,4,0,41.4313535960312,-91.76111670402906,10881.744997237513,-2.050295212029293,-0.1929085490045742,-0.3462073977205667,182.267,8582.48906893005,10960.61793957396,150,True,9.377456288568963,False,159.20692740642076,176.80788059080487,False,23.901488374421422,True,False
11,1970-07-23 11:25:48.577333037,2025-09-16,2025-09-26 15:00:57.733,AH,C,4006961522,JASSM,3,123,76,2,2,1,225,9,2,0,1,26,0,0,0,0,-154830.29431326812,-4778613.116182174,4211994.657682896,-2.71074,-1.01099,0.75213,33.625,-53.5,-59.0,0.0,0.0,0.0,0.0,0.0,0.0,2,0,41.56976349911062,-91.85577275886358,10000.001513965968,155.9454461522745,-0.0015717726581473,0.0028023490404611,,8582.48906893005,10960.61793957396,150,11,2025-09-16,2025-09-26 15:00:57.726,AH,C,3358159540,HAWK11,1,1,73,2,1,1,225,2,1,0,0,12,1,225,2,1,-147259.14489920562,-4789169.117158736,4200742.960417271,3.08541,1.59649,-0.851263,-4.125,77.5,86.375,-0.109375,-7.20312,7.03125,-0.0292969,0.0175781,0.0,4,0,41.43243482011652,-91.7611969300371,10876.630566268968,-2.130275783586934,0.2513057880263147,-0.7953634782259248,182.793,8582.48906893005,10960.61793957396,150,True,9.269113334262611,False,159.1448202352032,176.6320928082925,False,24.134013898170753,True,False
11,1970-07-23 11:25:48.587600045,2025-09-16,2025-09-26 15:00:58.760,AH,C,4008215268,JASSM,3,123,76,2,2,1,225,9,2,0,1,26,0,0,0,0,-154795.00036795562,-4778669.446260299,4211932.464323521,-2.71074,-1.01099,0.75213,33.625,-53.5,-59.0,0.0,0.0,0.0,0.0,0.0,0.0,2,0,41.569015387598064,-91.85532817136584,9999.99972695711,155.94574114793096,-0.0007530510827772,0.0028011501214639,,8582.48906893005,10960.61793957396,150,11,2025-09-16,2025-09-26 15:00:58.725,AH,C,3359113938,HAWK11,1,1,73,2,1,1,225,2,1,0,0,12,1,225,2,1,-147262.13122733062,-4789107.149385299,4200811.819792271,3.09289,1.59045,-0.862864,-4.0,77.25,86.75,-0.03125,-7.51562,7.20312,0.0195312,0.0,0.00195312,4,0,41.43326772604332,-91.76125539836517,10874.001567967474,-1.8773220998341065,0.9072096369487328,-0.6259232226535507,183.086,8582.48906893005,10960.61793957396,150,True,9.174496728159998,False,159.0773067489208,176.4880321775112,False,24.35545428077942,True,False
11,1970-07-23 11:25:48.599365563,2025-09-16,2025-09-26 15:00:59.936,AH,C,4009586224,JASSM,3,123,76,2,2,1,225,9,2,0,1,26,0,0,0,0,-154756.40661795562,-4778731.041963424,4211864.456511021,-2.71074,-1.01099,0.75213,33.625,-53.5,-59.0,0.0,0.0,0.0,0.0,0.0,0.0,2,0,41.56819733714431,-91.85484202930456,10000.0009991169,155.94606371115748,0.0001422097210321,0.0027998420046404,,8582.48906893005,10960.61793957396,150,11,2025-09-16,2025-09-26 15:01:00.131,AH,C,3361022736,HAWK11,1,1,73,2,1,1,225,2,1,0,0,12,1,225,2,1,-147267.95153983062,-4788983.703096236,4200949.690886021,3.13201,1.59687,-0.868233,-3.5,77.375,87.0,-0.171875,-7.20312,6.82812,0.0351562,-0.00390625,0.0117188,4,0,41.434931681428274,-91.76137033878486,10870.27894018524,-2.103455021509968,1.2258295202905456,1.891358996444408,183.037,8582.48906893005,10960.61793957396,150,True,9.030004735248964,False,158.82615557886518,176.20886708689238,False,24.891313999225773,True,False
11,1970-07-23 11:25:48.609273734,2025-09-16,2025-09-26 15:01:00.927,AH,C,4010780296,JASSM,3,123,76,2,2,1,225,9,2,0,1,26,0,0,0,0,-154722.79236014312,-4778784.690400924,4211805.222136021,-2.71074,-1.01099,0.75213,33.625,-53.5,-59.0,0.0,0.0,0.0,0.0,0.0,0.0,2,0,41.56748482462315,-91.85441862087424,10000.003788281434,155.94634464534374,0.0009219683139775,0.0027986994538225,,8582.48906893005,10960.61793957396,150,11,2025-09-16,2025-09-26 15:01:00.927,AH,C,3361977136,HAWK11,1,1,73,2,1,1,225,2,1,0,0,12,1,225,2,1,-147270.59021170562,-4788921.961885299,4201019.009245396,-3.11312,1.587,-0.87178,-3.0,77.25,87.125,-0.140625,-7.28125,6.78125,0.0488281,0.0078125,-0.00195312,4,0,41.435766399095016,-91.76142457281888,10869.190469675625,-1.7309295217532918,1.4155678216599177,3.648276377676054,183.0,8582.48906893005,10960.61793957396,150,True,8.937892771476669,False,158.5779590316662,176.05525053568158,False,25.297518854002313,True,False
11,1970-07-23 11:25:48.618312378,2025-09-16,2025-09-26 15:01:01.831,AH,C,4011854388,JASSM,3,123,76,2,2,1,225,9,2,0,1,26,0,0,0,0,-154692.55603201812,-4778832.946260299,4211751.938932896,-2.71074,-1.01099,0.752226,33.625,-53.5,-59.0,0.0,0.0,0.0,0.0,0.0,0.0,2,0,41.56684391101603,-91.85403776966076,10000.003248673484,155.94889203227535,-0.003369442893683,0.0027976360626513,,8582.48906893005,10960.61793957396,150,11,2025-09-16,2025-09-26 15:01:01.726,AH,C,3362971300,HAWK11,1,1,73,2,1,1,225,2,1,0,0,12,1,225,2,1,-147272.82068045562,-4788857.200166549,4201091.673307896,-3.06509,1.57521,-0.877725,-2.25,77.25,87.125,-0.0625,-7.20312,6.8125,0.0371094,0.00585938,0.0175781,4,0,41.436641744239374,-91.7614750392887,10867.91412313619,-1.2872927004087518,1.7435227336768102,5.894097213216923,183.404,8582.48906893005,10960.61793957396,150,True,8.848462416584756,False,158.20924514282123,175.892277644034,False,25.83064892492765,True,False
11,1970-07-23 11:25:48.627352190,2025-09-16,2025-09-26 15:01:02.735,AH,C,4012987638,JASSM,3,123,76,2,2,1,225,9,2,0,1,26,0,0,0,0,-154660.65368826812,-4778883.858369674,4211695.720182896,-2.71074,-1.01099,0.752226,33.625,-53.5,-59.0,0.0,0.0,0.0,0.0,0.0,0.0,2,0,41.56616769983274,-91.85363594280538,10000.000357845674,155.94915864000802,-0.0026294120616868,0.0027965872666061,,8582.48906893005,10960.61793957396,150,11,2025-09-16,2025-09-26 15:01:02.833,AH,C,3364243832,HAWK11,1,1,73,2,1,1,225,2,1,0,0,12,1,225,2,1,-147274.53552420562,-4788775.006807174,4201183.784636021,-3.06518,1.54549,-0.877725,-1.0,77.25,87.125,-0.078125,-7.09375,6.8125,-0.0917969,-0.00195312,0.0195312,4,0,41.43775215494447,-91.76152575179994,10865.974970728725,-0.1990032762274654,1.728075363488973,4.611556936369265,183.037,8582.48906893005,10960.61793957396,150,True,8.744360705039698,False,157.5945231712263,175.68171309088382,False,26.657594948871406,True,False
11,1970-07-23 11:25:48.637272159,2025-09-16,2025-09-26 15:01:03.727,AH,C,4014180332,JASSM,3,123,76,2,2,1,225,9,2,0,1,26,0,0,0,0,-154627.07751639312,-4778937.442354049,4211636.552214146,-2.71074,-1.01089,0.752226,33.625,-53.5,-59.0,0.0,0.0,0.0,0.0,0.0,0.0,2,0,41.56545600704479,-91.8532130419972,10000.003616231194,155.94579594647809,-0.0035251464358241,-0.0009564805449565,,8582.48906893005,10960.61793957396,150,11,2025-09-16,2025-09-26 15:01:03.834,AH,C,3365198232,HAWK11,1,1,73,2,1,1,225,2,1,0,0,12,1,225,2,1,-147275.15466483062,-4788712.862275924,4201253.435026646,-3.12692,1.52516,-0.878971,-0.5,77.375,87.25,-0.15625,-7.14062,7.09375,-0.0742188,0.00976562,0.0117188,4,0,41.43859188320605,-91.7615559980999,10864.478254277135,0.5445438269303671,1.802962244362897,0.2005375967241518,183.489,8582.48906893005,10960.61793957396,150,True,8.652781894788053,False,157.34835765349519,175.50995689341468,False,27.076750704058544,True,False
11,1970-07-23 11:25:48.646290510,2025-09-16,2025-09-26 15:01:04.629,AH,C,4015254986,JASSM,3,123,76,2,2,1,225,9,2,0,1,26,0,0,0,0,-154596.82458670562,-4778985.721650924,4211583.237761021,-2.71074,-1.01089,0.752226,33.625,-53.5,-59.0,0.0,0.0,0.0,0.0,0.0,0.0,2,0,41.56481474213561,-91.85283200670128,10000.001154212056,155.94604875242482,-0.0028233653643639,-0.0009575249359077,,8582.48906893005,10960.61793957396,150,11,2025-09-16,2025-09-26 15:01:04.725,AH,C,3366550298,HAWK11,1,1,73,2,1,1,225,2,1,0,0,12,1,225,2,1,-147275.66443045562,-4788624.569307174,4201353.013151646,3.09346,1.53734,-0.877821,-0.5,77.375,87.625,-0.203125,-6.89062,6.875,-0.046875,-0.00976562,-0.0234375,4,0,41.43978919999008,-91.76159455088847,10863.680094555892,0.0993924924890696,1.7353030832107963,-2.874195753046134,183.819,8582.48906893005,10960.61793957396,150,True,8.54687562929968,False,157.34423040433776,175.27081601984514,False,27.326102492132105,True,False
11,1970-07-23 11:25:48.656333080,2025-09-16,2025-09-26 15:01:05.633,AH,C,4016388100,JASSM,3,123,76,2,2,1,225,9,2,0,1,26,0,0,0,0,-154564.92614920562,-4779036.625947799,4211527.024870396,-2.71074,-1.01089,0.752226,33.625,-53.5,-59.0,0.0,0.0,0.0,0.0,0.0,0.0,2,0,41.56413861182216,-91.85243025479868,10000.002622505695,155.94631529977374,-0.0020834274423384,-0.0009586200826527,,8582.48906893005,10960.61793957396,150,11,2025-09-16,2025-09-26 15:01:05.724,AH,C,3367783062,HAWK11,1,1,73,2,1,1,225,2,1,0,0,12,1,225,2,1,-147276.35974295562,-4788544.625947799,4201443.120573521,3.0393,1.54232,-0.880505,-1.0,77.625,88.125,-0.015625,-7.04688,7.29688,-0.0527344,0.00976562,0.00195312,4,0,41.44087288350992,-91.76163225334066,10862.865944984966,-0.0829273426088433,1.8901652907969293,-5.763571189146755,184.87,8582.48906893005,10960.61793957396,150,True,8.444833058954618,False,157.58457566065744,175.0460378671467,False,27.31492934689371,True,False
11,1970-07-23 11:25:48.666351344,2025-09-16,2025-09-26 15:01:06.635,AH,C,4017580990,JASSM,3,123,76,2,2,1,225,9,2,0,1,26,0,0,0,0,-154531.34509451812,-4779090.215791549,4211467.843229771,-2.71074,-1.01089,0.752226,33.625,-53.5,-59.0,0.0,0.0,0.0,0.0,0.0,0.0,2,0,41.56342678826477,-91.85200731970431,10000.001121844927,155.94659589752965,-0.0013044342230254,-0.000959783631387,,8582.48906893005,10960.61793957396,150,11,2025-09-16,2025-09-26 15:01:06.520,AH,C,3368737462,HAWK11,1,1,73,2,1,1,225,2,1,0,0,12,1,225,2,1,-147277.40661795562,-4788482.184541549,4201513.657682896,3.02022,1.53753,-0.879738,-1.75,77.75,88.5,0.203125,-6.79688,7.0625,-0.00390625,0.00390625,-0.00195312,4,0,41.44172028263552,-91.76166772477175,10862.6139260388,0.0921185393153804,1.847083693003564,-7.062689526622211,185.445,8582.48906893005,10960.61793957396,150,True,8.353032033177902,False,157.94480327786417,174.86035971791964,False,27.144473676515418,True,False
11,1970-07-23 11:25:48.675251905,2025-09-16,2025-09-26 15:01:07.525,AH,C,4018713026,JASSM,3,123,76,2,2,1,225,9,2,0,1,26,0,0,0,0,-154499.47693045562,-4779141.069307174,4211411.681120396,-2.71074,-1.01089,0.752226,33.625,-53.5,-59.0,0.0,0.0,0.0,0.0,0.0,0.0,2,0,41.56275129404537,-91.85160596721748,9999.99808573935,155.94686217257933,-0.0005651963277854,-0.0009608794588813,,8582.48906893005,10960.61793957396,150,11,2025-09-16,2025-09-26 15:01:07.333,AH,C,3369612328,HAWK11,1,1,73,2,1,1,225,2,1,0,0,12,1,225,2,1,-147279.05114920562,-4788424.872041549,4201578.468229771,3.0021,1.55632,-0.879546,-2.5,78.125,88.625,-0.09375,-6.96875,7.125,-0.0078125,0.00195312,-0.0253906,4,0,41.44249840567703,-91.76170845582875,10862.584508524636,-0.5945986852526167,1.8404145437216972,-7.293368042570018,185.603,8582.48906893005,10960.61793957396,150,True,8.267207408350894,False,158.3092585788836,174.68737487555805,False,26.951628625425656,True,False
11,1970-07-23 11:25:48.684797022,2025-09-16,2025-09-26 15:01:08.479,AH,C,4019788222,JASSM,3,123,76,2,2,1,225,9,2,0,1,26,0,0,0,0,-154469.20935233062,-4779189.370088424,4211358.339323521,-2.71074,-1.01089,0.752226,33.625,-53.5,-59.0,0.0,0.0,0.0,0.0,0.0,0.0,2,0,41.56210971400351,-91.85122477995262,10000.000883877949,155.94711506583465,0.000136923741912,-0.0009619244991597,,8582.48906893005,10960.61793957396,150,11,2025-09-16,2025-09-26 15:01:08.334,AH,C,3370884860,HAWK11,1,1,73,2,1,1,225,2,1,0,0,12,1,225,2,1,-147281.58630545562,-4788340.459932174,4201673.858854771,3.0089,1.56897,-0.876382,-3.375,78.375,89.0,0.0,-6.57812,6.75,0.0410156,-0.00976562,-0.00195312,4,0,41.44364399722282,-91.76176979906047,10862.415813829402,-1.060991049519102,1.6681607108278729,-6.3596784376053215,186.08,8582.48906893005,10960.61793957396,150,True,8.164018764499753,False,158.72586175960822,174.44236282887977,False,26.783196319310324,True,False
11,1970-07-23 11:25:48.694333245,2025-09-16,2025-09-26 15:01:09.433,AH,C,4020920166,JASSM,3,123,76,2,2,1,225,9,2,0,1,26,0,0,0,0,-154437.34314139312,-4779240.219697799,4211302.181120396,-2.71074,-1.01089,0.752322,33.625,-53.5,-59.0,0.0,0.0,0.0,0.0,0.0,0.0,2,0,41.56143426613484,-91.85082346866706,10000.003704382956,155.94967490107015,-0.0041134488709895,-0.0009630820959822,,8582.48906893005,10960.61793957396,150,11,2025-09-16,2025-09-26 15:01:09.630,AH,C,3372395990,HAWK11,1,1,73,2,1,1,225,2,1,0,0,12,1,225,2,1,-147286.46130545562,-4788240.559541549,4201785.454557896,3.09308,1.5731,-0.875615,-4.0,79.25,88.75,-0.109375,-6.5,6.71875,0.0957031,-0.0117188,0.0,4,0,41.44499068976663,-91.76186481172016,10859.550894887125,-1.213323567691324,1.629088863865899,-1.3595754307567811,187.327,8582.48906893005,10960.61793957396,150,True,8.047545693935266,False,159.03223602178153,174.15672282104003,False,26.751542306092652,True,False
11,1970-07-23 11:25:48.703368443,2025-09-16,2025-09-26 15:01:10.336,AH,C,4022053560,JASSM,3,123,76,2,2,1,225,9,2,0,1,26,0,0,0,0,-154405.43689139312,-4779291.131807174,4211245.948698521,-2.71064,-1.01089,0.752322,33.625,-53.5,-59.0,0.0,0.0,0.0,0.0,0.0,0.0,2,0,41.56075795177395,-91.85042166205628,9999.998639662414,155.94994146700043,-0.0033733197193784,0.0045273184161085,,8582.48906893005,10960.61793957396,150,11,2025-09-16,2025-09-26 15:01:10.333,AH,C,3373231090,HAWK11,1,1,73,2,1,1,225,2,1,0,0,12,1,225,2,1,-147289.18396170562,-4788184.579072799,4201847.616667271,-3.13527,1.56965,-0.874848,-3.875,79.75,88.875,0.046875,-6.71875,6.90625,0.0683594,0.00195312,0.00195312,4,0,41.44574281866301,-91.76191794607492,10857.142074644717,-1.0876510201785603,1.5829319759996303,1.6342397101324255,187.73,8582.48906893005,10960.61793957396,150,True,7.963061346484296,False,158.96775327903947,173.97867040924405,False,26.989898314732855,True,False
11,1970-07-23 11:25:48.712270091,2025-09-16,2025-09-26 15:01:11.227,AH,C,4023127302,JASSM,3,123,76,2,2,1,225,9,2,0,1,26,0,0,0,0,-154375.20935233062,-4779339.364229049,4211192.677214146,-2.71064,-1.01089,0.752322,33.625,-53.5,-59.0,0.0,0.0,0.0,0.0,0.0,0.0,2,0,41.56011724125808,-91.85004100415942,9999.999670209983,155.9501939991963,-0.0026721514776899,0.0045263117834972,,8582.48906893005,10960.61793957396,150,11,2025-09-16,2025-09-26 15:01:11.334,AH,C,3374225256,HAWK11,1,1,73,2,1,1,225,2,1,0,0,12,1,225,2,1,-147292.29333670562,-4788118.342744674,4201920.976042271,-3.0926,1.55881,-0.874465,-3.375,79.875,89.25,-0.15625,-6.79688,6.875,0.0136719,-0.00585938,0.00585938,4,0,41.4466314722978,-91.76197947652037,10853.87313841425,-0.689958823477352,1.5546344655163302,3.613316491387889,188.927,8582.48906893005,10960.61793957396,150,True,7.873704960587391,False,158.72206349569348,173.77134608507498,False,27.446708220797483,True,False
11,1970-07-23 11:25:48.723292991,2025-09-16,2025-09-26 15:01:12.329,AH,C,4024381264,JASSM,3,123,76,2,2,1,225,9,2,0,1,26,0,0,0,0,-154339.90857108062,-4779395.692354049,4211130.462370396,-2.71064,-1.01089,0.752322,33.625,-53.5,-59.0,0.0,0.0,0.0,0.0,0.0,0.0,2,0,41.55936897463753,-91.84959646778744,10000.000815877343,155.95048890495426,-0.001853283514346,0.0045251279119835,,8582.48906893005,10960.61793957396,150,11,2025-09-16,2025-09-26 15:01:12.238,AH,C,3375139888,HAWK11,1,1,73,2,1,1,225,2,1,0,0,12,1,225,2,1,-147294.84607108062,-4788055.778291549,4201990.183073521,-3.0764,1.53599,-0.869863,-2.875,80.5,89.25,-0.328125,-6.51562,6.60938,-0.0410156,0.00195312,0.0214844,4,0,41.44747035565437,-91.76203300355266,10850.57510090681,0.1496509784872346,1.2871780049237815,3.5614135192677847,189.514,8582.48906893005,10960.61793957396,150,True,7.780198535647231,False,158.48085538151076,173.5620816273979,False,27.889633143043934,True,False
11,1970-07-23 11:25:48.734329870,2025-09-16,2025-09-26 15:01:13.432,AH,C,4025692352,JASSM,3,123,76,2,2,1,225,9,2,0,1,26,0,0,0,0,-154303.00036795562,-4779454.584932174,4211065.411589146,-2.71064,-1.01089,0.752322,33.625,-53.5,-59.0,0.0,0.0,0.0,0.0,0.0,0.0,2,0,41.55858661632974,-91.84913170058188,9999.998983637615,155.95079722719902,-0.0009971124218903,0.0045238829029699,,8582.48906893005,10960.61793957396,150,11,2025-09-16,2025-09-26 15:01:13.427,AH,C,3376969152,HAWK11,1,1,73,2,1,1,225,2,1,0,0,12,1,225,2,1,-147298.69958670562,-4787931.016572799,4202127.124479771,3.14073,1.52497,-0.861138,-2.25,81.25,89.75,-0.109375,-6.67188,6.84375,-0.0253906,0.0117188,0.0,4,0,41.44913623215355,-91.762124959158,10841.60208629198,0.562742437442991,0.7919145803181651,-0.6967905184980607,190.455,8582.48906893005,10960.61793957396,150,True,7.641012402209958,False,158.17576854642192,173.1692266460584,False,28.585952650362408,True,False
11,1970-07-23 11:25:48.744792754,2025-09-16,2025-09-26 15:01:14.479,AH,C,4026945050,JASSM,3,123,76,2,2,1,225,9,2,0,1,26,0,0,0,0,-154267.73474295562,-4779510.854463424,4211003.257292271,-2.71064,-1.01089,0.752322,33.625,-53.5,-59.0,0.0,0.0,0.0,0.0,0.0,0.0,2,0,41.557839096580295,-91.84868762884253,9999.999649258283,155.95109181581006,-0.0001790649613492,0.0045227017100382,,8582.48906893005,10960.61793957396,150,11,2025-09-16,2025-09-26 15:01:14.427,AH,C,3378042852,HAWK11,1,1,73,2,1,1,225,2,1,0,0,12,1,225,2,1,-147300.90466483062,-4787857.161104049,4202207.860807896,3.11714,1.53475,-0.866603,-2.375,81.625,90.25,-0.09375,-7.5,7.60938,0.0,0.0136719,-0.00585938,4,0,41.4501201786999,-91.76217848680211,10835.57798152379,0.1963642074316426,1.1032221244480986,-1.6280931440157325,191.518,8582.48906893005,10960.61793957396,150,True,7.540404726819665,False,158.22908781909473,172.9124328027282,False,28.79209382154523,True,False
11,1970-07-23 11:25:48.755371445,2025-09-16,2025-09-26 15:01:15.537,AH,C,4028199392,JASSM,3,123,76,2,2,1,225,9,2,0,1,26,0,0,0,0,-154232.42321951812,-4779567.196260299,4210941.020964146,-2.71064,-1.01089,0.752322,33.625,-53.5,-59.0,0.0,0.0,0.0,0.0,0.0,0.0,2,0,41.55709060024135,-91.84824298976945,9999.999731066784,155.95138677641873,0.0006400488951627,0.0045215179448796,,8582.48906893005,10960.61793957396,150,11,2025-09-16,2025-09-26 15:01:15.427,AH,C,3379196084,HAWK11,1,1,73,2,1,1,225,2,1,0,0,12,1,225,2,1,-147303.25427420562,-4787778.762666549,4202295.513151646,3.13843,1.52401,-0.888942,-2.5,80.625,91.875,-0.0625,-8.59375,8.75,0.0,0.015625,0.0078125,4,0,41.4511777997686,-91.76223541514813,10833.425419538986,0.579311637831933,2.3872760646542286,-0.8702326778195636,192.41,8582.48906893005,10960.61793957396,150,True,7.436033187163428,False,158.26388146566066,172.63127583836982,False,29.069463359862798,True,False
11,1970-07-23 11:25:48.766228256,2025-09-16,2025-09-26 15:01:16.622,AH,C,4029570740,JASSM,3,123,76,2,2,1,225,9,2,0,1,26,0,0,0,0,-154193.81775076812,-4779628.791963424,4210872.977995396,-2.71064,-1.0108,0.752322,33.625,-53.5,-59.0,0.0,0.0,0.0,0.0,0.0,0.0,2,0,41.55627228366265,-91.84775688610914,9999.997947003449,155.94806639555523,-0.0001391145469321,0.0007676613417579,,8582.48906893005,10960.61793957396,150,11,2025-09-16,2025-09-26 15:01:16.427,AH,C,3380468616,HAWK11,1,1,73,2,1,1,225,2,1,0,0,12,1,225,2,1,-147305.82458670562,-4787693.643525924,4202393.663542271,3.1415,1.51624,-0.889134,-2.5,79.875,92.75,0.0,-7.10938,7.17188,-0.015625,0.0,0.00585938,4,0,41.45234620926973,-91.76229745632818,10837.578940333962,0.8597092225010555,2.403616816748376,-1.0281544011352322,192.251,8582.48906893005,10960.61793957396,150,True,7.321522173639298,False,158.23448641464827,172.31056310920587,False,29.43414909311934,True,False
11,1970-07-23 11:25:48.778291984,2025-09-16,2025-09-26 15:01:17.829,AH,C,4030941756,JASSM,3,123,76,2,2,1,225,9,2,0,1,26,0,0,0,0,-154155.22204764312,-4779690.372041549,4210804.952604771,-2.71064,-1.0108,0.752418,33.625,-53.5,-59.0,0.0,0.0,0.0,0.0,0.0,0.0,2,0,41.55545417464023,-91.8472709176884,10000.001956426704,155.9506841113195,-0.0042363343038205,0.0007662428244373,,8582.48906893005,10960.61793957396,150,11,2025-09-16,2025-09-26 15:01:17.926,AH,C,3382258114,HAWK11,1,1,73,2,1,1,225,2,1,0,0,12,1,225,2,1,-147309.68982108062,-4787574.366182174,4202533.616667271,3.13153,1.5127,-0.914444,-2.75,78.625,94.25,-0.15625,-8.09375,8.21875,-0.00195312,0.0234375,0.0,4,0,41.45399973998353,-91.76238754824652,10848.679381636492,0.958002261104468,3.857615600317617,-1.7534263765597145,192.765,8582.48906893005,10960.61793957396,150,True,7.181906953989415,False,158.27278385481338,171.86449470981174,False,29.85797940599039,True,False
11,1970-07-23 11:25:48.789292309,2025-09-16,2025-09-26 15:01:18.929,AH,C,4032255338,JASSM,3,123,76,2,2,1,225,9,2,0,1,26,0,0,0,0,-154118.24255545562,-4779749.372041549,4210739.772917271,-2.71064,-1.0108,0.752418,33.625,-53.5,-59.0,0.0,0.0,0.0,0.0,0.0,0.0,2,0,41.55467031105998,-91.84680531142766,10000.00089622836,155.95099296642837,-0.00337852413768,0.0007649799261209,,8582.48906893005,10960.61793957396,150,11,2025-09-16,2025-09-26 15:01:18.926,AH,C,3383212512,HAWK11,1,1,73,2,1,1,225,2,1,0,0,12,1,225,2,1,-147311.77380545562,-4787511.752900924,4202609.505339146,3.13028,1.50656,-0.921539,-2.875,77.75,95.125,-0.0625,-7.90625,8.07812,0.0,0.00390625,0.00976562,4,0,41.45488406596632,-91.76243550005408,10859.777911686591,1.1626923957816206,4.269765433772868,-2.089561136356004,192.532,8582.48906893005,10960.61793957396,150,True,7.084939162207013,False,158.26326008801726,171.59078946129225,False,30.145506000796466,False,False
11,1970-07-23 11:25:48.800308543,2025-09-16,2025-09-26 15:01:20.030,AH,C,4033566458,JASSM,3,123,76,2,2,1,225,9,2,0,1,26,0,0,0,0,-154081.33239920562,-4779808.258760299,4210674.716276646,-2.71064,-1.0108,0.752418,33.625,-53.5,-59.0,0.0,0.0,0.0,0.0,0.0,0.0,2,0,41.55388793670888,-91.8463405904156,9999.999808661723,155.9513012295442,-0.0025223421671051,0.0007637274324944,,8582.48906893005,10960.61793957396,150,11,2025-09-16,2025-09-26 15:01:19.833,AH,C,3384524812,HAWK11,1,1,73,2,1,1,225,2,1,0,0,12,1,225,2,1,-147314.68982108062,-4787425.924775924,4202715.104948521,3.12721,1.50915,-0.9178,-2.875,77.25,95.625,-0.09375,-6.82812,6.8125,-0.0078125,-0.00390625,0.00390625,4,0,41.4561068730834,-91.76250194253896,10878.422895890904,1.077743113939861,4.054640647202025,-2.153459635154256,192.765,8582.48906893005,10960.61793957396,150,True,6.9706827611896856,False,158.2183539041556,171.22438263737826,False,30.557226509646444,False,False
11,1970-07-23 11:25:48.810355487,2025-09-16,2025-09-26 15:01:21.035,AH,C,4034819502,JASSM,3,123,76,2,2,1,225,9,2,0,1,26,0,0,0,0,-154046.05700858062,-4779864.538057174,4210612.538542271,-2.71064,-1.0108,0.752418,33.625,-53.5,-59.0,0.0,0.0,0.0,0.0,0.0,0.0,2,0,41.55314019134147,-91.84589646228942,9999.999441501232,155.9515958283381,-0.0017040616217246,0.0007625220885691,,8582.48906893005,10960.61793957396,150,11,2025-09-16,2025-09-26 15:01:20.880,AH,C,3385359910,HAWK11,1,1,73,2,1,1,225,2,1,0,0,12,1,225,2,1,-147316.79333670562,-4787371.618135299,4202781.645964146,3.12002,1.50992,-0.916841,-3.0,77.375,95.375,-0.109375,-6.64062,6.76562,-0.00390625,0.0,0.00585938,4,0,41.45687867991376,-91.76254707455674,10889.645722156323,1.0522026505403217,3.9998821721607967,-2.5322949732375526,192.642,8582.48906893005,10960.61793957396,150,True,6.882176113869615,False,158.29383037021142,170.96605031795437,False,30.740110800156177,False,False
11,1970-07-23 11:25:48.821366913,2025-09-16,2025-09-26 15:01:22.136,AH,C,4036073782,JASSM,3,123,76,2,2,1,225,9,2,0,1,26,0,0,0,0,-154010.74743826812,-4779920.870088424,4210550.300261021,-2.71064,-1.0108,0.752418,33.625,-53.5,-59.0,0.0,0.0,0.0,0.0,0.0,0.0,2,0,41.55239172833607,-91.845451914775,9999.998280104057,155.95189070095935,-0.0008849962592773,0.0007613186309136,,8582.48906893005,10960.61793957396,150,11,2025-09-16,2025-09-26 15:01:22.131,AH,C,3387228942,HAWK11,1,1,73,2,1,1,225,2,1,0,0,12,1,225,2,1,-147321.90661795562,-4787249.893525924,4202929.349089146,3.13527,1.50321,-0.912335,-3.375,78.125,94.875,-0.0625,-6.67188,6.78125,0.0136719,-0.00585938,-0.00976562,4,0,41.45859881673465,-91.7626530022378,10911.70823099379,1.293713892603573,3.749402581344399,-1.947104272041684,192.569,8582.48906893005,10960.61793957396,150,True,6.74472187571523,False,158.5198042076366,170.45430707142356,False,31.02460138874523,False,False
11,1970-07-23 11:25:48.832248929,2025-09-16,2025-09-26 15:01:23.224,AH,C,4037384856,JASSM,3,123,76,2,2,1,225,9,2,0,1,26,0,0,0,0,-153973.83825858062,-4779979.752900924,4210485.243620396,-2.71064,-1.0108,0.752418,33.625,-53.5,-59.0,0.0,0.0,0.0,0.0,0.0,0.0,2,0,41.55160937132333,-91.84498723960225,10000.001276353429,155.95219891978516,-2.883908604450144e-05,0.0007600664856943,,8582.48906893005,10960.61793957396,150,11,2025-09-16,2025-09-26 15:01:23.130,AH,C,3388461708,HAWK11,1,1,73,2,1,1,225,2,1,0,0,12,1,225,2,1,-147325.36169608062,-4787168.012666549,4203027.544401646,3.1276,1.50762,-0.905145,-3.5,78.625,94.5,0.0,-6.01562,6.25,-0.0117188,-0.00195312,0.0117188,4,0,41.45974807384975,-91.76272444543322,10924.03980477329,1.148816703930213,3.334666085426369,-2.196124509614979,192.679,8582.48906893005,10960.61793957396,150,True,6.6349219641380905,False,158.61034258894222,170.07357982376226,False,31.31247493826932,False,False
11,1970-07-23 11:25:48.842291944,2025-09-16,2025-09-26 15:01:24.229,AH,C,4038637922,JASSM,3,123,76,2,2,1,225,9,2,0,1,26,0,0,0,0,-153938.56286795562,-4780036.028291549,4210423.063932896,-2.71064,-1.0108,0.752418,33.625,-53.5,-59.0,0.0,0.0,0.0,0.0,0.0,0.0,2,0,41.550861630584,-91.8445431441746,10000.00006359601,155.95249348362046,0.0007894320541453,0.0007588642001181,,8582.48906893005,10960.61793957396,150,11,2025-09-16,2025-09-26 15:01:24.316,AH,C,3389654706,HAWK11,1,1,73,2,1,1,225,2,1,0,0,12,1,225,2,1,-147328.92224295562,-4787089.028291549,4203120.962370396,3.13814,1.49371,-0.895557,-3.625,79.75,93.875,-0.1875,-5.95312,6.0625,0.0175781,-0.00390625,-0.00195312,4,0,41.46084784087164,-91.76279608628111,10933.128269545072,1.6604113420399895,2.8013105077761087,-2.188518721435594,193.07,8582.48906893005,10960.61793957396,150,True,6.530107770570437,False,158.72069362404906,169.6989174589967,False,31.568031853686126,False,False
11,1970-07-23 11:25:48.855591293,2025-09-16,2025-09-26 15:01:25.559,AH,C,4039890974,JASSM,3,123,76,2,2,1,225,9,2,0,1,26,0,0,0,0,-153903.28747733062,-4780092.303682174,4210360.882292271,-2.71064,-1.0108,0.752513,33.625,-53.375,-59.0,0.0,0.0,0.0,0.0,0.0,0.0,2,0,41.55011387487792,-91.8440990589818,9999.998863619832,155.95508195913325,-0.0033816918498183,0.0007576210264303,,8582.48906893005,10960.61793957396,150,11,2025-09-16,2025-09-26 15:01:25.520,AH,C,3391324904,HAWK11,1,1,73,2,1,1,225,2,1,0,0,12,1,225,2,1,-147334.11560233062,-4786976.262666549,4203252.058073521,-3.14044,1.50436,-0.881943,-3.75,80.875,93.375,-0.03125,-5.95312,6.09375,0.0195312,-0.0117188,0.00976562,4,0,41.4624025970413,-91.76289968682724,10941.17976204536,1.2998228638644658,2.011394301336356,-1.4665467238719827,193.498,8582.48906893005,10960.61793957396,150,True,6.402305240397402,False,158.79418974590882,169.1966562738433,False,31.978339949761754,False,False
11,1970-07-23 11:25:48.863995320,2025-09-16,2025-09-26 15:01:26.399,AH,C,4041146656,JASSM,3,123,76,2,2,1,225,9,2,0,1,26,0,0,0,0,-153867.93786795562,-4780148.696260299,4210298.571745396,-2.71064,-1.0108,0.752513,33.625,-53.375,-59.0,0.0,0.0,0.0,0.0,0.0,0.0,2,0,41.54936456428744,-91.84365405017736,10000.003140358342,155.9553771201733,-0.0025617053708894,0.0007564515472728,,8582.48906893005,10960.61793957396,150,11,2025-09-16,2025-09-26 15:01:26.359,AH,C,3392160004,HAWK11,1,1,73,2,1,1,225,2,1,0,0,12,1,225,2,1,-147336.81286795562,-4786919.272432174,4203317.147917271,-3.11925,1.49755,-0.879355,-3.75,81.625,93.0,0.046875,-6.29688,6.28125,0.015625,-0.00195312,0.00390625,4,0,41.46318048505794,-91.76295291528731,10942.73123504726,1.552472794656032,1.87119407454303,-0.5446880885185268,193.999,8582.48906893005,10960.61793957396,150,True,6.314357864108897,False,158.80878376250834,168.8891825344477,False,32.25819891911808,False,False
11,1970-07-23 11:25:48.874368401,2025-09-16,2025-09-26 15:01:27.436,AH,C,4042456188,JASSM,3,123,76,2,2,1,225,9,2,0,1,26,0,0,0,0,-153831.07165701812,-4780207.504854049,4210233.585417271,-2.71064,-1.0108,0.752513,33.625,-53.375,-59.0,0.0,0.0,0.0,0.0,0.0,0.0,2,0,41.54858310769252,-91.843189961449,9999.998450223207,155.95568493169918,-0.0017065426005587,0.0007552324297241,,8582.48906893005,10960.61793957396,150,11,2025-09-16,2025-09-26 15:01:27.316,AH,C,3393551836,HAWK11,1,1,73,2,1,1,225,2,1,0,0,12,1,225,2,1,-147341.36950858062,-4786823.207979049,4203426.046354771,-3.09826,1.49189,-0.875807,-3.625,81.875,93.0,-0.03125,-6.59375,6.57812,0.0136719,-0.00976562,0.00585938,4,0,41.46448619127923,-91.7630427618047,10943.576810214216,1.7664048356003257,1.6763979071151005,0.4157457107235517,193.644,8582.48906893005,10960.61793957396,150,True,6.197767595785093,False,158.75191680470138,168.41262750930323,False,32.78891161209381,False,False
11,1970-07-23 11:25:48.885343420,2025-09-16,2025-09-26 15:01:28.534,AH,C,4043768304,JASSM,3,123,76,2,2,1,225,9,2,0,1,26,0,0,0,0,-153794.13415701812,-4780266.428682174,4210168.472136021,-2.71054,-1.0107,0.752513,33.625,-53.375,-59.0,0.0,0.0,0.0,0.0,0.0,0.0,2,0,41.54780012028243,-91.84272498592706,9999.99933641272,155.95235124766063,-0.0025243316051003,0.0024922958174914,,8582.48906893005,10960.61793957396,150,11,2025-09-16,2025-09-26 15:01:28.426,AH,C,3394864134,HAWK11,1,1,73,2,1,1,225,2,1,0,0,12,1,225,2,1,-147345.15661795562,-4786733.038057174,4203527.403776646,-3.08781,1.4871,-0.870534,-3.375,82.625,92.75,-0.15625,-6.60938,6.46875,0.0,0.0,-0.00195312,4,0,41.46570607589513,-91.76312123977188,10942.477201767631,1.9541734418423216,1.3823894973514728,0.8091164319570433,194.647,8582.48906893005,10960.61793957396,150,True,6.085991036203432,False,158.64156929443124,167.94251543916582,False,33.355389857323615,False,False
11,1970-07-23 11:25:48.896348047,2025-09-16,2025-09-26 15:01:29.634,AH,C,4045080702,JASSM,3,123,76,2,2,1,225,9,2,0,1,26,0,0,0,0,-153757.18689139312,-4780325.364229049,4210103.343229771,-2.71054,-1.0107,0.752513,33.625,-53.375,-59.125,0.0,0.0,0.0,0.0,0.0,0.0,2,0,41.54701695761009,-91.8422599001848,9999.99888605652,155.9526597109579,-0.0016673034095143,0.0024910254164091,,8582.48906893005,10960.61793957396,150,11,2025-09-16,2025-09-26 15:01:29.724,AH,C,3396375266,HAWK11,1,1,73,2,1,1,225,2,1,0,0,12,1,225,2,1,-147349.20935233062,-4786627.803682174,4203645.036589146,-3.05952,1.4732,-0.869575,-2.875,82.875,93.0,-0.265625,-7.07812,6.89062,0.0195312,0.00390625,0.00585938,4,0,41.46712539248243,-91.76320844283302,10939.74830775028,2.469786930798633,1.3519649244060483,1.8332025045920228,195.453,8582.48906893005,10960.61793957396,150,True,5.964774748180424,False,158.43252314280278,167.35830161922829,False,34.14235282177312,False,False
11,1970-07-23 11:25:48.907372103,2025-09-16,2025-09-26 15:01:30.737,AH,C,4046392742,JASSM,3,123,76,2,2,1,225,9,2,0,1,26,0,0,0,0,-153720.25134451812,-4780384.284150924,4210038.231901646,-2.71054,-1.0107,0.752513,33.625,-53.375,-59.125,0.0,0.0,0.0,0.0,0.0,0.0,2,0,41.54623400230964,-91.8417949719944,10000.00393910803,155.95296806498632,-0.0008105109121939,0.0024897402994239,,8582.48906893005,10960.61793957396,150,11,2025-09-16,2025-09-26 15:01:30.926,AH,C,3397767098,HAWK11,1,1,73,2,1,1,225,2,1,0,0,12,1,225,2,1,-147352.29724295562,-4786530.057588424,4203754.501432896,-3.0973,1.45987,-0.871972,-2.5,83.0,93.5,-0.1875,-7.21875,7.14062,-0.0273438,0.00195312,0.00195312,4,0,41.46844520308877,-91.76328135442697,10937.6140179972,2.9534959250116506,1.5174703466453647,-0.9028685024501406,196.101,8582.48906893005,10960.61793957396,150,True,5.849301081357054,False,158.25392799848854,166.81307312172757,False,34.872362152548966,False,False
11,1970-07-23 11:25:48.918248786,2025-09-16,2025-09-26 15:01:31.824,AH,C,4047704148,JASSM,3,123,76,2,2,1,225,9,2,0,1,26,0,0,0,0,-153683.33239920562,-4780443.172822799,4209973.149870396,-2.71054,-1.0107,0.752513,33.625,-53.375,-59.125,0.0,0.0,0.0,0.0,0.0,0.0,2,0,41.54545142558919,-91.84133026582248,10000.00202874476,155.95327626699475,4.586987543951154e-05,0.0024884661614661,,8582.48906893005,10960.61793957396,150,11,2025-09-16,2025-09-26 15:01:31.816,AH,C,3398761264,HAWK11,1,1,73,2,1,1,225,2,1,0,0,12,1,225,2,1,-147354.25036795562,-4786461.338838424,4203832.145964146,-3.11456,1.45834,-0.871397,-2.5,82.75,94.0,-0.078125,-7.09375,6.92188,-0.00390625,0.00585938,-0.00195312,4,0,41.46937774697039,-91.7633300112198,10937.59655702752,3.0119401708309,1.488928098156722,-1.9572880263814945,196.37,8582.48906893005,10960.61793957396,150,True,5.7534846218702,False,158.24586535491983,166.378041781645,False,35.32685757930581,False,False
11,1970-07-23 11:25:48.929290106,2025-09-16,2025-09-26 15:01:32.929,AH,C,4049016410,JASSM,3,123,76,2,2,1,225,9,2,0,1,26,0,0,0,0,-153646.39001639312,-4780502.098604049,4209908.024870396,-2.71054,-1.0107,0.752609,33.625,-53.375,-59.125,0.0,0.0,0.0,0.0,0.0,0.0,2,0,41.54466834058707,-91.84086527596132,10000.000520060195,155.95588032956337,-0.0040895562354883,0.00248712341706,,8582.48906893005,10960.61793957396,150,11,2025-09-16,2025-09-26 15:01:32.727,AH,C,3399994028,HAWK11,1,1,73,2,1,1,225,2,1,0,0,12,1,225,2,1,-147356.90661795562,-4786375.497041549,4203930.091276646,-3.12644,1.46217,-0.887408,-2.75,82.0,94.875,-0.1875,-8.0625,7.8125,-0.00976562,0.0117188,0.00390625,4,0,41.47054904873518,-91.76339338269072,10939.670879070876,2.8171358390577548,2.3974457891114853,-2.4756587615855463,196.785,8582.48906893005,10960.61793957396,150,True,5.64628223652737,False,158.33628413571543,165.8438564116802,False,35.79154902626233,False,False
11,1970-07-23 11:25:48.940317490,2025-09-16,2025-09-26 15:01:34.031,AH,C,4050270934,JASSM,3,123,76,2,2,1,225,9,2,0,1,26,0,0,0,0,-153611.07263358062,-4780558.432588424,4209845.763151646,-2.71054,-1.0107,0.752609,33.625,-53.375,-59.125,0.0,0.0,0.0,0.0,0.0,0.0,2,0,41.54391968901916,-91.84042075021868,10000.000885610429,155.95617513860142,-0.0032703074598207,0.0024859293134378,,8582.48906893005,10960.61793957396,150,11,2025-09-16,2025-09-26 15:01:34.131,AH,C,3401664226,HAWK11,1,1,73,2,1,1,225,2,1,0,0,12,1,225,2,1,-147361.03161795562,-4786261.331025924,4204063.882292271,-3.1136,1.44865,-0.901214,-3.25,80.625,96.25,-0.140625,-8.01562,7.8125,0.00585938,0.0136719,-0.00195312,4,0,41.47213050963942,-91.76348475124082,10950.153100160354,3.2513827032122524,3.2191781432490707,-2.322136108101386,196.748,8582.48906893005,10960.61793957396,150,True,5.521772877499896,False,158.4971413412628,165.14463958143432,False,36.35239942466084,False,False
11,1970-07-23 11:25:48.951607610,2025-09-16,2025-09-26 15:01:35.160,AH,C,4051581460,JASSM,3,123,76,2,2,1,225,9,2,0,1,26,0,0,0,0,-153574.17907889312,-4780617.278291549,4209780.722136021,-2.71054,-1.0107,0.752609,33.625,-53.375,-59.125,0.0,0.0,0.0,0.0,0.0,0.0,2,0,41.54313763415279,-91.83995639770636,9999.99856908906,155.95648309207292,-0.0024145059526445,0.0024846853656297,,8582.48906893005,10960.61793957396,150,11,2025-09-16,2025-09-26 15:01:35.399,AH,C,3402817458,HAWK11,1,1,73,2,1,1,225,2,1,0,0,12,1,225,2,1,-147364.07068045562,-4786184.387666549,4204156.224089146,-3.1252,1.4593,-0.906774,-3.5,79.875,96.625,-0.21875,-7.5,7.23438,-0.0136719,0.0136719,0.0,4,0,41.47321094785266,-91.76354942975745,10961.96553855645,2.8537839957134143,3.5138653334278485,-2.530906258371976,196.101,8582.48906893005,10960.61793957396,150,True,5.420005908691204,False,158.57517356315947,164.598733982797,False,36.824747632577456,False,False
