Subject_cm,Timestamp,SampleDate_cm,SampleTime_cm,Configuration_cm,Scenario_cm,DisTime_cm,MarkingTxt_cm,Application_cm,EntId_cm,Site_cm,ExerciseId_cm,ForceId_cm,Category_cm,Country_cm,Domain_cm,Kind_cm,Extra_cm,Specific_cm,Subcategory_cm,AltCategory_cm,AltCountry_cm,AltDomain_cm,AltKind_cm,ECEF_X_cm,ECEF_Y_cm,ECEF_Z_cm,OriPhi_cm,OriPsi_cm,OriTheta_cm,LinVelX_cm,LinVelY_cm,LinVelZ_cm,LinAccX_cm,LinAccY_cm,LinAccZ_cm,AngVelX_cm,AngVelY_cm,AngVelZ_cm,DrAlg_cm,Appearance_cm,Latitude_cm,Longitude_cm,Altitude_cm,Heading_cm,Pitch_cm,Roll_cm,CalibratedAirspeed_cm,CM_Altitude_Lead_cm,CM_Altitude_Wing_cm,CM_Airspeed_cm,Subject_ac,SampleDate_ac,SampleTime_ac,Configuration_ac,Scenario_ac,DisTime_ac,MarkingTxt_ac,Application_ac,EntId_ac,Site_ac,ExerciseId_ac,ForceId_ac,Category_ac,Country_ac,Domain_ac,Kind_ac,Extra_ac,Specific_ac,Subcategory_ac,AltCategory_ac,AltCountry_ac,AltDomain_ac,AltKind_ac,ECEF_X_ac,ECEF_Y_ac,ECEF_Z_ac,OriPhi_ac,OriPsi_ac,OriTheta_ac,LinVelX_ac,LinVelY_ac,LinVelZ_ac,LinAccX_ac,LinAccY_ac,LinAccZ_ac,AngVelX_ac,AngVelY_ac,AngVelZ_ac,DrAlg_ac,Appearance_ac,Latitude_ac,Longitude_ac,Altitude_ac,Heading_ac,Pitch_ac,Roll_ac,CalibratedAirspeed_ac,CM_Altitude_Lead_ac,CM_Altitude_Wing_ac,CM_Airspeed_ac,Bank_Angle_Condition,distance_nm,Distance_Condition,angle_between_vel,angle_between_pos,Cone_Condition,angle_between_pos_nose,Nose_Cone_Condition,Intercept_Criteria
11,1970-07-23 11:25:55.626325758,2025-09-16,2025-09-26 15:12:42.632,AA,C,552913034,JASSM,3,135,76,2,2,1,225,9,2,0,1,26,0,0,0,0,-155723.65564139312,-4777186.948213424,4213568.604948521,-2.71093,-1.01118,0.751842,33.625,-53.5,-59.0,0.0,0.0,0.0,0.0,0.0,0.0,2,0,41.58869916851599,-91.86702971940434,9999.99776000866,155.93838822717473,-0.0039713464829493,-0.0006570635900448,,8749.224682894945,11121.848502006404,150,11,2025-09-16,2025-09-26 15:12:42.432,AA,C,4198865758,HAWK11,1,1,73,2,1,1,225,2,1,0,0,12,1,225,2,1,-144449.91052420562,-4791525.550752486,4198282.880339146,2.47105,2.59396,-0.541208,-94.875,38.875,41.0,-0.078125,-7.04688,6.09375,0.0117188,-0.00976562,0.0117188,4,0,41.40231946683368,-91.72677035880952,11121.848502006404,-48.16367471765852,1.2987769096822026,2.276197073738878,176.426,8749.224682894945,11121.848502006404,150,True,12.832463061435579,False,143.65235177132598,174.54231932756895,False,30.949566649350782,False,False
11,1970-07-23 11:25:55.635364968,2025-09-16,2025-09-26 15:12:43.536,AA,C,553988192,JASSM,3,135,76,2,2,1,225,9,2,0,1,26,0,0,0,0,-155693.38903983062,-4777235.276338424,4213515.292448521,-2.71093,-1.01118,0.751842,33.625,-53.5,-59.0,0.0,0.0,0.0,0.0,0.0,0.0,2,0,41.58805767635866,-91.86664822796055,10000.004555467596,155.93864145153833,-0.0032692607733403,-0.0006580735060374,,8749.224682894945,11121.848502006404,150,11,2025-09-16,2025-09-26 15:12:43.526,AA,C,4200257590,HAWK11,1,1,73,2,1,1,225,2,1,0,0,12,1,225,2,1,-144560.63513358062,-4791479.305635299,4198330.796354771,2.47076,2.58572,-0.547248,-94.125,39.375,41.0,0.0,-7.21875,6.17188,-0.0410156,-0.00195312,0.00976562,4,0,41.40289814831116,-91.7281098395287,11120.276519190778,-47.63234435778031,1.2998482960373936,2.0274290560732333,175.57,8749.224682894945,11121.848502006404,150,True,12.730852317840133,False,143.99909543813587,174.6823092712038,False,30.73993330641019,False,False
11,1970-07-23 11:25:55.644782602,2025-09-16,2025-09-26 15:12:44.478,AA,C,555179922,JASSM,3,135,76,2,2,1,225,9,2,0,1,26,0,0,0,0,-155659.84216483062,-4777288.842744674,4213456.194792271,-2.71093,-1.01118,0.751842,33.625,-53.5,-59.0,0.0,0.0,0.0,0.0,0.0,0.0,2,0,41.587346606744646,-91.86622539936197,10000.001365926006,155.93892211071275,-0.0024910363971561,-0.0006592137160621,,8749.224682894945,11121.848502006404,150,11,2025-09-16,2025-09-26 15:12:44.432,AA,C,4201291522,HAWK11,1,1,73,2,1,1,225,2,1,0,0,12,1,225,2,1,-144642.18786795562,-4791445.292939986,4198365.862761021,2.43884,2.57833,-0.552617,-93.875,39.25,40.875,-0.125,-7.3125,6.3125,0.00585938,0.00195312,0.0,4,0,41.40332254767242,-91.72909641401355,11118.7542696775,-47.15887565008648,1.301566708333332,-0.0119035267509361,175.277,8749.224682894945,11121.848502006404,150,True,12.640565053768618,False,143.9876702524766,174.78050735494094,False,30.851265729986615,False,False
11,1970-07-23 11:25:55.654448005,2025-09-16,2025-09-26 15:12:45.444,AA,C,556313216,JASSM,3,135,76,2,2,1,225,9,2,0,1,26,0,0,0,0,-155627.93884451812,-4777339.782197799,4213399.995573521,-2.71093,-1.01118,0.751842,33.625,-53.5,-59.0,0.0,0.0,0.0,0.0,0.0,0.0,2,0,41.58667040904745,-91.86582329592927,10000.002272563062,155.93918900957445,-0.0017509726367386,-0.0006602840225805,,8749.224682894945,11121.848502006404,150,11,2025-09-16,2025-09-26 15:12:45.526,AA,C,4202603820,HAWK11,1,1,73,2,1,1,225,2,1,0,0,12,1,225,2,1,-144744.54724295562,-4791401.964814986,4198410.417448521,2.40595,2.57862,-0.549453,-93.625,39.5,40.625,-0.015625,-7.23438,6.39062,-0.0527344,0.00195312,-0.00976562,4,0,41.40386266329122,-91.7303349428915,11116.457072916402,-47.287579656400446,1.1733516893715596,-1.8899469346908249,174.886,8749.224682894945,11121.848502006404,150,True,12.541038577150513,False,144.04332746564097,174.91061621470672,False,30.92323149323199,False,False
11,1970-07-23 11:25:55.664784577,2025-09-16,2025-09-26 15:12:46.478,AA,C,557446610,JASSM,3,135,76,2,2,1,225,9,2,0,1,26,0,0,0,0,-155596.03357108062,-4777390.723604049,4213343.792448521,-2.71083,-1.01118,0.751842,33.625,-53.5,-59.0,0.0,0.0,0.0,0.0,0.0,0.0,2,0,41.58599417229005,-91.8654211767264,10000.002794152608,155.93945591534012,-0.0010108671116111,0.0048437793112596,,8749.224682894945,11121.848502006404,150,11,2025-09-16,2025-09-26 15:12:46.432,AA,C,4203558220,HAWK11,1,1,73,2,1,1,225,2,1,0,0,12,1,225,2,1,-144819.17419608062,-4791370.204072799,4198442.888151646,2.37834,2.57891,-0.548782,-93.5,39.375,40.375,-0.046875,-7.21875,6.35938,-0.0195312,0.00390625,-0.00585938,4,0,41.4042573710782,-91.73123798982492,11114.337293288669,-47.32375674676547,1.1538556157903712,-3.4639374771428617,174.666,8749.224682894945,11121.848502006404,150,True,12.456488176168588,False,143.95538941127768,175.00176279730894,False,31.102945500496972,False,False
11,1970-07-23 11:25:55.672799245,2025-09-16,2025-09-26 15:12:47.279,AA,C,558521340,JASSM,3,135,76,2,2,1,225,9,2,0,1,26,0,0,0,0,-155565.77966483062,-4777439.030244674,4213290.495573521,-2.71083,-1.01118,0.751842,33.625,-53.5,-59.0,0.0,0.0,0.0,0.0,0.0,0.0,2,0,41.585352905466245,-91.8650398776034,10000.00516814526,155.93970899853042,-0.0003090409124468,0.0048427539106318,,8749.224682894945,11121.848502006404,150,11,2025-09-16,2025-09-26 15:12:47.134,AA,C,4204512618,HAWK11,1,1,73,2,1,1,225,2,1,0,0,12,1,225,2,1,-144894.12732108062,-4791338.698213424,4198474.981901646,2.37163,2.58131,-0.550412,-93.625,39.25,40.0,-0.0625,-7.40625,6.4375,-0.00585938,0.0,-0.00390625,4,0,41.40464795241839,-91.73214485264666,11112.05469587716,-47.35326307985093,1.3015860643856092,-3.777176845232797,174.666,8749.224682894945,11121.848502006404,150,True,12.374391374266473,False,143.75662980973965,175.09626848022498,False,31.395951930889648,False,False
11,1970-07-23 11:25:55.681473195,2025-09-16,2025-09-26 15:12:48.147,AA,C,559595746,JASSM,3,135,76,2,2,1,225,9,2,0,1,26,0,0,0,0,-155535.53454764312,-4777487.319307174,4213237.214323521,-2.71083,-1.01118,0.751842,33.625,-53.5,-59.0,0.0,0.0,0.0,0.0,0.0,0.0,2,0,41.584711845716456,-91.86465869817644,10000.002291012292,155.93996199907076,0.0003925608622067,0.0048417368680659,,8749.224682894945,11121.848502006404,150,11,2025-09-16,2025-09-26 15:12:48.322,AA,C,4205944216,HAWK11,1,1,73,2,1,1,225,2,1,0,0,12,1,225,2,1,-145005.38318045562,-4791291.332002486,4198523.108854771,2.42848,2.57795,-0.5437,-93.375,39.375,39.625,-0.15625,-6.79688,6.14062,0.126953,0.00390625,0.00195312,4,0,41.40523456927215,-91.73349118229196,11108.256891401246,-47.47755911371625,0.9032343323265948,-0.6218534359487965,174.153,8749.224682894945,11121.848502006404,150,True,12.272555958799426,False,143.73111575147976,175.2459615202981,False,31.56938290535893,False,False
11,1970-07-23 11:25:55.692462821,2025-09-16,2025-09-26 15:12:49.246,AA,C,560787140,JASSM,3,135,76,2,2,1,225,9,2,0,1,26,0,0,0,0,-155501.99646170562,-4777540.868135299,4213178.128386021,-2.71083,-1.01118,0.751842,33.625,-53.5,-59.0,0.0,0.0,0.0,0.0,0.0,0.0,2,0,41.58400095048808,-91.8642360253827,10000.000350698812,155.94024253629345,0.0011705851989836,0.0048405942398073,,8749.224682894945,11121.848502006404,150,11,2025-09-16,2025-09-26 15:12:49.134,AA,C,4206898616,HAWK11,1,1,73,2,1,1,225,2,1,0,0,12,1,225,2,1,-145080.11169608062,-4791259.645479049,4198554.727995396,2.58332,2.5768,-0.545522,-93.125,39.875,39.75,-0.234375,-6.6875,6.5625,0.216797,0.00195312,0.00976562,4,0,41.40562304474971,-91.73439545455228,11104.493110242269,-47.36769057122866,0.947278313521006,8.217407905889553,174.055,8749.224682894945,11121.848502006404,150,True,12.18616092134206,False,143.98703247749225,175.34156654544373,False,31.407275175848334,False,False
11,1970-07-23 11:25:55.701341607,2025-09-16,2025-09-26 15:12:50.134,AA,C,561920534,JASSM,3,135,76,2,2,1,225,9,2,0,1,26,0,0,0,0,-155470.09118826812,-4777591.807588424,4213121.921354771,-2.71083,-1.01118,0.751938,33.625,-53.5,-59.0,0.0,0.0,0.0,0.0,0.0,0.0,2,0,41.583324693230864,-91.8638339400652,10000.00134246572,155.94280201637446,-0.0030793059344341,0.0048394951844752,,8749.224682894945,11121.848502006404,150,11,2025-09-16,2025-09-26 15:12:50.322,AA,C,4208330214,HAWK11,1,1,73,2,1,1,225,2,1,0,0,12,1,225,2,1,-145191.80896170562,-4791209.882783736,4198603.190886021,2.80853,2.53625,-0.563546,-91.75,42.125,41.125,-0.15625,-6.57812,7.03125,0.0996094,0.0136719,0.0429688,4,0,41.40622608085632,-91.73574796683997,11095.577228590371,-45.18822734424455,0.4845778058370066,19.924705772879516,174.752,8749.224682894945,11121.848502006404,150,False,12.081165984797748,False,145.48170284558617,175.4940853643833,False,30.057898615290082,False,False
11,1970-07-23 11:25:55.710404145,2025-09-16,2025-09-26 15:12:51.040,AA,C,562994276,JASSM,3,135,76,2,2,1,225,9,2,0,1,26,0,0,0,0,-155439.86462576812,-4777640.065400924,4213068.671354771,-2.71083,-1.01109,0.751938,33.625,-53.5,-59.0,0.0,0.0,0.0,0.0,0.0,0.0,2,0,41.5826840225685,-91.86345301895552,10000.001259227236,155.93941035488663,-0.0040526996500281,0.001087729820789,,8749.224682894945,11121.848502006404,150,11,2025-09-16,2025-09-26 15:12:51.026,AA,C,4209165314,HAWK11,1,1,73,2,1,1,225,2,1,0,0,12,1,225,2,1,-145254.93200858062,-4791179.814424361,4198631.974089146,2.89107,2.49176,-0.585597,-90.25,44.0,42.5,-0.140625,-6.98438,7.53125,0.0722656,0.0234375,0.0429688,4,0,41.40658786346943,-91.73651302341824,11088.784033536334,-42.72686316512088,0.1495090748110635,23.2826237332848,176.206,8749.224682894945,11121.848502006404,150,False,12.003830489998906,False,146.90046668683183,175.57257312498461,False,28.71244718647035,True,False
11,1970-07-23 11:25:55.720443567,2025-09-16,2025-09-26 15:12:52.044,AA,C,564247720,JASSM,3,135,76,2,2,1,225,9,2,0,1,26,0,0,0,0,-155404.57946951812,-4777696.399385299,4213006.507292271,-2.71083,-1.01109,0.751938,33.625,-53.5,-59.0,0.0,0.0,0.0,0.0,0.0,0.0,2,0,41.58193611465666,-91.86300835799722,9999.999839525535,155.93970547435197,-0.0032341688391296,0.0010865170858361,,8749.224682894945,11121.848502006404,150,11,2025-09-16,2025-09-26 15:12:52.026,AA,C,4210358312,HAWK11,1,1,73,2,1,1,225,2,1,0,0,12,1,225,2,1,-145345.62341483062,-4791133.744111861,4198676.060026646,2.98225,2.46607,-0.585789,-88.125,47.0,45.125,-0.140625,-7.10938,7.64062,0.0761719,0.0214844,0.0214844,4,0,41.40714315647507,-91.737613266725,11077.898589175356,-41.74412954048292,-0.5829816994183311,27.689332718514247,177.648,8749.224682894945,11121.848502006404,150,False,11.902154005614884,False,149.21940501093633,175.68676465295408,False,26.50204136367938,True,False
11,1970-07-23 11:25:55.731462537,2025-09-16,2025-09-26 15:12:53.146,AA,C,565560608,JASSM,3,135,76,2,2,1,225,9,2,0,1,26,0,0,0,0,-155367.62146170562,-4777755.403291549,4212941.397917271,-2.71083,-1.01109,0.751938,33.625,-53.5,-59.0,0.0,0.0,0.0,0.0,0.0,0.0,2,0,41.58115276438029,-91.86254262721738,10000.004894092584,155.9400145730884,-0.0023768478792964,0.0010852537579435,,8749.224682894945,11121.848502006404,150,11,2025-09-16,2025-09-26 15:12:53.026,AA,C,4211591078,HAWK11,1,1,73,2,1,1,225,2,1,0,0,12,1,225,2,1,-145437.90857108062,-4791081.700166549,4198725.474089146,3.03997,2.44056,-0.582817,-85.625,50.875,48.375,-0.15625,-7.125,7.5625,0.0585938,0.0195312,0.0585938,4,0,41.40776965437383,-91.73873473830209,11064.007870782889,-40.86494466843376,-1.4423881695105234,30.174843560895138,179.212,8749.224682894945,11121.848502006404,150,False,11.793988236487916,False,152.04054377039708,175.79675984646963,False,23.781854382911675,True,False
11,1970-07-23 11:25:55.743327255,2025-09-16,2025-09-26 15:12:54.332,AA,C,566932630,JASSM,3,135,76,2,2,1,225,9,2,0,1,26,0,0,0,0,-155328.99743826812,-4777817.063447799,4212873.351042271,-2.71083,-1.01109,0.751938,33.625,-53.5,-59.0,0.0,0.0,0.0,0.0,0.0,0.0,2,0,41.58033410434896,-91.86205591535888,10000.001078966812,155.9403375915512,-0.0014808846876032,0.0010839344369737,,8749.224682894945,11121.848502006404,150,11,2025-09-16,2025-09-26 15:12:54.228,AA,C,4212982910,HAWK11,1,1,73,2,1,1,225,2,1,0,0,12,1,225,2,1,-145535.74646170562,-4791019.701143111,4198783.995573521,-3.13009,2.38285,-0.600266,-81.75,55.125,52.25,-0.265625,-7.59375,8.09375,0.0625,0.0332031,0.0429688,4,0,41.40851583780011,-91.73992618977522,11045.81741348517,-38.04300000868028,-2.198623342991278,34.722813181082444,181.546,8749.224682894945,11121.848502006404,150,False,11.675739810943218,False,155.5345440559502,175.90555267761977,False,20.387137965576066,True,False
11,1970-07-23 11:25:55.755324618,2025-09-16,2025-09-26 15:12:55.532,AA,C,568305226,JASSM,3,135,76,2,2,1,225,9,2,0,1,26,0,0,0,0,-155290.35876639312,-4777878.748994674,4212805.276823521,-2.71083,-1.01109,0.751938,33.625,-53.5,-59.0,0.0,0.0,0.0,0.0,0.0,0.0,2,0,41.57951510934101,-91.86156903043108,10000.003950187349,155.9406607196504,-0.0005845609523879,0.0010826060322019,,8749.224682894945,11121.848502006404,150,11,2025-09-16,2025-09-26 15:12:55.432,AA,C,4214295208,HAWK11,1,1,73,2,1,1,225,2,1,0,0,12,1,225,2,1,-145626.73669608062,-4790954.440400924,4198845.321745396,-3.06921,2.35485,-0.59576,-78.125,59.875,56.875,-0.296875,-8.03125,8.42188,0.0332031,0.03125,0.0605469,4,0,41.409301584723735,-91.74103703861206,11025.1877714029,-37.081259676634645,-3.145957404469693,37.26318440726067,183.184,8749.224682894945,11121.848502006404,150,False,11.557106802795342,False,159.1759151561814,175.9957830333423,False,16.827352684964083,True,False
11,1970-07-23 11:25:55.766359736,2025-09-16,2025-09-26 15:12:56.635,AA,C,569616960,JASSM,3,135,76,2,2,1,225,9,2,0,1,26,0,0,0,0,-155253.43200858062,-4777937.698213424,4212740.218229771,-2.71083,-1.01109,0.751938,33.625,-53.5,-59.0,0.0,0.0,0.0,0.0,0.0,0.0,2,0,41.57873241514811,-91.86110373007324,10000.002381290698,155.94096951795868,0.0002720350041462,0.0010813423904927,,8749.224682894945,11121.848502006404,150,11,2025-09-16,2025-09-26 15:12:56.634,AA,C,4215885874,HAWK11,1,1,73,2,1,1,225,2,1,0,0,12,1,225,2,1,-145727.91638358062,-4790868.682588424,4198925.433073521,-2.99586,2.26809,-0.621933,-71.5,66.0,62.25,-0.203125,-8.29688,8.71875,-0.0175781,0.0371094,0.0390625,4,0,41.41033421915648,-91.74227711216923,10995.68243019666,-32.814920568800154,-4.002361907715126,38.35481554023125,186.667,8749.224682894945,11121.848502006404,150,False,11.42507092034374,False,164.17740401218836,176.08105697469892,False,11.904530155839527,True,False
11,1970-07-23 11:25:55.776400844,2025-09-16,2025-09-26 15:12:57.640,AA,C,570928924,JASSM,3,135,76,2,2,1,225,9,2,0,1,26,0,0,0,0,-155216.49939139312,-4777996.655244674,4212675.147917271,-2.71083,-1.01109,0.752034,33.625,-53.5,-59.0,0.0,0.0,0.0,0.0,0.0,0.0,2,0,41.57794959457605,-91.8606383677219,9999.99866569239,155.94357271687923,-0.0038641958466514,0.0010800232727261,,8749.224682894945,11121.848502006404,150,11,2025-09-16,2025-09-26 15:12:57.634,AA,C,4217078872,HAWK11,1,1,73,2,1,1,225,2,1,0,0,12,1,225,2,1,-145797.07653983062,-4790800.447236861,4198989.956511021,-2.95186,2.20443,-0.650504,-66.125,69.375,67.0,-0.1875,-9.26562,9.5625,0.0507812,0.0527344,0.0644531,4,0,41.41116317771933,-91.74312827094926,10973.059868711323,-29.44815365740249,-3.9809895453100728,38.4739640857412,187.718,8749.224682894945,11121.848502006404,150,False,11.311996342597546,False,167.98582123530804,176.1186248209865,False,8.14247432601994,True,False
11,1970-07-23 11:25:55.787420230,2025-09-16,2025-09-26 15:12:58.742,AA,C,572240386,JASSM,3,135,76,2,2,1,225,9,2,0,1,26,0,0,0,0,-155179.58142264312,-4778055.590791549,4212610.101042271,-2.71083,-1.01109,0.752034,33.625,-53.5,-59.0,0.0,0.0,0.0,0.0,0.0,0.0,2,0,41.57716705520091,-91.86017320043848,9999.999118957448,155.9438814174359,-0.0030077783378724,0.0010787830776207,,8749.224682894945,11121.848502006404,150,11,2025-09-16,2025-09-26 15:12:58.822,AA,C,4218192338,HAWK11,1,1,73,2,1,1,225,2,1,0,0,12,1,225,2,1,-145857.22302420562,-4790732.242158736,4199055.446745396,-2.88417,2.13262,-0.681183,-60.125,72.625,71.5,-0.25,-9.84375,10.0625,0.0117188,0.0546875,0.0585938,4,0,41.41200010953413,-91.74387174110838,10951.94190575594,-25.76139456952696,-3.832375027261151,39.558424156667165,190.162,8749.224682894945,11121.848502006404,150,False,11.200773022623164,False,171.82054723282454,176.13399900938373,False,4.388920457732297,True,False
11,1970-07-23 11:25:55.798442907,2025-09-16,2025-09-26 15:12:59.844,AA,C,573494932,JASSM,3,135,76,2,2,1,225,9,2,0,1,26,0,0,0,0,-155144.26501639312,-4778111.965791549,4212547.878386021,-2.71083,-1.01109,0.752034,33.625,-53.5,-59.0,0.0,0.0,0.0,0.0,0.0,0.0,2,0,41.57641850065839,-91.8597282248782,9999.999715960292,155.94417671362464,-0.0021885494491841,0.0010776114845503,,8749.224682894945,11121.848502006404,150,11,2025-09-16,2025-09-26 15:12:59.728,AA,C,4219425102,HAWK11,1,1,73,2,1,1,225,2,1,0,0,12,1,225,2,1,-145915.08044608062,-4790654.733369674,4199131.565886021,-2.79376,2.03693,-0.71589,-52.0,76.0,76.375,-0.40625,-10.0938,10.3594,0.0195312,0.0683594,0.0449219,4,0,41.41296454659478,-91.74459126629584,10930.844676535036,-21.112091704812155,-3.633995385070822,40.90798490704611,191.97,8749.224682894945,11121.848502006404,150,False,11.08550692079408,False,176.2419871310829,176.12734663136584,False,1.8463410945872474,True,False
11,1970-07-23 11:25:55.809319782,2025-09-16,2025-09-26 15:13:00.931,AA,C,574747738,JASSM,3,135,76,2,2,1,225,9,2,0,1,26,0,0,0,0,-155108.99743826812,-4778168.262666549,4212485.739714146,-2.71083,-1.01109,0.752034,33.625,-53.5,-59.0,0.0,0.0,0.0,0.0,0.0,0.0,2,0,41.57567096656628,-91.85928387486176,9999.999680766809,155.94447159033146,-0.0013704415564549,0.0010764362792456,,8749.224682894945,11121.848502006404,150,11,2025-09-16,2025-09-26 15:13:00.932,AA,C,4220856702,HAWK11,1,1,73,2,1,1,225,2,1,0,0,12,1,225,2,1,-145971.45739920562,-4790560.076143111,4199227.366667271,-2.68332,1.90837,-0.760471,-41.25,78.5,82.125,-0.3125,-10.9531,11.1406,0.0214844,0.0703125,0.0644531,4,0,41.4141641178914,-91.74529936772868,10910.185081577823,-15.129711911239967,-2.9242735836169214,41.93161191768639,194.365,8749.224682894945,11121.848502006404,150,False,10.958068880769465,False,176.74885595139136,176.0840232356416,False,6.795684585634633,True,False
11,1970-07-23 11:25:55.820342304,2025-09-16,2025-09-26 15:13:02.034,AA,C,576117786,JASSM,3,135,76,2,2,1,225,9,2,0,1,26,0,0,0,0,-155070.42907889312,-4778229.827119674,4212417.784636021,-2.71083,-1.01109,0.752034,33.625,-53.5,-59.0,0.0,0.0,0.0,0.0,0.0,0.0,2,0,41.57485347042942,-91.85879794928069,9999.99960974124,155.94479405216387,-0.0004757682444509,0.0010751521748343,,8749.224682894945,11121.848502006404,150,11,2025-09-16,2025-09-26 15:13:02.134,AA,C,4222407600,HAWK11,1,1,73,2,1,1,225,2,1,0,0,12,1,225,2,1,-146015.89489920562,-4790455.519502486,4199337.911589146,-2.55341,1.74404,-0.802176,-27.75,79.875,87.75,-0.40625,-11.3125,11.6406,0.00976562,0.0839844,0.0566406,4,0,41.41552426407193,-91.7458684343657,10896.29565139885,-8.089517835878983,-2.005025199205854,42.432448094502696,195.478,8749.224682894945,11121.848502006404,150,False,10.82046370630723,False,170.27330591583348,175.98435625055507,False,13.682632810651631,True,False
11,1970-07-23 11:25:55.831579979,2025-09-16,2025-09-26 15:13:03.157,AA,C,577431712,JASSM,3,135,76,2,2,1,225,9,2,0,1,26,0,0,0,0,-155033.44177420562,-4778288.868135299,4212352.612761021,-2.71083,-1.01099,0.752034,33.625,-53.5,-59.0,0.0,0.0,0.0,0.0,0.0,0.0,2,0,41.57406946554054,-91.85833195491392,9999.999605029623,155.9414547067574,-0.0012944909022997,-0.0026820894242429,,8749.224682894945,11121.848502006404,150,11,2025-09-16,2025-09-26 15:13:03.025,AA,C,4223202932,HAWK11,1,1,73,2,1,1,225,2,1,0,0,12,1,225,2,1,-146030.97497733062,-4790400.720674361,4199396.815886021,-2.47632,1.66082,-0.820104,-20.25,80.5,90.25,-0.375,-11.625,11.9219,0.015625,0.0820312,0.0488281,4,0,41.41624514031829,-91.74606859195777,10890.504451622575,-4.7048981566884605,-1.3826195893416795,43.29066682345067,196.345,8749.224682894945,11121.848502006404,150,False,10.72672453115975,False,166.60926209605847,175.9000850323816,False,17.45238435269008,True,False
11,1970-07-23 11:25:55.842403647,2025-09-16,2025-09-26 15:13:04.240,AA,C,578742990,JASSM,3,135,76,2,2,1,225,9,2,0,1,26,0,0,0,0,-154996.52771170562,-4778347.790010299,4212287.571745396,-2.71074,-1.01099,0.752034,33.625,-53.5,-59.0,0.0,0.0,0.0,0.0,0.0,0.0,2,0,41.57328703660353,-91.85786689541008,10000.002740821556,155.94176331217304,-0.000438198632627,0.0028081012986632,,8749.224682894945,11121.848502006404,150,11,2025-09-16,2025-09-26 15:13:04.228,AA,C,4224793598,HAWK11,1,1,73,2,1,1,225,2,1,0,0,12,1,225,2,1,-146046.42419608062,-4790290.923799361,4199518.974089146,-2.34709,1.48087,-0.833335,-4.75,80.5,93.375,-0.328125,-11.5625,11.875,-0.0175781,0.0820312,0.0546875,4,0,41.41772010111549,-91.74629320196767,10886.779946213916,2.28990170761682,-0.7846489248190209,42.96787395557463,197.176,8749.224682894945,11121.848502006404,150,False,10.592704896003408,False,159.27067889420354,175.7047094621481,False,25.001309968827034,True,False
11,1970-07-23 11:25:55.853440164,2025-09-16,2025-09-26 15:13:05.344,AA,C,580056498,JASSM,3,135,76,2,2,1,225,9,2,0,1,26,0,0,0,0,-154959.55114920562,-4778406.809541549,4212222.417448521,-2.71074,-1.01099,0.75213,33.625,-53.5,-59.0,0.0,0.0,0.0,0.0,0.0,0.0,2,0,41.572503272226896,-91.85740106057465,9999.99851952852,155.94436569345717,-0.0045701577642206,0.0028067305723785,,8749.224682894945,11121.848502006404,150,11,2025-09-16,2025-09-26 15:13:05.432,AA,C,4226225196,HAWK11,1,1,73,2,1,1,225,2,1,0,0,12,1,225,2,1,-146041.75036795562,-4790191.220674361,4199631.724089146,-2.39819,1.33514,-0.834773,7.875,79.0,95.875,-0.25,-10.9531,11.1875,-0.150391,0.0683594,0.0566406,4,0,41.4190751555705,-91.74627367480193,10885.962166489251,7.861701077954929,-0.146887556277614,33.80560024914072,197.103,8749.224682894945,11121.848502006404,150,False,10.47027029510406,False,153.3519836516042,175.47009754615308,False,31.167492963944753,False,False
11,1970-07-23 11:25:55.864460844,2025-09-16,2025-09-26 15:13:06.446,AA,C,581367192,JASSM,3,135,76,2,2,1,225,9,2,0,1,26,0,0,0,0,-154922.65466483062,-4778465.702119674,4212157.403776646,-2.71074,-1.01099,0.75213,33.625,-53.5,-59.0,0.0,0.0,0.0,0.0,0.0,0.0,2,0,41.57172119486613,-91.85693624546244,10000.000055202494,155.9446741272657,-0.0037142575618813,0.0028054767628201,,8749.224682894945,11121.848502006404,150,11,2025-09-16,2025-09-26 15:13:06.322,AA,C,4227378428,HAWK11,1,1,73,2,1,1,225,2,1,0,0,12,1,225,2,1,-146028.42810233062,-4790113.926729049,4199723.505339146,-2.48131,1.25738,-0.848579,16.125,77.0,97.375,-0.140625,-10.4375,10.7188,-0.146484,0.0449219,0.0273438,4,0,41.4201569182179,-91.74614263240866,10894.100450785529,10.637083770855298,1.1694950873465748,25.74472761195937,197.714,8749.224682894945,11121.848502006404,150,False,10.364915430945759,False,149.47491420387047,175.24785444023715,False,35.2734425233499,False,False
11,1970-07-23 11:25:55.875319414,2025-09-16,2025-09-26 15:13:07.531,AA,C,582619890,JASSM,3,135,76,2,2,1,225,9,2,0,1,26,0,0,0,0,-154887.39001639312,-4778521.989229049,4212095.265104771,-2.71074,-1.01099,0.75213,33.625,-53.5,-59.0,0.0,0.0,0.0,0.0,0.0,0.0,2,0,41.57097370709481,-91.85649199871008,10000.003072305792,155.94496890823126,-0.0028962135937056,0.0028042790690806,,8749.224682894945,11121.848502006404,150,11,2025-09-16,2025-09-26 15:13:07.526,AA,C,4228571426,HAWK11,1,1,73,2,1,1,225,2,1,0,0,12,1,225,2,1,-146007.18396170562,-4790036.297822799,4199819.872526646,-2.53241,1.19593,-0.86296,22.375,74.5,98.375,-0.359375,-9.4375,9.59375,-0.0371094,0.0332031,0.0253906,4,0,41.421273057123614,-91.74591703864088,10910.78285956526,12.693307151525769,2.5063474922365785,20.223745621849744,196.773,8749.224682894945,11121.848502006404,150,False,10.262227446836016,False,146.46514515978797,174.99486006429552,False,38.53956258618865,False,False
11,1970-07-23 11:25:55.885362032,2025-09-16,2025-09-26 15:13:08.536,AA,C,583812938,JASSM,3,135,76,2,2,1,225,9,2,0,1,26,0,0,0,0,-154853.80407889312,-4778575.592744674,4212036.083464146,-2.71074,-1.01099,0.75213,33.625,-53.5,-59.0,0.0,0.0,0.0,0.0,0.0,0.0,2,0,41.570261818679285,-91.8560689106669,9999.997624777438,155.94524964523885,-0.0021171281798468,0.0028031446995941,,8749.224682894945,11121.848502006404,150,11,2025-09-16,2025-09-26 15:13:08.508,AA,C,4229525826,HAWK11,1,1,73,2,1,1,225,2,1,0,0,12,1,225,2,1,-145987.63122733062,-4789976.360322799,4199898.315886021,-2.50518,1.14934,-0.865549,25.75,72.5,99.375,-0.0625,-8.60938,8.875,0.0136719,0.0253906,0.0214844,4,0,41.42216264971664,-91.745705207069,10932.197733465204,14.324184140170596,3.117736659405776,19.833123203205364,195.441,8749.224682894945,11121.848502006404,150,False,10.173637092704386,False,144.7795563645665,174.77750056273808,False,40.44271254086645,False,False
11,1970-07-23 11:25:55.894398546,2025-09-16,2025-09-26 15:13:09.439,AA,C,585007016,JASSM,3,135,76,2,2,1,225,9,2,0,1,26,0,0,0,0,-154820.18982108062,-4778629.243135299,4211976.851042271,-2.71074,-1.01099,0.75213,33.625,-53.5,-59.0,0.0,0.0,0.0,0.0,0.0,0.0,2,0,41.569549312426055,-91.85564547451864,9999.99824075201,155.945530609276,-0.0013373710003786,0.0028020033173791,,8749.224682894945,11121.848502006404,150,11,2025-09-16,2025-09-26 15:13:09.322,AA,C,4230917658,HAWK11,1,1,73,2,1,1,225,2,1,0,0,12,1,225,2,1,-145953.72107108062,-4789891.047822799,4200010.329557896,-2.50096,1.08913,-0.866028,30.875,70.75,99.0,-0.203125,-7.85938,8.10938,-0.09375,0.0136719,0.0390625,4,0,41.42343239072289,-91.74533102991684,10963.015171037372,16.44728549896952,3.8315543133024783,17.575918209382543,194.781,8749.224682894945,11121.848502006404,150,False,10.068861723877973,False,142.30706122255646,174.45584960982922,False,43.2365249617674,False,False
11,1970-07-23 11:25:55.905420577,2025-09-16,2025-09-26 15:13:10.542,AA,C,586319334,JASSM,3,135,76,2,2,1,225,9,2,0,1,26,0,0,0,0,-154783.24743826812,-4778688.206025924,4211911.753386021,-2.71074,-1.01099,0.75213,33.625,-53.5,-59.0,0.0,0.0,0.0,0.0,0.0,0.0,2,0,41.56876625133604,-91.85518012473848,10000.003418337365,155.94583937984714,-0.0004804029415671,0.0028007457417143,,8749.224682894945,11121.848502006404,150,11,2025-09-16,2025-09-26 15:13:10.526,AA,C,4232389022,HAWK11,1,1,73,2,1,1,225,2,1,0,0,12,1,225,2,1,-145912.54724295562,-4789802.083955611,4200129.811979771,-2.55398,1.02796,-0.862097,34.75,69.375,98.125,-0.0625,-7.25,7.46875,-0.0859375,0.00195312,0.00390625,4,0,41.42477557236288,-91.74487136094744,11000.533424701956,18.664804417303053,4.414513726018499,12.03211684762482,193.974,8749.224682894945,11121.848502006404,150,False,9.957882520902464,False,140.39638903935915,174.0922442507244,False,45.51080210797481,False,False
11,1970-07-23 11:25:55.916788233,2025-09-16,2025-09-26 15:13:11.678,AA,C,587572116,JASSM,3,135,76,2,2,1,225,9,2,0,1,26,0,0,0,0,-154747.97986014312,-4778744.491182174,4211849.606901646,-2.71074,-1.01099,0.75213,33.625,-53.5,-59.0,0.0,0.0,0.0,0.0,0.0,0.0,2,0,41.568018716017306,-91.85473588414136,10000.001247115151,155.94613413951978,0.0003376887887509,0.0027995549817377,,8749.224682894945,11121.848502006404,150,11,2025-09-16,2025-09-26 15:13:11.478,AA,C,4233184356,HAWK11,1,1,73,2,1,1,225,2,1,0,0,12,1,225,2,1,-145889.07849295562,-4789755.288057174,4200193.476042271,-2.60134,1.01914,-0.856728,36.0,69.125,97.875,-0.046875,-6.79688,7.17188,-0.132812,-0.00390625,-0.00195312,4,0,41.42548792509466,-91.7446079212966,11021.90706050169,19.086808681338624,4.252249958301765,8.967611740463434,193.363,8749.224682894945,11121.848502006404,150,True,9.87794701911815,False,139.80643612077887,173.8778974996154,False,46.315209907129066,False,False
11,1970-07-23 11:25:55.927324797,2025-09-16,2025-09-26 15:13:12.732,AA,C,588823894,JASSM,3,135,76,2,2,1,225,9,2,0,1,26,0,0,0,0,-154712.74060233062,-4778800.731416549,4211787.509245396,-2.71074,-1.01099,0.75213,33.625,-53.5,-59.0,0.0,0.0,0.0,0.0,0.0,0.0,2,0,41.56727177027442,-91.85429201039734,10000.001667392811,155.9464286514323,0.0011551318409107,0.0027983616103911,,8749.224682894945,11121.848502006404,150,11,2025-09-16,2025-09-26 15:13:12.678,AA,C,4234576186,HAWK11,1,1,73,2,1,1,225,2,1,0,0,12,1,225,2,1,-145845.35778983062,-4789672.916963424,4200305.298307896,-2.67076,1.00687,-0.850784,37.75,69.25,96.75,-0.03125,-6.07812,6.48438,-0.015625,-0.00585938,0.015625,4,0,41.42674063162427,-91.74411538784726,11058.835227238294,19.64519039368509,4.1131134557362925,4.501341499941415,192.826,8749.224682894945,11121.848502006404,150,True,9.77539326077927,False,138.99584050741495,173.5110008389055,False,47.49315713061692,False,False
11,1970-07-23 11:25:55.937361162,2025-09-16,2025-09-26 15:13:13.736,AA,C,590019116,JASSM,3,135,76,2,2,1,225,9,2,0,1,26,0,0,0,0,-154679.09411795562,-4778854.428682174,4211728.216276646,-2.71074,-1.01099,0.752226,33.625,-53.5,-59.0,0.0,0.0,0.0,0.0,0.0,0.0,2,0,41.56655857591044,-91.85386820915024,9999.999173593207,155.9490045342576,-0.0030571769729309,0.0027971961812865,,8749.224682894945,11121.848502006404,150,11,2025-09-16,2025-09-26 15:13:13.823,AA,C,4236127086,HAWK11,1,1,73,2,1,1,225,2,1,0,0,12,1,225,2,1,-145795.48474295562,-4789580.694307174,4200428.370573521,-2.67411,1.00965,-0.837745,38.875,70.5,95.125,0.0,-5.59375,5.92188,0.0214844,-0.0195312,0.0078125,4,0,41.42812898971485,-91.74355289158052,11095.513028196632,19.832942111132727,3.3835698646725385,4.440484126789011,192.166,8749.224682894945,11121.848502006404,150,True,9.670055781983358,False,138.5639526015272,173.09754602325964,False,48.33679666957818,False,False
11,1970-07-23 11:25:55.947400606,2025-09-16,2025-09-26 15:13:14.740,AA,C,591270052,JASSM,3,135,76,2,2,1,225,9,2,0,1,26,0,0,0,0,-154643.87927420562,-4778910.627900924,4211666.159636021,-2.71074,-1.01099,0.752226,33.625,-53.5,-59.0,0.0,0.0,0.0,0.0,0.0,0.0,2,0,41.56581214285914,-91.85342466369084,9999.998501641505,155.9492988199657,-0.0022402990870255,0.0027960352634661,,8749.224682894945,11121.848502006404,150,11,2025-09-16,2025-09-26 15:13:14.728,AA,C,4237399618,HAWK11,1,1,73,2,1,1,225,2,1,0,0,12,1,225,2,1,-145753.65661795562,-4789504.313447799,4200527.462370396,-2.65101,1.00907,-0.822214,39.875,71.875,93.5,0.0,-5.07812,5.48438,0.00195312,-0.0253906,0.00390625,4,0,41.42925978902066,-91.7430807623238,11119.697386535492,20.19266606156742,2.570146833117912,5.758734392823089,192.007,8749.224682894945,11121.848502006404,150,True,9.574179771601509,False,138.18238137544077,172.74339179365037,False,49.066808623772566,False,False
11,1970-07-23 11:25:55.957441250,2025-09-16,2025-09-26 15:13:15.744,AA,C,592522712,JASSM,3,135,76,2,2,1,225,9,2,0,1,26,0,0,0,0,-154608.61560233062,-4778966.905244674,4211604.015104771,-2.71074,-1.01089,0.752226,33.625,-53.5,-59.0,0.0,0.0,0.0,0.0,0.0,0.0,2,0,41.56506465939445,-91.8529805133744,9999.99856327746,155.94595022290483,-0.0030968697428009,-0.0009571237227574,,8749.224682894945,11121.848502006404,150,11,2025-09-16,2025-09-26 15:13:15.727,AA,C,4238592616,HAWK11,1,1,73,2,1,1,225,2,1,0,0,12,1,225,2,1,-145713.37927420562,-4789430.801729049,4200618.866667271,-2.81505,1.01636,-0.793835,40.625,74.25,91.625,0.203125,-4.54688,4.96875,-0.142578,-0.0117188,0.0175781,4,0,41.43032135617747,-91.74262610927524,11134.371790655388,20.54021836297274,0.9567912948914664,-3.327494911898604,192.08,8749.224682894945,11121.848502006404,150,True,9.48173623930688,False,137.98852195081074,172.40037794613173,False,49.58852413272942,False,False
11,1970-07-23 11:25:55.968459465,2025-09-16,2025-09-26 15:13:16.845,AA,C,593775492,JASSM,3,135,76,2,2,1,225,9,2,0,1,26,0,0,0,0,-154573.34802420562,-4779023.186494674,4211541.864714146,-2.71074,-1.01089,0.752226,33.625,-53.5,-59.0,0.0,0.0,0.0,0.0,0.0,0.0,2,0,41.56431711210572,-91.85253632499943,9999.999405088596,155.94624492651224,-0.002278775244065,-0.0009583360706763,,8749.224682894945,11121.848502006404,150,11,2025-09-16,2025-09-26 15:13:16.728,AA,C,4239825382,HAWK11,1,1,73,2,1,1,225,2,1,0,0,12,1,225,2,1,-145671.62536795562,-4789352.315400924,4200711.745573521,-2.86222,1.02921,-0.774085,40.5,77.0,90.0,-0.078125,-4.76562,5.10938,-0.00585938,-0.0253906,-0.0273438,4,0,41.4314227463511,-91.74215560247134,11139.91416150375,20.476298837866175,-0.2862521456090299,-5.5106791205347925,193.058,8749.224682894945,11121.848502006404,150,True,9.387979275547732,False,138.20264541981044,172.0404383893809,False,49.71038540820823,False,False
11,1970-07-23 11:25:55.978359090,2025-09-16,2025-09-26 15:13:17.835,AA,C,594972274,JASSM,3,135,76,2,2,1,225,9,2,0,1,26,0,0,0,0,-154539.65759451812,-4779076.950166549,4211482.491667271,-2.71074,-1.01089,0.752226,33.625,-53.5,-59.0,0.0,0.0,0.0,0.0,0.0,0.0,2,0,41.56360298389018,-91.85211201034342,9999.998116850658,155.94652644052954,-0.0014972571286533,-0.0009594981447091,,8749.224682894945,11121.848502006404,150,11,2025-09-16,2025-09-26 15:13:17.728,AA,C,4240978614,HAWK11,1,1,73,2,1,1,225,2,1,0,0,12,1,225,2,1,-145632.69372733062,-4789277.229463424,4200796.499479771,-2.83815,1.06382,-0.767757,40.5,79.375,88.75,0.078125,-5.10938,5.51562,0.0996094,-0.00585938,-0.00390625,4,0,41.43244856346138,-91.74171757672426,11136.396526883307,19.275887351108743,-1.129572463528265,-2.735175098894598,193.828,8749.224682894945,11121.848502006404,150,True,9.299830577180675,False,138.32386460277442,171.69868815547392,False,49.904447710040344,False,False
11,1970-07-23 11:25:55.989369426,2025-09-16,2025-09-26 15:13:18.936,AA,C,596221626,JASSM,3,135,76,2,2,1,225,9,2,0,1,26,0,0,0,0,-154504.48669608062,-4779133.075166549,4211420.511198521,-2.71074,-1.01089,0.752226,33.625,-53.5,-59.0,0.0,0.0,0.0,0.0,0.0,0.0,2,0,41.56285749101646,-91.85166906034289,10000.00145368055,155.9468203140356,-0.000681413240932,-0.0009607041815125,,8749.224682894945,11121.848502006404,150,11,2025-09-16,2025-09-26 15:13:19.133,AA,C,4242728346,HAWK11,1,1,73,2,1,1,225,2,1,0,0,12,1,225,2,1,-145572.42614920562,-4789157.386689986,4200925.851042271,-2.74468,1.05145,-0.74283,41.25,82.375,87.75,0.0,-5.67188,6.01562,0.0527344,0.00585938,0.00585938,4,0,41.43404554799489,-91.74104078013352,11118.079775283011,20.257726777569484,-2.28707999977166,2.105665856280498,195.856,8749.224682894945,11121.848502006404,150,True,9.186909674464573,False,138.1817172057866,171.179332548452,False,50.53092105015392,False,False
11,1970-07-23 11:25:55.998421473,2025-09-16,2025-09-26 15:13:19.842,AA,C,597415642,JASSM,3,135,76,2,2,1,225,9,2,0,1,26,0,0,0,0,-154470.87341483062,-4779186.713838424,4211361.272917271,-2.71074,-1.01089,0.752226,33.625,-53.5,-59.0,0.0,0.0,0.0,0.0,0.0,0.0,2,0,41.56214499793751,-91.85124573710688,10000.000868967009,155.94710116219278,9.831230256940696e-05,-0.0009618628140941,,8749.224682894945,11121.848502006404,150,11,2025-09-16,2025-09-26 15:13:19.728,AA,C,4243444144,HAWK11,1,1,73,2,1,1,225,2,1,0,0,12,1,225,2,1,-145547.86950858062,-4789107.998994674,4200977.667448521,-2.75206,1.05001,-0.744364,41.625,83.125,87.5,-0.15625,-6.15625,6.4375,-0.03125,-0.00585938,0.0078125,4,0,41.43469356871616,-91.74076520476028,11107.322685815596,20.283658559155445,-2.182761584740577,1.6259329649365073,196.883,8749.224682894945,11121.848502006404,150,True,9.114761167497424,False,138.06203274679848,170.93818384189936,False,50.882544782246725,False,False
11,1970-07-23 11:25:56.009441567,2025-09-16,2025-09-26 15:13:20.944,AA,C,598726018,JASSM,3,135,76,2,2,1,225,9,2,0,1,26,0,0,0,0,-154433.98474295562,-4779245.579072799,4211296.261198521,-2.71074,-1.01089,0.752322,33.625,-53.5,-59.0,0.0,0.0,0.0,0.0,0.0,0.0,2,0,41.56136306911738,-91.85078117460688,10000.001957474748,155.94970295989927,-0.004035535509929,-0.0009631985875435,,8749.224682894945,11121.848502006404,150,11,2025-09-16,2025-09-26 15:13:21.025,AA,C,4244875742,HAWK11,1,1,73,2,1,1,225,2,1,0,0,12,1,225,2,1,-145498.21325858062,-4789007.587861861,4201081.942839146,-2.89865,1.04991,-0.744652,41.625,84.375,87.875,-0.046875,-6.60938,6.875,-0.0332031,0.0078125,-0.00390625,4,0,41.43600378057241,-91.74020814064774,11083.150486596109,20.28197829651427,-2.1645460339968663,-6.776690631923346,199.29,8749.224682894945,11121.848502006404,150,True,9.012024396670293,False,138.2162616269302,170.48481492589212,False,51.175407511093205,False,False
11,1970-07-23 11:25:56.020460615,2025-09-16,2025-09-26 15:13:22.046,AA,C,599919064,JASSM,3,135,76,2,2,1,225,9,2,0,1,26,0,0,0,0,-154400.39978201812,-4779299.170869674,4211237.071745396,-2.71064,-1.01089,0.752322,33.625,-53.5,-59.0,0.0,0.0,0.0,0.0,0.0,0.0,2,0,41.56065117564119,-91.85035822817127,10000.00299982274,155.94998354988635,-0.0032564693762539,0.0045271476825395,,8749.224682894945,11121.848502006404,150,11,2025-09-16,2025-09-26 15:13:22.037,AA,C,4245830142,HAWK11,1,1,73,2,1,1,225,2,1,0,0,12,1,225,2,1,-145465.22107108062,-4788940.153291549,4201151.993620396,-2.88877,1.06545,-0.75328,41.125,84.875,88.625,-0.125,-7.125,7.29688,0.0390625,0.0078125,-0.0175781,4,0,41.43688377620342,-91.73983826921103,11066.99583682849,19.498609630125603,-1.9271527866179916,-5.576954580285187,201.038,8749.224682894945,11121.848502006404,150,True,8.931168982057676,False,138.55521812471454,170.16176540817702,False,51.16432527382781,False,False
11,1970-07-23 11:25:56.030338611,2025-09-16,2025-09-26 15:13:23.033,AA,C,601172592,JASSM,3,135,76,2,2,1,225,9,2,0,1,26,0,0,0,0,-154365.11071951812,-4779355.479463424,4211174.878386021,-2.71064,-1.01089,0.752322,33.625,-53.5,-59.0,0.0,0.0,0.0,0.0,0.0,0.0,2,0,41.55990316927871,-91.84991383237582,10000.000866107042,155.95027836549713,-0.0024378830701199,0.0045259682994772,,8749.224682894945,11121.848502006404,150,11,2025-09-16,2025-09-26 15:13:22.931,AA,C,4247261740,HAWK11,1,1,73,2,1,1,225,2,1,0,0,12,1,225,2,1,-145416.19568045562,-4788838.073213424,4201258.366667271,-2.951,1.06698,-0.762005,40.125,85.25,89.75,0.0,-7.85938,7.10938,-0.00195312,0.0136719,0.0273438,4,0,41.43821796104119,-91.7392893122981,11043.342525583868,19.26767812777596,-1.477979546331954,-9.074699691933183,201.954,8749.224682894945,11121.848502006404,150,True,8.830236214221529,False,139.1303425377384,169.6886670578544,False,51.073776033044425,False,False
11,1970-07-23 11:25:56.042357405,2025-09-16,2025-09-26 15:13:24.235,AA,C,602545704,JASSM,3,135,76,2,2,1,225,9,2,0,1,26,0,0,0,0,-154326.45544608062,-4779417.159150924,4211106.751432896,-2.71064,-1.01089,0.752322,33.625,-53.5,-59.0,0.0,0.0,0.0,0.0,0.0,0.0,2,0,41.55908380306931,-91.84942705765036,10000.00086747286,155.9506012906169,-0.0015412067966762,0.0045246740284324,,8749.224682894945,11121.848502006404,150,11,2025-09-16,2025-09-26 15:13:24.135,AA,C,4248534272,HAWK11,1,1,73,2,1,1,225,2,1,0,0,12,1,225,2,1,-145374.47888358062,-4788747.801729049,4201353.983854771,-2.94122,1.08577,-0.770538,38.875,85.125,90.75,-0.15625,-7.98438,6.8125,-0.03125,0.00390625,-0.0273438,4,0,41.43940796427404,-91.73882341111802,11025.9221234931,18.372909130448708,-1.276582549884003,-7.746190172883391,202.37,8749.224682894945,11121.848502006404,150,True,8.73031777240037,False,139.74936512438333,169.25031992458372,False,50.907459721550204,False,False
11,1970-07-23 11:25:56.053378004,2025-09-16,2025-09-26 15:13:25.337,AA,C,603915770,JASSM,3,135,76,2,2,1,225,9,2,0,1,26,0,0,0,0,-154287.88611014312,-4779478.700166549,4211038.774870396,-2.71064,-1.01089,0.752322,33.625,-53.5,-59.0,0.0,0.0,0.0,0.0,0.0,0.0,2,0,41.55826625832709,-91.84894137796486,9999.999851219012,155.95092348407837,-0.000646525912189,0.0045233830389641,,8749.224682894945,11121.848502006404,150,11,2025-09-16,2025-09-26 15:13:25.431,AA,C,4250164704,HAWK11,1,1,73,2,1,1,225,2,1,0,0,12,1,225,2,1,-145322.17419608062,-4788631.739229049,4201478.462370396,-2.93575,1.09124,-0.783193,37.125,84.75,91.375,0.078125,-7.73438,6.625,0.0488281,0.00585938,0.0078125,4,0,41.44094812616823,-91.73824028189075,11006.988827443223,17.924832470789223,-0.6629664810811727,-7.205916603800955,202.553,8749.224682894945,11121.848502006404,150,True,8.61690196538351,False,140.51787434423372,168.69311276186284,False,50.7092684511186,False,False
11,1970-07-23 11:25:56.063419201,2025-09-16,2025-09-26 15:13:26.341,AA,C,605168470,JASSM,3,135,76,2,2,1,225,9,2,0,1,26,0,0,0,0,-154252.62146170562,-4779534.969697799,4210976.620573521,-2.71064,-1.01089,0.752322,33.625,-53.5,-59.0,0.0,0.0,0.0,0.0,0.0,0.0,2,0,41.557518737612895,-91.84849732230607,10000.002420126362,155.9512180601568,0.00017151819958,0.0045221937711934,,8749.224682894945,11121.848502006404,150,11,2025-09-16,2025-09-26 15:13:26.321,AA,C,4251317936,HAWK11,1,1,73,2,1,1,225,2,1,0,0,12,1,225,2,1,-145287.02575858062,-4788550.807588424,4201565.966276646,-2.94697,1.10936,-0.790767,36.125,84.5,91.75,-0.109375,-7.75,6.5,-0.0273438,0.00976562,-0.015625,4,0,41.44202660533183,-91.73784947217024,10995.422882708055,17.09187661647428,-0.4847573879728996,-7.104932837606884,202.077,8749.224682894945,11121.848502006404,150,True,8.5262777134066,False,140.9566738638209,168.2823884656062,False,50.68907892717922,False,False
11,1970-07-23 11:25:56.074436921,2025-09-16,2025-09-26 15:13:27.443,AA,C,606481998,JASSM,3,135,76,2,2,1,225,9,2,0,1,26,0,0,0,0,-154215.64392264312,-4779593.969697799,4210911.446745396,-2.71064,-1.0108,0.752322,33.625,-53.5,-59.0,0.0,0.0,0.0,0.0,0.0,0.0,2,0,41.55673491836401,-91.84803170979976,10000.001927506204,155.9478840889666,-0.000645397730542,0.0007684199156828,,8749.224682894945,11121.848502006404,150,11,2025-09-16,2025-09-26 15:13:27.228,AA,C,4252192802,HAWK11,1,1,73,2,1,1,225,2,1,0,0,12,1,225,2,1,-145260.48864920562,-4788488.018525924,4201634.163542271,-2.94946,1.11185,-0.794986,35.25,84.5,91.875,-0.046875,-7.70312,6.375,0.00976562,-0.00390625,0.00390625,4,0,41.44286527382226,-91.73755501279496,10987.181302806202,16.921344202672408,-0.2856018212154567,-7.144829047239026,201.82,8749.224682894945,11121.848502006404,150,True,8.442868408008453,False,141.33962222274909,167.940192416932,False,50.650555077818694,False,False
11,1970-07-23 11:25:56.086338075,2025-09-16,2025-09-26 15:13:28.633,AA,C,607793168,JASSM,3,135,76,2,2,1,225,9,2,0,1,26,0,0,0,0,-154178.73181326812,-4779652.862275924,4210846.390104771,-2.71064,-1.0108,0.752418,33.625,-53.5,-59.0,0.0,0.0,0.0,0.0,0.0,0.0,2,0,41.555952514666416,-91.84756693355811,10000.002746993709,155.9504877497583,-0.0047816871211265,0.0007670450441781,,8749.224682894945,11121.848502006404,150,11,2025-09-16,2025-09-26 15:13:28.821,AA,C,4254220900,HAWK11,1,1,73,2,1,1,225,2,1,0,0,12,1,225,2,1,-145201.41833670562,-4788346.407197799,4201789.919401646,-2.84304,1.12249,-0.810901,34.375,83.5,92.25,-0.203125,-7.92188,6.60938,0.0078125,0.00195312,0.0,4,0,41.44476975829628,-91.73690020169064,10972.897748426463,16.238050324840245,0.4535045061498359,-0.6096704387154448,201.038,8749.224682894945,11121.848502006404,150,True,8.318079911427182,False,141.6674799275936,167.24136046489292,False,51.03725943730267,False,False
11,1970-07-23 11:25:56.096385654,2025-09-16,2025-09-26 15:13:29.638,AA,C,609045870,JASSM,3,135,76,2,2,1,225,9,2,0,1,26,0,0,0,0,-154143.46716483062,-4779709.125947799,4210784.233854771,-2.71064,-1.0108,0.752418,33.625,-53.5,-59.0,0.0,0.0,0.0,0.0,0.0,0.0,2,0,41.55520501015189,-91.84712291183595,9999.99987489624,155.95078228999327,-0.0039636633133672,0.0007658438287161,,8749.224682894945,11121.848502006404,150,11,2025-09-16,2025-09-26 15:13:29.524,AA,C,4254936698,HAWK11,1,1,73,2,1,1,225,2,1,0,0,12,1,225,2,1,-145180.36364920562,-4788295.922822799,4201846.097136021,-2.85273,1.11204,-0.807545,34.375,83.125,92.5,0.046875,-7.82812,6.60938,-0.0722656,-0.00195312,0.015625,4,0,41.44545309540016,-91.73666679840566,10969.225278587515,16.690516319322096,0.3984871104313702,-1.5944498622442465,200.671,8749.224682894945,11121.848502006404,150,True,8.243730756415275,False,141.6589438532284,166.93751391964486,False,51.35572391110632,False,False
11,1970-07-23 11:25:56.107418090,2025-09-16,2025-09-26 15:13:30.741,AA,C,610419014,JASSM,3,135,76,2,2,1,225,9,2,0,1,26,0,0,0,0,-154104.81091483062,-4779770.801729049,4210716.099089146,-2.71064,-1.0108,0.752418,33.625,-53.5,-59.0,0.0,0.0,0.0,0.0,0.0,0.0,2,0,41.55438560234246,-91.84663619742498,10000.002563274436,155.95110514527224,-0.0030669566423774,0.0007645234537407,,8749.224682894945,11121.848502006404,150,11,2025-09-16,2025-09-26 15:13:30.822,AA,C,4256606898,HAWK11,1,1,73,2,1,1,225,2,1,0,0,12,1,225,2,1,-145133.26599295562,-4788180.713838424,4201975.079557896,-3.06173,1.11885,-0.809079,32.75,82.875,92.625,0.0,-7.67188,6.375,-0.109375,0.00585938,-0.0214844,4,0,41.44701761397612,-91.7361455018546,10962.62273044971,16.407492177685175,0.4004153270281707,-13.289425852152164,200.561,8749.224682894945,11121.848502006404,150,False,8.130914570122012,False,142.34736937795816,166.32266959799526,False,51.28695652859452,False,False
11,1970-07-23 11:25:56.118465792,2025-09-16,2025-09-26 15:13:31.846,AA,C,611672386,JASSM,3,135,76,2,2,1,225,9,2,0,1,26,0,0,0,0,-154069.52673514312,-4779827.094697799,4210653.905729771,-2.71064,-1.0108,0.752418,33.625,-53.5,-59.0,0.0,0.0,0.0,0.0,0.0,0.0,2,0,41.5536376730715,-91.84619195196336,9999.998209014318,155.95139982479546,-0.002248473421131,0.0007633182145354,,8749.224682894945,11121.848502006404,150,11,2025-09-16,2025-09-26 15:13:31.760,AA,C,4257322696,HAWK11,1,1,73,2,1,1,225,2,1,0,0,12,1,225,2,1,-145113.49255545562,-4788130.932588424,4202031.110807896,-3.11283,1.14713,-0.813777,31.5,82.75,92.75,-0.15625,-7.73438,6.625,-0.0175781,-0.00195312,-0.0292969,4,0,41.44769554418076,-91.73592714522772,10960.466315826512,15.26239768299178,0.3266961046008913,-15.049191969539615,199.584,8749.224682894945,11121.848502006404,150,False,8.057100543634084,False,142.88769397336256,166.008344685215,False,51.06373331634097,False,False
11,1970-07-23 11:25:56.129487916,2025-09-16,2025-09-26 15:13:32.948,AA,C,612984402,JASSM,3,135,76,2,2,1,225,9,2,0,1,26,0,0,0,0,-154032.59118826812,-4779886.022432174,4210588.804167271,-2.71064,-1.0108,0.752418,33.625,-53.5,-59.0,0.0,0.0,0.0,0.0,0.0,0.0,2,0,41.552854753734536,-91.8457269258786,10000.004163117394,155.9517082839768,-0.0013916984618505,0.0007620632723758,,8749.224682894945,11121.848502006404,150,11,2025-09-16,2025-09-26 15:13:33.041,AA,C,4258237328,HAWK11,1,1,73,2,1,1,225,2,1,0,0,12,1,225,2,1,-145090.10974295562,-4788067.541963424,4202102.423307896,-3.12472,1.17397,-0.815694,29.625,82.875,92.875,-0.21875,-7.6875,6.28125,0.0507812,0.00390625,-0.0214844,4,0,41.44855823668551,-91.73567056300188,10957.778793017002,14.218404197832283,0.1397727380316159,-14.615495641590751,199.18,8749.224682894945,11121.848502006404,150,False,7.97366788160635,False,143.72101105292518,165.62521845858404,False,50.61438669707828,False,False
11,1970-07-23 11:25:56.141609453,2025-09-16,2025-09-26 15:13:34.160,AA,C,614356448,JASSM,3,135,76,2,2,1,225,9,2,0,1,26,0,0,0,0,-153993.96618826812,-4779947.643525924,4210520.720182896,-2.71064,-1.0108,0.752418,33.625,-53.5,-59.0,0.0,0.0,0.0,0.0,0.0,0.0,2,0,41.55203600195527,-91.84524064202068,10000.0003141884,155.95203083867003,-0.0004957167621388,0.0007607425764111,,8749.224682894945,11121.848502006404,150,11,2025-09-16,2025-09-26 15:13:34.120,AA,C,4260146126,HAWK11,1,1,73,2,1,1,225,2,1,0,0,12,1,225,2,1,-145045.15075858062,-4787936.401338424,4202249.915495396,-3.002,1.20657,-0.832376,27.0,82.625,92.875,-0.21875,-7.79688,6.46875,0.0703125,0.00976562,0.0,4,0,41.45034208220692,-91.735180556536,10952.408662816635,12.74694944294644,0.7389228393193115,-6.224704141703565,198.239,8749.224682894945,11121.848502006404,150,True,7.8518566945598485,False,144.85268377714232,164.9182367175937,False,50.193732677464844,False,False
11,1970-07-23 11:25:56.152826198,2025-09-16,2025-09-26 15:13:35.282,AA,C,615726952,JASSM,3,135,76,2,2,1,225,9,2,0,1,26,0,0,0,0,-153955.38415701812,-4780009.194307174,4210452.714323521,-2.71064,-1.0108,0.752418,33.625,-53.5,-59.0,0.0,0.0,0.0,0.0,0.0,0.0,2,0,41.55121818540208,-91.84475491206464,10000.0024379981,155.95235302074514,0.0003992438531116,0.0007594336924638,,8749.224682894945,11121.848502006404,150,11,2025-09-16,2025-09-26 15:13:35.636,AA,C,4262412824,HAWK11,1,1,73,2,1,1,225,2,1,0,0,12,1,225,2,1,-144995.59802420562,-4787780.286104049,4202426.618620396,-3.07467,1.21875,-0.834677,25.0,82.125,92.75,-0.09375,-7.46875,6.53125,-0.0722656,-0.0078125,-0.00976562,4,0,41.45247249791421,-91.73464464272328,10948.776302897286,12.260316765584523,0.7558233278461897,-9.878344558866118,197.372,8749.224682894945,11121.848502006404,150,True,7.716680315217094,False,145.69544403881588,164.07868365317395,False,50.19554333411825,False,False
11,1970-07-23 11:25:56.163389816,2025-09-16,2025-09-26 15:13:36.338,AA,C,617040132,JASSM,3,135,76,2,2,1,225,9,2,0,1,26,0,0,0,0,-153918.41540701812,-4780068.168916549,4210387.550261021,-2.71064,-1.0108,0.752513,33.625,-53.5,-59.0,0.0,0.0,0.0,0.0,0.0,0.0,2,0,41.55043456571087,-91.84428950501264,9999.999236378038,155.9549556406363,-0.003732627295395,0.0007581303089874,,8749.224682894945,11121.848502006404,150,11,2025-09-16,2025-09-26 15:13:36.230,AA,C,4262890024,HAWK11,1,1,73,2,1,1,225,2,1,0,0,12,1,225,2,1,-144985.92810233062,-4787748.022432174,4202463.114714146,-3.11417,1.2292,-0.833814,24.25,82.375,92.5,-0.109375,-7.1875,6.375,-0.0546875,-0.00195312,-0.00976562,4,0,41.45291252758249,-91.73454070946596,10948.023213204331,11.88079140058493,0.6143489590498418,-11.70249704216069,197.139,8749.224682894945,11121.848502006404,150,False,7.650027829304058,False,146.02999250703243,163.81924822728553,False,50.11642989636722,False,False
11,1970-07-23 11:25:56.174406857,2025-09-16,2025-09-26 15:13:37.440,AA,C,618293840,JASSM,3,135,76,2,2,1,225,9,2,0,1,26,0,0,0,0,-153883.12146170562,-4780124.473604049,4210325.335417271,-2.71064,-1.0108,0.752513,33.625,-53.375,-59.0,0.0,0.0,0.0,0.0,0.0,0.0,2,0,41.54968641412486,-91.8438451922014,9999.998648553978,155.95525034191706,-0.0029139121546018,0.0007569540787819,,8749.224682894945,11121.848502006404,150,11,2025-09-16,2025-09-26 15:13:37.324,AA,C,4264440922,HAWK11,1,1,73,2,1,1,225,2,1,0,0,12,1,225,2,1,-144956.08630545562,-4787641.081025924,4202583.347136021,3.08138,1.26966,-0.839663,21.625,83.125,92.875,-0.125,-7.0,6.92188,-0.00585938,0.0,-0.00390625,4,0,41.45436567771897,-91.7342226275952,10944.098075863638,10.292373522421464,0.6089905234701765,-15.018922856426103,197.897,8749.224682894945,11121.848502006404,150,False,7.545822425769184,False,147.24538356848865,163.22207757270698,False,49.490565387290694,False,False
11,1970-07-23 11:25:56.184428420,2025-09-16,2025-09-26 15:13:38.442,AA,C,619604332,JASSM,3,135,76,2,2,1,225,9,2,0,1,26,0,0,0,0,-153846.22888358062,-4780183.327119674,4210260.304167271,-2.71064,-1.0108,0.752513,33.625,-53.375,-59.0,0.0,0.0,0.0,0.0,0.0,0.0,2,0,41.548904392855285,-91.84338076584538,10000.002447882707,155.95555837933614,-0.0020581314617605,0.0007557321683067,,8749.224682894945,11121.848502006404,150,11,2025-09-16,2025-09-26 15:13:38.136,AA,C,4265395322,HAWK11,1,1,73,2,1,1,225,2,1,0,0,12,1,225,2,1,-144939.51989920562,-4787574.483369674,4202658.009245396,3.0903,1.29612,-0.844073,19.875,83.5,93.625,-0.1875,-7.125,7.26562,0.0117188,0.0078125,-0.0214844,4,0,41.45526882812947,-91.73404865823387,10941.349204310316,9.25293608670282,0.6650732815626912,-13.388703721354169,198.166,8749.224682894945,11121.848502006404,150,False,7.460929243282399,False,148.0844889143294,162.7913709828327,False,49.086344909219356,False,False
11,1970-07-23 11:25:56.195467666,2025-09-16,2025-09-26 15:13:39.546,AA,C,620917700,JASSM,3,135,76,2,2,1,225,9,2,0,1,26,0,0,0,0,-153809.25525076812,-4780242.307588424,4210195.128386021,-2.71054,-1.0108,0.752513,33.625,-53.375,-59.0,0.0,0.0,0.0,0.0,0.0,0.0,2,0,41.54812065434072,-91.84291533125946,10000.001564229278,155.95586708070036,-0.0012004733691045,0.0062459802028553,,8749.224682894945,11121.848502006404,150,11,2025-09-16,2025-09-26 15:13:39.434,AA,C,4266866686,HAWK11,1,1,73,2,1,1,225,2,1,0,0,12,1,225,2,1,-144916.61950858062,-4787470.961885299,4202774.550261021,2.96614,1.32114,-0.850784,16.875,84.125,94.5,0.265625,-7.0625,7.26562,-0.0644531,0.00976562,-0.00390625,4,0,41.456675462802544,-91.73381231367414,10938.349945739808,8.251970535187919,0.8817731754211946,-19.44111608325248,199.547,8749.224682894945,11121.848502006404,150,False,7.35565923205548,False,149.4889637628976,162.1781816768888,False,48.29844521220966,False,False
11,1970-07-23 11:25:56.206806846,2025-09-16,2025-09-26 15:13:40.680,AA,C,622229034,JASSM,3,135,76,2,2,1,225,9,2,0,1,26,0,0,0,0,-153772.33923514312,-4780301.196260299,4210130.052214146,-2.71054,-1.0107,0.752513,33.625,-53.375,-59.0,0.0,0.0,0.0,0.0,0.0,0.0,2,0,41.54733812130798,-91.84245063314678,10000.001378190866,155.9525332098761,-0.0020187609452937,0.0024915398857969,,8749.224682894945,11121.848502006404,150,11,2025-09-16,2025-09-26 15:13:40.731,AA,C,4268417584,HAWK11,1,1,73,2,1,1,225,2,1,0,0,12,1,225,2,1,-144897.34997733062,-4787361.094697799,4202897.999479771,2.93201,1.38921,-0.849921,12.875,85.25,95.25,-0.078125,-6.98438,7.14062,0.0527344,0.015625,-0.0390625,4,0,41.4581658251996,-91.73362167014892,10935.043613374592,5.710681422794029,0.4789679930804133,-18.49532012074405,200.818,8749.224682894945,11121.848502006404,150,False,7.246239316334156,False,151.3363983473783,161.5327134777635,False,47.093727785223955,False,False
11,1970-07-23 11:25:56.218493869,2025-09-16,2025-09-26 15:13:41.849,AA,C,623541384,JASSM,3,135,76,2,2,1,225,9,2,0,1,26,0,0,0,0,-153735.39392264312,-4780360.127900924,4210064.925261021,-2.71054,-1.0107,0.752513,33.625,-53.375,-59.125,0.0,0.0,0.0,0.0,0.0,0.0,2,0,41.54655499354658,-91.84198557891564,9999.99850392092,155.95284164945642,-0.0011617732231612,0.0024902671669796,,8749.224682894945,11121.848502006404,150,11,2025-09-16,2025-09-26 15:13:41.824,AA,C,4269809416,HAWK11,1,1,73,2,1,1,225,2,1,0,0,12,1,225,2,1,-144884.40661795562,-4787261.938447799,4203008.708464146,2.97228,1.43207,-0.8597,9.625,85.75,96.125,-0.171875,-7.71875,7.73438,0.0527344,0.0234375,-0.00390625,4,0,41.45950533460294,-91.7335027866103,10930.870845542177,4.052281494874721,0.8814407214751034,-14.355208779883874,202.15,8749.224682894945,11121.848502006404,150,False,7.142147544949961,False,152.83814264736884,160.90711104367082,False,46.21851265353695,False,False
11,1970-07-23 11:25:56.228366796,2025-09-16,2025-09-26 15:13:42.836,AA,C,624798436,JASSM,3,135,76,2,2,1,225,9,2,0,1,26,0,0,0,0,-153700.00622733062,-4780416.577119674,4210002.542448521,-2.71054,-1.0107,0.752513,33.625,-53.375,-59.125,0.0,0.0,0.0,0.0,0.0,0.0,2,0,41.54580485698872,-91.84154014110578,10000.00187084769,155.95313707428917,-0.0003408942020976,0.002489039012322,,8749.224682894945,11121.848502006404,150,11,2025-09-16,2025-09-26 15:13:42.824,AA,C,4270883116,HAWK11,1,1,73,2,1,1,225,2,1,0,0,12,1,225,2,1,-144876.71130545562,-4787184.452119674,4203095.985807896,3.03258,1.45393,-0.865069,7.625,85.5,97.0,-0.09375,-7.17188,7.21875,0.0683594,-0.00195312,-0.0214844,4,0,41.46055681348186,-91.73343881066496,10929.455474910425,3.2170532125533238,1.1297980423858904,-9.963531767917845,202.846,8749.224682894945,11121.848502006404,150,True,7.051718234026358,False,153.7301585258739,160.40980246696108,False,45.836153784977675,False,False
11,1970-07-23 11:25:56.239407443,2025-09-16,2025-09-26 15:13:43.940,AA,C,626107774,JASSM,3,135,76,2,2,1,225,9,2,0,1,26,0,0,0,0,-153663.14587576812,-4780475.372041549,4209937.561979771,-2.71054,-1.0107,0.752513,33.625,-53.375,-59.125,0.0,0.0,0.0,0.0,0.0,0.0,2,0,41.54502351128055,-91.84107617870288,9999.99804742618,155.9534447804082,0.0005141365232365,0.0024877627674747,,8749.224682894945,11121.848502006404,150,11,2025-09-16,2025-09-26 15:13:43.825,AA,C,4272195414,HAWK11,1,1,73,2,1,1,225,2,1,0,0,12,1,225,2,1,-144869.22302420562,-4787090.795869674,4203201.997526646,3.0253,1.4871,-0.871205,6.0,85.625,97.625,-0.1875,-7.82812,7.48438,-0.0234375,0.00390625,0.0,4,0,41.46183090445041,-91.73338315974756,10929.021306832075,1.9717841690846163,1.417699953861938,-8.95818542735246,202.956,8749.224682894945,11121.848502006404,150,True,6.950052474837299,False,154.45532186373205,159.81953378055445,False,45.70638999961618,False,False
11,1970-07-23 11:25:56.250424613,2025-09-16,2025-09-26 15:13:45.042,AA,C,627418784,JASSM,3,135,76,2,2,1,225,9,2,0,1,26,0,0,0,0,-153626.23864920562,-4780534.241182174,4209872.499479771,-2.71054,-1.0107,0.752609,33.625,-53.375,-59.125,0.0,0.0,0.0,0.0,0.0,0.0,2,0,41.544241177309246,-91.84061163768682,9999.998846041424,155.95604854275376,-0.0036221113566783,0.0024864426194848,,8749.224682894945,11121.848502006404,150,11,2025-09-16,2025-09-26 15:13:45.026,AA,C,4273547480,HAWK11,1,1,73,2,1,1,225,2,1,0,0,12,1,225,2,1,-144863.31482108062,-4786993.122041549,4203313.378386021,3.02098,1.48278,-0.8783,4.125,85.5,97.875,-0.125,-7.15625,6.95312,0.015625,0.0,-0.0195312,4,0,41.463164847609335,-91.73334785522836,10930.50563286446,2.113287343617429,1.831779178159446,-9.391043333043257,203.934,8749.224682894945,11121.848502006404,150,True,6.845891444036391,False,155.2785884186146,159.19580719513934,False,45.510980681171105,False,False
11,1970-07-23 11:25:56.260806389,2025-09-16,2025-09-26 15:13:46.080,AA,C,628673048,JASSM,3,135,76,2,2,1,225,9,2,0,1,26,0,0,0,0,-153590.92810233062,-4780590.563447799,4209810.251432896,-2.71054,-1.0107,0.752609,33.625,-53.375,-59.125,0.0,0.0,0.0,0.0,0.0,0.0,2,0,41.54349268538983,-91.84016720414787,10000.003175075164,155.95634328815285,-0.0028030355956172,0.0024852549518031,,8749.224682894945,11121.848502006404,150,11,2025-09-16,2025-09-26 15:13:45.932,AA,C,4274700712,HAWK11,1,1,73,2,1,1,225,2,1,0,0,12,1,225,2,1,-144860.16052420562,-4786910.481416549,4203407.948698521,2.95483,1.52315,-0.873219,2.75,84.25,99.0,0.0,-7.21875,6.70312,-0.0566406,-0.0078125,-0.03125,4,0,41.464295388833655,-91.73334004121608,10932.629495715431,0.640481950593733,1.5002103863819771,-11.44785432523046,204.007,8749.224682894945,11121.848502006404,150,False,6.752339122343881,False,155.84625356750146,158.64072553588574,False,45.51140721837473,False,False
11,1970-07-23 11:25:56.271496229,2025-09-16,2025-09-26 15:13:47.149,AA,C,629983834,JASSM,3,135,76,2,2,1,225,9,2,0,1,26,0,0,0,0,-153554.02673514312,-4780649.420869674,4209745.196745396,-2.71054,-1.0107,0.752609,33.625,-53.375,-59.125,0.0,0.0,0.0,0.0,0.0,0.0,2,0,41.54271046894355,-91.83970275970304,10000.00180320458,155.95665129999165,-0.001947057554606,0.0024840126173532,,8749.224682894945,11121.848502006404,150,11,2025-09-16,2025-09-26 15:13:47.161,AA,C,4267781318,HAWK11,1,1,73,2,1,1,225,2,1,0,0,12,1,225,2,1,-144904.68200858062,-4787406.315400924,4202847.362761021,2.94093,1.34952,-0.851743,14.5,84.75,95.125,0.046875,-7.0625,7.14062,0.0371094,0.0117188,-0.0371094,4,0,41.4575536839896,-91.7336929743532,10936.736717634332,7.184569578268166,0.7732830202403894,-19.67824533583703,202.92,8749.224682894945,11121.848502006404,150,False,6.983543309332249,False,150.6180207689136,160.93375052601252,False,48.40921139634248,False,False
