Subject_cm,Timestamp,SampleDate_cm,SampleTime_cm,Configuration_cm,Scenario_cm,DisTime_cm,MarkingTxt_cm,Application_cm,EntId_cm,Site_cm,ExerciseId_cm,ForceId_cm,Category_cm,Country_cm,Domain_cm,Kind_cm,Extra_cm,Specific_cm,Subcategory_cm,AltCategory_cm,AltCountry_cm,AltDomain_cm,AltKind_cm,ECEF_X_cm,ECEF_Y_cm,ECEF_Z_cm,OriPhi_cm,OriPsi_cm,OriTheta_cm,LinVelX_cm,LinVelY_cm,LinVelZ_cm,LinAccX_cm,LinAccY_cm,LinAccZ_cm,AngVelX_cm,AngVelY_cm,AngVelZ_cm,DrAlg_cm,Appearance_cm,Latitude_cm,Longitude_cm,Altitude_cm,Heading_cm,Pitch_cm,Roll_cm,CalibratedAirspeed_cm,CM_Altitude_Lead_cm,CM_Altitude_Wing_cm,CM_Airspeed_cm,Subject_ac,SampleDate_ac,SampleTime_ac,Configuration_ac,Scenario_ac,DisTime_ac,MarkingTxt_ac,Application_ac,EntId_ac,Site_ac,ExerciseId_ac,ForceId_ac,Category_ac,Country_ac,Domain_ac,Kind_ac,Extra_ac,Specific_ac,Subcategory_ac,AltCategory_ac,AltCountry_ac,AltDomain_ac,AltKind_ac,ECEF_X_ac,ECEF_Y_ac,ECEF_Z_ac,OriPhi_ac,OriPsi_ac,OriTheta_ac,LinVelX_ac,LinVelY_ac,LinVelZ_ac,LinAccX_ac,LinAccY_ac,LinAccZ_ac,AngVelX_ac,AngVelY_ac,AngVelZ_ac,DrAlg_ac,Appearance_ac,Latitude_ac,Longitude_ac,Altitude_ac,Heading_ac,Pitch_ac,Roll_ac,CalibratedAirspeed_ac,CM_Altitude_Lead_ac,CM_Altitude_Wing_ac,CM_Airspeed_ac,Bank_Angle_Condition,distance_nm,Distance_Condition,angle_between_vel,angle_between_pos,Cone_Condition,angle_between_pos_nose,Nose_Cone_Condition,Intercept_Criteria
11,1970-07-23 11:41:28.990363554,2025-09-17,2025-09-26 17:08:19.036,HA,D,1255375994,JASSM,3,101,76,2,2,1,225,9,2,0,1,26,0,0,0,0,-121448.35027467164,-4791470.025465307,4198552.321745396,2.29618,-3.09845,0.0772743,-85.75,-3.625,-6.5,0.0,0.0,0.0,0.0,0.0,0.0,2,0,41.4082658320454,-91.45195279463458,9999.999078264029,-95.91343887518968,0.0063749641291531,0.0009498253926725,,9355.13352713969,11205.82783038296,150,11,2025-09-17,2025-09-26 17:08:19.114,HA,D,3884582314,HAWK11,1,1,73,2,1,1,225,2,1,0,0,12,1,225,2,1,-149780.43005545562,-4790198.413057174,4199639.765104771,2.61515,2.37978,-0.644847,-90.75,72.875,78.125,-0.296875,-7.0,6.65625,-0.0332031,-0.00976562,0.00976562,4,0,41.41839966143075,-91.79094697281374,11204.987931890051,-36.52993536154636,-0.1299259916588447,3.7911727251987015,221.629,9355.13352713969,11205.82783038296,150,True,15.267168967717337,False,54.48022974026609,171.786038063009,False,133.70238405251075,False,False
11,1970-07-23 11:41:29.001383496,2025-09-17,2025-09-26 17:08:20.138,HA,D,1256629356,JASSM,3,101,76,2,2,1,225,9,2,0,1,26,0,0,0,0,-121538.54558717164,-4791473.908277807,4198545.327604771,2.29618,-3.09845,0.0773702,-85.75,-3.625,-6.5,0.0,0.0,0.0,0.0,0.0,0.0,2,0,41.40818190775818,-91.45302946856728,9999.998808180471,-95.91826132127396,0.0035426147735754,0.0009497174680881,,9355.13352713969,11205.82783038296,150,11,2025-09-17,2025-09-26 17:08:20.020,HA,D,3885775314,HAWK11,1,1,73,2,1,1,225,2,1,0,0,12,1,225,2,1,-149870.62732108062,-4790125.894502486,4199717.411589146,2.54938,2.36914,-0.644176,-90.625,73.125,78.75,-0.21875,-6.85938,6.57812,-0.0371094,-0.0078125,-0.00195312,4,0,41.41933838934259,-91.79205188407468,11202.12594886895,-36.14685342063639,-0.4315862043888135,-0.3452495727573681,222.167,9355.13352713969,11205.82783038296,150,True,15.271024913577268,False,54.68716360869276,171.55706016573825,False,133.72671448624502,False,False
11,1970-07-23 11:41:29.011261432,2025-09-17,2025-09-26 17:08:21.126,HA,D,1257882814,JASSM,3,101,76,2,2,1,225,9,2,0,1,26,0,0,0,0,-121628.74871217164,-4791477.791090307,4198538.331511021,2.29618,-3.09845,0.0773702,-85.75,-3.625,-6.5,0.0,0.0,0.0,0.0,0.0,0.0,2,0,41.40809795903143,-91.45410623308914,9999.998997198016,-95.91897351315356,0.0043545580460993,0.0009499432627284,,9355.13352713969,11205.82783038296,150,11,2025-09-17,2025-09-26 17:08:21.222,HA,D,3887087612,HAWK11,1,1,73,2,1,1,225,2,1,0,0,12,1,225,2,1,-149971.07068045562,-4790044.283174361,4199804.056120396,2.56443,2.36252,-0.640341,-90.75,74.25,78.5,-0.0625,-6.54688,6.39062,0.0605469,0.0,0.00195312,4,0,41.42039002750271,-91.79328266704438,11197.2340081023,-36.01567198971512,-0.780873073279512,0.2888563443603364,223.181,9355.13352713969,11205.82783038296,150,True,15.281105826792288,False,54.791619003873166,171.30399832942925,False,133.8694095008386,False,False
11,1970-07-23 11:41:29.022287814,2025-09-17,2025-09-26 17:08:22.228,HA,D,1259134248,JASSM,3,101,76,2,2,1,225,9,2,0,1,26,0,0,0,0,-121718.80730592164,-4791481.666090307,4198531.347136021,2.29618,-3.09855,0.0773702,-85.75,-3.625,-6.5,0.0,0.0,0.0,0.0,0.0,0.0,2,0,41.40801414766503,-91.45518127004296,10000.000576617877,-95.9160523863179,0.0010684431626726,0.0013748057504567,,9355.13352713969,11205.82783038296,150,11,2025-09-17,2025-09-26 17:08:22.118,HA,D,3888280610,HAWK11,1,1,73,2,1,1,225,2,1,0,0,12,1,225,2,1,-150061.95935233062,-4789969.656221236,4199882.431120396,2.61994,2.35083,-0.643409,-90.75,74.875,78.75,0.0,-7.04688,6.90625,0.015625,0.00390625,0.00976562,4,0,41.42134606724734,-91.79439669794624,11190.84323427928,-35.47081849504183,-0.9260007399650192,3.06016546761385,223.817,9355.13352713969,11205.82783038296,150,True,15.28601613085127,False,54.947731086216116,171.07166026921436,False,133.94438570523056,False,False
11,1970-07-23 11:41:29.033304289,2025-09-17,2025-09-26 17:08:23.330,HA,D,1260447504,JASSM,3,101,76,2,2,1,225,9,2,0,1,26,0,0,0,0,-121813.31511842164,-4791485.731519994,4198524.015104771,2.29618,-3.09855,0.0773702,-85.75,-3.625,-6.5,0.0,0.0,0.0,0.0,0.0,0.0,2,0,41.407926173349175,-91.45630941502732,9999.998615841576,-95.916798559683,0.0019191345290142,0.0013750943002097,,9355.13352713969,11205.82783038296,150,11,2025-09-17,2025-09-26 17:08:23.317,HA,D,3889751976,HAWK11,1,1,73,2,1,1,225,2,1,0,0,12,1,225,2,1,-150173.06286795562,-4789877.224580611,4199979.399870396,2.59981,2.33194,-0.649641,-90.375,75.5,79.75,-0.03125,-7.0,6.70312,-0.0449219,-0.00585938,0.0117188,4,0,41.42252975161007,-91.79575900146808,11182.60042434104,-34.5515919016649,-1.089252199153776,1.2386583684714143,224.77,9355.13352713969,11205.82783038296,150,True,15.300739465934411,False,55.36443805894273,170.78955869261858,False,133.81238837998285,False,False
11,1970-07-23 11:41:29.043340380,2025-09-17,2025-09-26 17:08:24.334,HA,D,1261698654,JASSM,3,101,76,2,2,1,225,9,2,0,1,26,0,0,0,0,-121903.35418092164,-4791489.604566869,4198517.030729771,2.29618,-3.09855,0.0773702,-85.75,-3.625,-6.5,0.0,0.0,0.0,0.0,0.0,0.0,2,0,41.407842355975056,-91.45738421351044,10000.002769360117,-95.91750944759588,0.00272960070337,0.0013753618663831,,9355.13352713969,11205.82783038296,150,11,2025-09-17,2025-09-26 17:08:24.222,HA,D,3890626842,HAWK11,1,1,73,2,1,1,225,2,1,0,0,12,1,225,2,1,-150240.09021170562,-4789821.064424361,4200038.368620396,2.56338,2.32801,-0.653763,-90.5,75.625,80.125,-0.15625,-7.32812,7.09375,-0.148438,0.00585938,-0.00585938,4,0,41.42324937336513,-91.7965810353034,11177.67566378109,-34.274684791230364,-0.9838967903082876,-0.9902652005870266,225.576,9355.13352713969,11205.82783038296,150,True,15.292241471458526,False,55.41888153576009,170.60735673603898,False,133.9418589644828,False,False
11,1970-07-23 11:41:29.053708949,2025-09-17,2025-09-26 17:08:25.370,HA,D,1262892254,JASSM,3,101,76,2,2,1,225,9,2,0,1,26,0,0,0,0,-121989.24871217164,-4791493.296949682,4198510.364714146,2.29618,-3.09855,0.0773702,-85.75,-3.625,-6.5,0.0,0.0,0.0,0.0,0.0,0.0,2,0,41.407762380432914,-91.45840953677347,9999.997970720397,-95.9181876107496,0.0035027620901226,0.0013756240131468,,9355.13352713969,11205.82783038296,150,11,2025-09-17,2025-09-26 17:08:25.426,HA,D,3892137974,HAWK11,1,1,73,2,1,1,225,2,1,0,0,12,1,225,2,1,-150354.87927420562,-4789725.603486861,4200139.093229771,2.44028,2.32705,-0.655489,-91.75,75.5,80.375,0.109375,-7.60938,7.29688,0.0253906,0.0,-0.0175781,4,0,41.42447571628566,-91.79798860030375,11170.446614554518,-34.18612871847452,-0.9217166690168616,-8.0782365552722,226.688,9355.13352713969,11205.82783038296,150,True,15.314362740538526,False,55.06032174165651,170.3196201596509,False,134.59099826611214,False,False
11,1970-07-23 11:41:29.064401135,2025-09-17,2025-09-26 17:08:26.440,HA,D,1264145264,JASSM,3,101,76,2,2,1,225,9,2,0,1,26,0,0,0,0,-122079.42058717164,-4791497.173902807,4198503.368620396,2.29618,-3.09855,0.0773702,-85.75,-3.625,-6.5,0.0,0.0,0.0,0.0,0.0,0.0,2,0,41.40767842095792,-91.45948591578286,10000.002824493926,-95.9188995417302,0.0043144240561152,0.0013758908222496,,9355.13352713969,11205.82783038296,150,11,2025-09-17,2025-09-26 17:08:26.332,HA,D,3893012838,HAWK11,1,1,73,2,1,1,225,2,1,0,0,12,1,225,2,1,-150423.24450858062,-4789669.781221236,4200198.509245396,2.4559,2.34143,-0.647819,-92.75,75.125,80.5,0.09375,-7.375,7.07812,0.0214844,0.00585938,-0.0136719,4,0,41.42519607983932,-91.79882654604783,11167.4423722042,-34.975378150425705,-0.9413146910687068,-6.670175725131711,227.018,9355.13352713969,11205.82783038296,150,True,15.306913701688355,False,54.71614051142405,170.13716629977395,False,135.12054454000355,False,False
11,1970-07-23 11:41:29.074298731,2025-09-17,2025-09-26 17:08:27.429,HA,D,1265399186,JASSM,3,101,76,2,2,1,225,9,2,0,1,26,0,0,0,0,-122169.65886842164,-4791501.051832494,4198496.364714146,2.29618,-3.09855,0.0773702,-85.75,-3.625,-6.5,0.0,0.0,0.0,0.0,0.0,0.0,2,0,41.40759438279194,-91.46056308527874,10000.001499931965,-95.91961199436004,0.0051266849005445,0.0013761645639452,,9355.13352713969,11205.82783038296,150,11,2025-09-17,2025-09-26 17:08:27.520,HA,D,3894802338,HAWK11,1,1,73,2,1,1,225,2,1,0,0,12,1,225,2,1,-150562.26794608062,-4789557.281221236,4200318.628386021,2.49262,2.34248,-0.658365,-93.75,74.75,80.625,-0.046875,-7.28125,6.85938,0.0605469,0.0,-0.00585938,4,0,41.42665013617865,-91.80053021809732,11162.319245029172,-34.691059467474886,-0.404650193273684,-4.532698323401823,227.727,9355.13352713969,11205.82783038296,150,True,15.341661971172753,False,54.37471283635081,169.80162604344142,False,135.80076833395316,False,False
11,1970-07-23 11:41:29.085371228,2025-09-17,2025-09-26 17:08:28.537,HA,D,1266709254,JASSM,3,101,76,2,2,1,225,9,2,0,1,26,0,0,0,0,-122263.93621217164,-4791505.102613744,4198489.046354771,2.29618,-3.09855,0.0773702,-85.75,-3.5,-6.5,0.0,0.0,0.0,0.0,0.0,0.0,2,0,41.40750657014885,-91.46168846610126,10000.00075475777,-95.92035633326068,0.005975302913805,0.0013764527297131,,9355.13352713969,11205.82783038296,150,11,2025-09-17,2025-09-26 17:08:28.426,HA,D,3895716970,HAWK11,1,1,73,2,1,1,225,2,1,0,0,12,1,225,2,1,-150633.09021170562,-4789500.357393111,4200379.714323521,2.55743,2.34881,-0.657886,-93.75,74.875,80.625,-0.078125,-6.85938,6.28125,0.119141,-0.00976562,-0.00976562,4,0,41.4273878454523,-91.8013979985106,11160.439281790952,-34.94769880939007,-0.2715517384675893,-0.5959588160294266,228.045,9355.13352713969,11205.82783038296,150,True,15.333896134608565,False,54.34015767354945,169.66556170834085,False,135.96702084467503,False,False
11,1970-07-23 11:41:29.096380472,2025-09-17,2025-09-26 17:08:29.638,HA,D,1267962500,JASSM,3,101,76,2,2,1,225,9,2,0,1,26,0,0,0,0,-122354.12371217164,-4791508.976637182,4198482.044401646,2.29618,-3.09855,0.0773702,-85.75,-3.5,-6.5,0.0,0.0,0.0,0.0,0.0,0.0,2,0,41.40742255550516,-91.46276502427672,9999.99948532656,-95.921068379126,0.0067871074042284,0.0013767295005113,,9355.13352713969,11205.82783038296,150,11,2025-09-17,2025-09-26 17:08:29.722,HA,D,3897347402,HAWK11,1,1,73,2,1,1,225,2,1,0,0,12,1,225,2,1,-150760.62732108062,-4789396.992158736,4200488.858854771,2.78379,2.32609,-0.665268,-92.75,76.125,80.375,0.0,-6.53125,5.92188,0.177734,-0.00390625,0.00390625,4,0,41.42871559909007,-91.80296107420656,11153.097958455844,-33.85501559420366,-0.4644468316321527,11.566743356374996,227.984,9355.13352713969,11205.82783038296,150,False,15.362555939122808,False,54.803469971302704,169.35804139793692,False,135.8040748905418,False,False
11,1970-07-23 11:41:29.106905621,2025-09-17,2025-09-26 17:08:30.690,HA,D,1269157332,JASSM,3,101,76,2,2,1,225,9,2,0,1,26,0,0,0,0,-122440.11199342164,-4791512.669019994,4198475.368620396,2.29618,-3.09855,0.0773702,-85.75,-3.5,-6.5,0.0,0.0,0.0,0.0,0.0,0.0,2,0,41.40734245183585,-91.46379145464644,9999.999423617272,-95.9217472688764,0.00756111289507,0.0013769848849557,,9355.13352713969,11205.82783038296,150,11,2025-09-17,2025-09-26 17:08:30.652,HA,D,3898142734,HAWK11,1,1,73,2,1,1,225,2,1,0,0,12,1,225,2,1,-150822.75622733062,-4789344.870088424,4200542.716276646,2.90268,2.30394,-0.664981,-91.5,77.625,80.25,0.09375,-6.1875,5.48438,0.117188,-0.015625,0.0117188,4,0,41.42937756774202,-91.8037232057741,11146.675504566949,-33.01436528111692,-1.0018156972657146,17.584469639668633,227.984,9355.13352713969,11205.82783038296,150,False,15.354491817252292,False,55.41198338635012,169.18927072760764,False,135.3548937926658,False,False
11,1970-07-23 11:41:29.116303547,2025-09-17,2025-09-26 17:08:31.630,HA,D,1270407698,JASSM,3,101,76,2,2,1,225,9,2,0,1,26,0,0,0,0,-122530.09246217164,-4791516.532301244,4198468.382292271,2.29618,-3.09864,0.077466,-85.75,-3.5,-6.5,0.0,0.0,0.0,0.0,0.0,0.0,2,0,41.407258618407695,-91.46486553667448,10000.000833361031,-95.92292686238176,0.0006199188439241,0.001802987569515,,9355.13352713969,11205.82783038296,150,11,2025-09-17,2025-09-26 17:08:31.519,HA,D,3899574332,HAWK11,1,1,73,2,1,1,225,2,1,0,0,12,1,225,2,1,-150931.16247733062,-4789249.146455611,4200638.731901646,3.02904,2.25591,-0.668528,-88.5,80.625,80.5,-0.109375,-6.8125,5.96875,0.103516,0.00976562,0.0488281,4,0,41.43057481426458,-91.80505485652698,11128.166871009087,-31.04649924063999,-1.9193529635038864,23.07229896571572,228.302,9355.13352713969,11205.82783038296,150,False,15.372863725039085,False,56.885183622868595,168.90883948232477,False,134.14399448442487,False,False
11,1970-07-23 11:41:29.127320899,2025-09-17,2025-09-26 17:08:32.732,HA,D,1271660922,JASSM,3,101,76,2,2,1,225,9,2,0,1,26,0,0,0,0,-122620.27996217164,-4791520.403394994,4198461.378386021,2.29618,-3.09864,0.077466,-85.75,-3.5,-6.5,0.0,0.0,0.0,0.0,0.0,0.0,2,0,41.4071745782845,-91.46594208755825,10000.000539820245,-95.9236388999559,0.0014317236007,0.0018032535092661,,9355.13352713969,11205.82783038296,150,11,2025-09-17,2025-09-26 17:08:32.722,HA,D,3900966164,HAWK11,1,1,73,2,1,1,225,2,1,0,0,12,1,225,2,1,-151032.79528983062,-4789152.450166549,4200733.517057896,-3.12951,2.21909,-0.670637,-84.625,83.625,82.0,-0.0625,-7.34375,6.45312,0.0644531,0.00585938,0.03125,4,0,41.43177080591235,-91.80630597061882,11104.085820644555,-29.539085574954694,-2.609738108033014,28.84471061106249,229.035,9355.13352713969,11205.82783038296,150,False,15.387882198208413,False,58.86127694260615,168.6280949121753,False,132.4381623097764,False,False
11,1970-07-23 11:41:29.137360948,2025-09-17,2025-09-26 17:08:33.736,HA,D,1272915446,JASSM,3,101,76,2,2,1,225,9,2,0,1,26,0,0,0,0,-122710.56121217164,-4791524.277418432,4198454.366667271,2.29618,-3.09864,0.077466,-85.75,-3.5,-6.5,0.0,0.0,0.0,0.0,0.0,0.0,2,0,41.40709044363332,-91.46701975507354,10000.0006151816,-95.92435167488736,0.0022443721894829,0.0018035168322483,,9355.13352713969,11205.82783038296,150,11,2025-09-17,2025-09-26 17:08:33.628,HA,D,3902039862,HAWK11,1,1,73,2,1,1,225,2,1,0,0,12,1,225,2,1,-151108.28357108062,-4789074.650361861,4200808.546354771,-3.06835,2.18707,-0.665844,-80.875,86.375,83.625,-0.21875,-8.09375,7.0625,0.0390625,0.0292969,0.0351562,4,0,41.43272592969072,-91.8072375279263,11081.55737292919,-28.388379444208244,-3.5182172881716376,31.15109277690884,229.707,9355.13352713969,11205.82783038296,150,False,15.387464964501016,False,60.772608181641736,168.39572865747257,False,130.7511825127101,False,False
11,1970-07-23 11:41:29.148938420,2025-09-17,2025-09-26 17:08:34.893,HA,D,1274226026,JASSM,3,101,76,2,2,1,225,9,2,0,1,26,0,0,0,0,-122804.87371217164,-4791528.323316869,4198447.040495396,2.29618,-3.09864,0.077466,-85.75,-3.5,-6.5,0.0,0.0,0.0,0.0,0.0,0.0,2,0,41.40700253879212,-91.4681455401071,9999.999509743224,-95.9250962737252,0.0030933078037381,0.0018037945318608,,9355.13352713969,11205.82783038296,150,11,2025-09-17,2025-09-26 17:08:34.832,HA,D,3903312394,HAWK11,1,1,73,2,1,1,225,2,1,0,0,12,1,225,2,1,-151191.88318045562,-4788980.638643111,4200899.120573521,-3.01504,2.15026,-0.674856,-75.625,89.125,86.625,-0.15625,-9.03125,7.90625,0.00976562,0.0390625,0.0351562,4,0,41.43388090127217,-91.80827217960145,11053.560292663766,-26.674788558951025,-3.784699253756628,32.78568410611951,230.721,9355.13352713969,11205.82783038296,150,False,15.39104004293576,False,63.38372562625287,168.11931649277577,False,128.41972681406148,False,False
11,1970-07-23 11:41:29.158540401,2025-09-17,2025-09-26 17:08:35.854,HA,D,1275420778,JASSM,3,101,76,2,2,1,225,9,2,0,1,26,0,0,0,0,-122890.85418092164,-4791532.010816869,4198440.360807896,2.29618,-3.09864,0.077466,-85.75,-3.5,-6.5,0.0,0.0,0.0,0.0,0.0,0.0,2,0,41.40692239099992,-91.46917186539092,9999.99852344264,-95.9257750883443,0.0038672444194636,0.0018040470142323,,9355.13352713969,11205.82783038296,150,11,2025-09-17,2025-09-26 17:08:35.734,HA,D,3904028194,HAWK11,1,1,73,2,1,1,225,2,1,0,0,12,1,225,2,1,-151236.74255545562,-4788926.073213424,4200952.144011021,-2.9951,2.11431,-0.691346,-72.25,90.125,88.5,-0.03125,-9.29688,8.3125,-0.00390625,0.0214844,0.0449219,4,0,41.43455500243687,-91.80882894251332,11038.01565663846,-24.82462484263114,-3.5972822445823818,32.50883668208916,231.515,9355.13352713969,11205.82783038296,150,False,15.374858360177743,False,64.94030354151047,167.9439942394679,False,127.04554574521707,False,False
11,1970-07-23 11:41:29.169707187,2025-09-17,2025-09-26 17:08:36.970,HA,D,1276672524,JASSM,3,101,76,2,2,1,225,9,2,0,1,26,0,0,0,0,-122980.93230592164,-4791535.874098119,4198433.362761021,2.29618,-3.09864,0.077466,-85.75,-3.5,-6.5,0.0,0.0,0.0,0.0,0.0,0.0,2,0,41.40683841332466,-91.47024710055508,10000.001656619046,-95.92648625094613,0.0046780653391073,0.0018043119456014,,9355.13352713969,11205.82783038296,150,11,2025-09-17,2025-09-26 17:08:36.629,HA,D,3905579092,HAWK11,1,1,73,2,1,1,225,2,1,0,0,12,1,225,2,1,-151326.52771170562,-4788805.592744674,4201070.999479771,-2.93201,2.06464,-0.699879,-64.75,92.875,93.25,-0.0625,-9.4375,8.4375,0.0371094,0.0390625,0.0292969,4,0,41.43605716138131,-91.80994758586556,11006.851690311943,-22.619851997745467,-4.004172553465152,34.15352924342713,232.09,9355.13352713969,11205.82783038296,150,False,15.387372152151968,False,68.52725672177787,167.59406259358587,False,123.8229213773114,False,False
11,1970-07-23 11:41:29.179323647,2025-09-17,2025-09-26 17:08:37.932,HA,D,1277925928,JASSM,3,101,76,2,2,1,225,9,2,0,1,26,0,0,0,0,-123071.13152467164,-4791539.740309057,4198426.352995396,2.29618,-3.09864,0.077466,-85.75,-3.5,-6.5,0.0,0.0,0.0,0.0,0.0,0.0,2,0,41.40675431055752,-91.47132377909809,9999.99841729692,-95.927198367013,0.0054899770106361,0.0018045793359554,,9355.13352713969,11205.82783038296,150,11,2025-09-17,2025-09-26 17:08:37.832,HA,D,3907010690,HAWK11,1,1,73,2,1,1,225,2,1,0,0,12,1,225,2,1,-151398.40857108062,-4788692.290010299,4201184.489714146,-2.85656,1.98679,-0.723847,-56.375,95.125,97.125,-0.09375,-9.85938,8.84375,0.0234375,0.0507812,0.0390625,4,0,41.43748375956558,-91.81084956382072,10980.310896815252,-18.96793052095847,-3.90360856870115,35.31000381422561,232.689,9355.13352713969,11205.82783038296,150,False,15.390176939333797,False,72.21087963240369,167.25684683608227,False,120.48629293676916,False,False
11,1970-07-23 11:41:29.190351957,2025-09-17,2025-09-26 17:08:39.035,HA,D,1279176846,JASSM,3,101,76,2,2,1,225,9,2,0,1,26,0,0,0,0,-123161.15496217164,-4791543.598707494,4198419.356901646,2.29618,-3.09864,0.077466,-85.75,-3.5,-6.5,0.0,0.0,0.0,0.0,0.0,0.0,2,0,41.40667036337374,-91.47239835671448,9999.998722363129,-95.92790909233976,0.0063003063166176,0.0018048445164645,,9355.13352713969,11205.82783038296,150,11,2025-09-17,2025-09-26 17:08:39.020,HA,D,3908482056,HAWK11,1,1,73,2,1,1,225,2,1,0,0,12,1,225,2,1,-151462.46130545562,-4788572.180635299,4201307.651823521,-2.77142,1.90492,-0.748774,-47.0,96.625,101.25,-0.203125,-10.3594,9.34375,0.015625,0.0488281,0.046875,4,0,41.43901759727812,-91.81166058639432,10957.44543532148,-15.217840914049509,-3.5714620036023224,36.79188211862623,233.129,9355.13352713969,11205.82783038296,150,False,15.39036089008373,False,76.18632564476628,166.89412855056716,False,116.88675275716874,False,False
11,1970-07-23 11:41:29.200381512,2025-09-17,2025-09-26 17:08:40.038,HA,D,1280429282,JASSM,3,101,76,2,2,1,225,9,2,0,1,26,0,0,0,0,-123251.28386842164,-4791547.461012182,4198412.352995396,2.29618,-3.09864,0.077466,-85.75,-3.5,-6.5,0.0,0.0,0.0,0.0,0.0,0.0,2,0,41.40658631403138,-91.47347419069094,10000.002551049298,-95.9286206474367,0.0071115844874416,0.0018051038188154,,9355.13352713969,11205.82783038296,150,11,2025-09-17,2025-09-26 17:08:39.628,HA,D,3909078556,HAWK11,1,1,73,2,1,1,225,2,1,0,0,12,1,225,2,1,-151484.58435233062,-4788522.483369674,4201358.946745396,-2.73307,1.87337,-0.752705,-42.75,97.5,103.0,-0.390625,-10.5625,9.48438,0.0371094,0.0488281,0.0546875,4,0,41.4396553292282,-91.81194381879426,10948.375323566324,-13.880514617801587,-3.693508688220456,37.6715303376717,233.471,9355.13352713969,11205.82783038296,150,False,15.360531116330817,False,77.98001595262365,166.71751274668748,False,115.27329243282927,False,False
11,1970-07-23 11:41:29.210402484,2025-09-17,2025-09-26 17:08:41.040,HA,D,1281622330,JASSM,3,101,76,2,2,1,225,9,2,0,1,26,0,0,0,0,-123337.13933717164,-4791551.138746557,4198405.679167271,2.29618,-3.09874,0.077466,-85.75,-3.5,-6.5,0.0,0.0,0.0,0.0,0.0,0.0,2,0,41.40650623551048,-91.47449901215644,10000.002202634423,-95.92566637511057,0.0037876169844962,0.0022307029714752,,9355.13352713969,11205.82783038296,150,11,2025-09-17,2025-09-26 17:08:40.852,HA,D,3909873888,HAWK11,1,1,73,2,1,1,225,2,1,0,0,12,1,225,2,1,-151511.23669608062,-4788457.206025924,4201428.175261021,-2.6721,1.81106,-0.767757,-37.25,97.625,105.0,-0.484375,-10.7188,9.51562,0.0195312,0.0566406,0.0410156,4,0,41.44050594126092,-91.81228709007148,10940.301782235596,-11.16077763449561,-3.432248121848137,38.53527179673929,233.569,9355.13352713969,11205.82783038296,150,False,15.337463337323413,False,80.20026738749246,166.49640369094146,False,113.28145660303866,False,False
11,1970-07-23 11:41:29.221700076,2025-09-17,2025-09-26 17:08:42.170,HA,D,1282877140,JASSM,3,101,76,2,2,1,225,9,2,0,1,26,0,0,0,0,-123427.44011842164,-4791555.005934057,4198398.657682896,2.29618,-3.09874,0.0775619,-85.75,-3.5,-6.5,0.0,0.0,0.0,0.0,0.0,0.0,2,0,41.4064219924715,-91.47557689307357,9999.99899791912,-95.93048967616012,0.0009563146774433,0.0022308286412536,,9355.13352713969,11205.82783038296,150,11,2025-09-17,2025-09-26 17:08:42.018,HA,D,3912021286,HAWK11,1,1,73,2,1,1,225,2,1,0,0,12,1,225,2,1,-151561.94665701812,-4788279.483369674,4201620.368620396,-2.51611,1.64136,-0.796328,-20.125,98.125,109.5,-0.21875,-11.25,10.0469,0.0,0.0625,0.0429688,4,0,41.44285096464081,-91.81296049047576,10924.709453793876,-4.096423159096727,-2.7739919828340915,40.22889753423474,233.507,9355.13352713969,11205.82783038296,150,False,15.339531789308024,False,86.99075370400617,165.949544156787,False,107.04946789592341,False,False
11,1970-07-23 11:41:29.232302299,2025-09-17,2025-09-26 17:08:43.230,HA,D,1284248996,JASSM,3,101,76,2,2,1,225,9,2,0,1,26,0,0,0,0,-123526.16668092164,-4791559.233473119,4198390.981901646,2.29618,-3.09874,0.0775619,-85.75,-3.5,-6.5,0.0,0.0,0.0,0.0,0.0,0.0,2,0,41.406329886062046,-91.4767553458188,10000.000996311932,-95.93126909930076,0.0018449844363792,0.0022311115506195,,9355.13352713969,11205.82783038296,150,11,2025-09-17,2025-09-26 17:08:43.222,HA,D,3913373350,HAWK11,1,1,73,2,1,1,225,2,1,0,0,12,1,225,2,1,-151577.50427420562,-4788166.623994674,4201746.433073521,-2.42618,1.52334,-0.810038,-8.5,97.375,111.75,-0.25,-11.5156,10.4531,0.0078125,0.0507812,0.0488281,4,0,41.44437035278024,-91.81318917226862,10922.251994629572,0.6250329279653559,-2.140182330118968,40.31043848432424,232.909,9355.13352713969,11205.82783038296,150,False,15.311363085783453,False,91.51714212167428,165.56957032258217,False,102.90895425355993,False,False
11,1970-07-23 11:41:29.244298549,2025-09-17,2025-09-26 17:08:44.429,HA,D,1285620148,JASSM,3,101,76,2,2,1,225,9,2,0,1,26,0,0,0,0,-123624.83855592164,-4791563.457105932,4198383.310026646,2.29618,-3.09874,0.0775619,-85.75,-3.5,-6.5,0.0,0.0,0.0,0.0,0.0,0.0,2,0,41.40623782558867,-91.47793314294093,10000.003434546898,-95.93204808739148,0.0027331615881104,0.0022313873724899,,9355.13352713969,11205.82783038296,150,11,2025-09-17,2025-09-26 17:08:44.425,HA,D,3914964016,HAWK11,1,1,73,2,1,1,225,2,1,0,0,12,1,225,2,1,-151577.49548514312,-4788035.811494674,4201895.327604771,-2.30912,1.39602,-0.81138,5.125,96.125,113.25,-0.46875,-11.2344,9.875,0.00390625,0.0546875,0.0429688,4,0,41.44615356610153,-91.81323857173273,10924.047510169246,5.638739438035294,-1.762659982106475,41.55632298590158,232.09,9355.13352713969,11205.82783038296,150,False,15.278405764622391,False,96.78806824548846,165.12506319158908,False,98.08576804899324,False,False
11,1970-07-23 11:41:29.254337815,2025-09-17,2025-09-26 17:08:45.433,HA,D,1286873374,JASSM,3,101,76,2,2,1,225,9,2,0,1,26,0,0,0,0,-123715.02605592164,-4791567.316480932,4198376.294401646,2.29618,-3.09874,0.0775619,-85.75,-3.5,-6.5,0.0,0.0,0.0,0.0,0.0,0.0,2,0,41.406153653818365,-91.47900966372212,9999.999974209815,-95.93276009065944,0.0035449701446939,0.0022316560413031,,9355.13352713969,11205.82783038296,150,11,2025-09-17,2025-09-26 17:08:45.337,HA,D,3915997948,HAWK11,1,1,73,2,1,1,225,2,1,0,0,12,1,225,2,1,-151567.64489920562,-4787951.045869674,4201993.354948521,-2.23932,1.3128,-0.803422,14.125,95.125,113.25,-0.1875,-10.7969,9.6875,0.00976562,0.046875,0.046875,4,0,41.447321351188016,-91.81315289118896,10927.810321484674,8.967753657412072,-1.7588809070234548,42.00724160492383,231.454,9355.13352713969,11205.82783038296,150,False,15.238767404494816,False,100.27219995656283,164.8159569249566,False,94.9114011661115,False,False
11,1970-07-23 11:41:29.265357784,2025-09-17,2025-09-26 17:08:46.535,HA,D,1288184300,JASSM,3,101,76,2,2,1,225,9,2,0,1,26,0,0,0,0,-123809.36589967164,-4791571.352613744,4198368.956511021,2.29618,-3.09874,0.0775619,-85.75,-3.5,-6.5,0.0,0.0,0.0,0.0,0.0,0.0,2,0,41.40606560645699,-91.48013574616247,10000.000175452498,-95.93350487238726,0.0043941545046163,0.0022319265946744,,9355.13352713969,11205.82783038296,150,11,2025-09-17,2025-09-26 17:08:46.520,HA,D,3917151180,HAWK11,1,1,73,2,1,1,225,2,1,0,0,12,1,225,2,1,-151547.79040701812,-4787858.094697799,4202101.741667271,-2.1749,1.22412,-0.789425,24.0,94.25,112.25,-0.359375,-10.375,9.15625,-0.0117188,0.0351562,0.0488281,4,0,41.44860963571885,-91.81295070940492,10933.181959911277,12.610733699501482,-1.8306162452444457,41.95102586709779,230.66,9355.13352713969,11205.82783038296,150,False,15.19346181833114,False,104.11560420849152,164.47287295725846,False,91.41099710630466,False,False
11,1970-07-23 11:41:29.276380595,2025-09-17,2025-09-26 17:08:47.638,HA,D,1289437068,JASSM,3,101,76,2,2,1,225,9,2,0,1,26,0,0,0,0,-123899.51824342164,-4791575.208082494,4198361.944792271,2.29618,-3.09874,0.0775619,-85.75,-3.5,-6.5,0.0,0.0,0.0,0.0,0.0,0.0,2,0,41.40598146909728,-91.48121184236108,10000.001957490023,-95.9342165924076,0.0052056448905717,0.0022321730992012,,9355.13352713969,11205.82783038296,150,11,2025-09-17,2025-09-26 17:08:47.722,HA,D,3918861146,HAWK11,1,1,73,2,1,1,225,2,1,0,0,12,1,225,2,1,-151502.42224295562,-4787722.707979049,4202260.585417271,-2.08487,1.10121,-0.759033,36.875,92.0,110.25,0.0,-9.73438,8.73438,0.00976562,0.0410156,0.0449219,4,0,41.450495739397816,-91.81245955363696,10941.862329607402,17.931954279579216,-2.1134802116042146,41.99858983296858,230.0,9355.13352713969,11205.82783038296,150,False,15.144358483834411,False,109.22102574110663,163.98841146056344,False,86.79024427693813,False,False
11,1970-07-23 11:41:29.288506504,2025-09-17,2025-09-26 17:08:48.850,HA,D,1290749258,JASSM,3,101,76,2,2,1,225,9,2,0,1,26,0,0,0,0,-123993.94793092164,-4791579.246168432,4198354.597136021,2.29608,-3.09874,0.0775619,-85.75,-3.5,-6.5,0.0,0.0,0.0,0.0,0.0,0.0,2,0,41.40589330880631,-91.48233899184692,10000.000498286558,-95.93496207732052,0.0060556392003733,-0.0032590206878261,,9355.13352713969,11205.82783038296,150,11,2025-09-17,2025-09-26 17:08:48.926,HA,D,3920173444,HAWK11,1,1,73,2,1,1,225,2,1,0,0,12,1,225,2,1,-151454.54040701812,-4787620.969697799,4202378.899870396,-2.01412,1.01243,-0.729504,46.75,90.375,107.5,-0.421875,-9.84375,8.65625,-0.00585938,0.0488281,0.0546875,4,0,41.45190858497804,-91.81192559115313,10945.04605431729,22.03110910957045,-2.3960183066970595,42.44384742032672,229.548,9355.13352713969,11205.82783038296,150,False,15.087022454880413,False,113.2256423180094,163.6026781187824,False,83.17073144999304,False,False
11,1970-07-23 11:41:29.297279717,2025-09-17,2025-09-26 17:08:49.727,HA,D,1292002220,JASSM,3,101,76,2,2,1,225,9,2,0,1,26,0,0,0,0,-124084.11589967164,-4791583.100660619,4198347.581511021,2.29608,-3.09874,0.0775619,-85.75,-3.5,-6.5,0.0,0.0,0.0,0.0,0.0,0.0,2,0,41.40580912787436,-91.48341526937352,10000.001007919853,-95.93567391483352,0.0068672715017877,-0.0032587657690343,,9355.13352713969,11205.82783038296,150,11,2025-09-17,2025-09-26 17:08:49.832,HA,D,3921326676,HAWK11,1,1,73,2,1,1,225,2,1,0,0,12,1,225,2,1,-151404.04919608062,-4787533.981416549,4202479.979948521,-1.97768,0.940906,-0.702947,55.125,88.375,105.125,-0.3125,-9.9375,8.875,-0.00585938,0.0449219,0.0449219,4,0,41.45311784506706,-91.81135483160804,10946.860401594187,25.47578616189025,-2.5524608056175606,41.69127581915853,229.035,9355.13352713969,11205.82783038296,150,False,15.028642576544334,False,116.68334986485229,163.2609780187638,False,80.05457052746677,False,False
11,1970-07-23 11:41:29.308306241,2025-09-17,2025-09-26 17:08:50.830,HA,D,1293314786,JASSM,3,101,76,2,2,1,225,9,2,0,1,26,0,0,0,0,-124178.57293092164,-4791587.137769994,4198340.229948521,2.29608,-3.09883,0.0775619,-85.75,-3.5,-6.5,0.0,0.0,0.0,0.0,0.0,0.0,2,0,41.40572092122263,-91.4845427399496,9999.999433514102,-95.93278758048795,0.0036207357684571,-0.0028326266152433,,9355.13352713969,11205.82783038296,150,11,2025-09-17,2025-09-26 17:08:50.731,HA,D,3921962942,HAWK11,1,1,73,2,1,1,225,2,1,0,0,12,1,225,2,1,-151371.93786795562,-4787485.944307174,4202535.038542271,-1.94758,0.902652,-0.686552,59.75,87.125,103.625,-0.25,-9.90625,8.82812,0.0136719,0.0410156,0.0566406,4,0,41.45378129509866,-91.810989075668,10945.88672116968,27.402565363872203,-2.666492883212835,41.92514751176289,228.619,9355.13352713969,11205.82783038296,150,False,14.971299052772785,False,118.62670912333591,163.04335676828327,False,78.32873126925581,False,False
11,1970-07-23 11:41:29.319718736,2025-09-17,2025-09-26 17:08:51.971,HA,D,1294567626,JASSM,3,101,76,2,2,1,225,9,2,0,1,26,0,0,0,0,-124268.73308717164,-4791590.990309057,4198333.214323521,2.29608,-3.09883,0.0775619,-85.75,-3.5,-6.5,0.0,0.0,0.0,0.0,0.0,0.0,2,0,41.40563673250212,-91.4856189190356,10000.003254368974,-95.93349935047245,0.0044322975555895,-0.0028323257351875,,9355.13352713969,11205.82783038296,150,11,2025-09-17,2025-09-26 17:08:52.221,HA,D,3924189872,HAWK11,1,1,73,2,1,1,225,2,1,0,0,12,1,225,2,1,-151243.65271170562,-4787325.985322799,4202721.282682896,-1.8565,0.773222,-0.622892,74.875,82.0,97.625,-0.265625,-9.75,8.6875,0.0136719,0.0449219,0.0449219,4,0,41.45601411827826,-91.8095157329391,10947.318014857445,34.32125265636786,-3.0075029913907296,42.27903861973038,228.045,9355.13352713969,11205.82783038296,150,False,14.88635134066405,False,125.2372389451397,162.43521586745786,False,72.32603786788236,False,False
11,1970-07-23 11:41:29.330919182,2025-09-17,2025-09-26 17:08:53.091,HA,D,1295879616,JASSM,3,101,76,2,2,1,225,9,2,0,1,26,0,0,0,0,-124363.14714967164,-4791595.022535619,4198325.864714146,2.29608,-3.09883,0.0776578,-85.75,-3.5,-6.5,0.0,0.0,0.0,0.0,0.0,0.0,2,0,41.40554855312884,-91.48674587170903,10000.000186754867,-95.93835512180002,0.0016380526338726,-0.0028322512399697,,9355.13352713969,11205.82783038296,150,11,2025-09-17,2025-09-26 17:08:52.832,HA,D,3924945438,HAWK11,1,1,73,2,1,1,225,2,1,0,0,12,1,225,2,1,-151193.01208670562,-4787273.866182174,4202780.825651646,-1.82074,0.733435,-0.600937,80.25,80.25,94.75,-0.328125,-9.78125,8.73438,0.0,0.0507812,0.03125,4,0,41.45673560064403,-91.80892993937326,10944.629090587692,36.57387624030972,-3.081866412146784,42.898689213065616,228.045,9355.13352713969,11205.82783038296,150,False,14.820896754438976,False,127.6819552942929,162.19141931502634,False,70.1238401908728,False,False
11,1970-07-23 11:41:29.340433940,2025-09-17,2025-09-26 17:08:54.043,HA,D,1297134172,JASSM,3,101,76,2,2,1,225,9,2,0,1,26,0,0,0,0,-124453.42839967164,-4791598.878980932,4198318.835417271,2.29608,-3.09883,0.0776578,-85.75,-3.5,-6.5,0.0,0.0,0.0,0.0,0.0,0.0,2,0,41.405464209554594,-91.48782349090148,10000.000298498304,-95.93906784183012,0.0024507069502924,-0.0028319871837442,,9355.13352713969,11205.82783038296,150,11,2025-09-17,2025-09-26 17:08:54.024,HA,D,3926337270,HAWK11,1,1,73,2,1,1,225,2,1,0,0,12,1,225,2,1,-151093.31091483062,-4787181.969697799,4202886.327604771,-1.77808,0.66383,-0.551754,89.0,76.5,89.75,-0.203125,-9.59375,8.5625,0.0078125,0.0332031,0.0507812,4,0,41.45801314709277,-91.80777254783987,10940.211766300365,40.92918419353386,-3.5462501718148123,42.91680708012585,227.654,9355.13352713969,11205.82783038296,150,False,14.739793872196376,False,131.84415188861755,161.80091690145005,False,66.35058465706706,False,False
11,1970-07-23 11:41:29.351399705,2025-09-17,2025-09-26 17:08:55.139,HA,D,1298446462,JASSM,3,101,76,2,2,1,225,9,2,0,1,26,0,0,0,0,-124547.86589967164,-4791602.910230932,4198311.483854771,2.29608,-3.09883,0.0776578,-85.75,-3.5,-6.5,0.0,0.0,0.0,0.0,0.0,0.0,2,0,41.40537599758861,-91.48895071798164,10000.001112495038,-95.93981337044468,0.0033007712091928,-0.0028317361688371,,9355.13352713969,11205.82783038296,150,11,2025-09-17,2025-09-26 17:08:55.222,HA,D,3927848402,HAWK11,1,1,73,2,1,1,225,2,1,0,0,12,1,225,2,1,-150973.28161795562,-4787086.733369674,4202995.167448521,-2.01872,0.589528,-0.501899,97.375,71.5,85.375,0.203125,-9.89062,8.875,-0.291016,0.0332031,0.0625,4,0,41.45933690165854,-91.80637330811176,10933.27683962381,45.59566653921748,-3.656730916546067,26.69398693158635,227.299,9355.13352713969,11205.82783038296,150,False,14.647259265223527,False,135.9777816846596,161.3834712449032,False,62.6366972924015,False,False
11,1970-07-23 11:41:29.366155685,2025-09-17,2025-09-26 17:08:56.615,HA,D,1299818552,JASSM,3,101,76,2,2,1,225,9,2,0,1,26,0,0,0,0,-124646.60808717164,-4791607.125074682,4198303.794401646,2.29608,-3.09883,0.0776578,-85.75,-3.5,-6.5,0.0,0.0,0.0,0.0,0.0,0.0,2,0,41.40528373502779,-91.49012932356123,10000.000453199298,-95.94059287851822,0.0041895853340746,-0.0028314558958569,,9355.13352713969,11205.82783038296,150,11,2025-09-17,2025-09-26 17:08:56.721,HA,D,3929439068,HAWK11,1,1,73,2,1,1,225,2,1,0,0,12,1,225,2,1,-150836.91443045562,-4786994.430635299,4203104.460417271,-2.05189,0.538427,-0.510432,103.75,65.75,83.125,-0.171875,-9.95312,8.875,0.0,0.0195312,0.00390625,4,0,41.46064929083442,-91.804777550089,10933.288446027049,47.30196037344836,-1.681462439259841,23.294296728524387,226.921,9355.13352713969,11205.82783038296,150,False,14.544556266894263,False,139.22758061931145,160.95232514175302,False,59.819100770860516,False,False
11,1970-07-23 11:41:29.374278159,2025-09-17,2025-09-26 17:08:57.427,HA,D,1301188294,JASSM,3,101,76,2,2,1,225,9,2,0,1,26,0,0,0,0,-124745.17839967164,-4791611.331129369,4198296.118620396,2.29608,-3.09883,0.0776578,-85.75,-3.5,-6.5,0.0,0.0,0.0,0.0,0.0,0.0,2,0,41.40519163160271,-91.49130587473378,10000.001877325392,-95.94137102642138,0.005076851605802,-0.0028311866252039,,9355.13352713969,11205.82783038296,150,11,2025-09-17,2025-09-26 17:08:57.331,HA,D,3930313934,HAWK11,1,1,73,2,1,1,225,2,1,0,0,12,1,225,2,1,-150758.93200858062,-4786946.772432174,4203163.140104771,-2.00069,0.503817,-0.493942,106.5,62.75,81.5,-0.171875,-9.15625,8.04688,0.0917969,0.0195312,0.0664062,4,0,41.46134348901075,-91.80386304681343,10937.601699721889,49.24441462510459,-1.2989315103804546,25.222575850992516,226.432,9355.13352713969,11205.82783038296,150,False,14.463891753798253,False,140.8461234373622,160.68583380406412,False,58.463568030529004,False,False
11,1970-07-23 11:41:29.385354756,2025-09-17,2025-09-26 17:08:58.535,HA,D,1302441310,JASSM,3,101,76,2,2,1,225,9,2,0,1,26,0,0,0,0,-124835.35027467164,-4791615.177809057,4198289.095182896,2.29608,-3.09883,0.0776578,-85.75,-3.5,-6.5,0.0,0.0,0.0,0.0,0.0,0.0,2,0,41.405107359932025,-91.4923821782029,10000.001517629536,-95.94208287121012,0.0058885213485962,-0.0028309351588978,,9355.13352713969,11205.82783038296,150,11,2025-09-17,2025-09-26 17:08:58.519,HA,D,3931665998,HAWK11,1,1,73,2,1,1,225,2,1,0,0,12,1,225,2,1,-150634.64099295562,-4786877.928682174,4203250.546354771,-1.84912,0.451757,-0.470549,111.25,58.375,77.75,-0.40625,-9.0625,8.09375,0.0390625,0.0175781,0.00976562,4,0,41.46236626331298,-91.80240276365424,10948.68113992885,52.12101079602274,-0.581831551556592,32.47649602721312,225.943,9355.13352713969,11205.82783038296,150,False,14.368656560569825,False,143.70786065845036,160.32318012302707,False,55.95965465382259,False,False
11,1970-07-23 11:41:29.395338429,2025-09-17,2025-09-26 17:08:59.533,HA,D,1303695840,JASSM,3,101,76,2,2,1,225,9,2,0,1,26,0,0,0,0,-124925.63152467164,-4791619.028394994,4198282.061979771,2.29608,-3.09883,0.0776578,-85.75,-3.5,-6.5,0.0,0.0,0.0,0.0,0.0,0.0,2,0,41.405022972061744,-91.49345978463651,10000.000799279756,-95.94279557655894,0.0067011762069491,-0.0028306794945176,,9355.13352713969,11205.82783038296,150,11,2025-09-17,2025-09-26 17:08:59.721,HA,D,3933216896,HAWK11,1,1,73,2,1,1,225,2,1,0,0,12,1,225,2,1,-150484.78747733062,-4786804.061494674,4203346.310026646,-1.78028,0.393754,-0.417722,116.375,53.5,72.125,-0.140625,-8.85938,7.96875,0.0625,0.0292969,0.0507812,4,0,41.463480083696815,-91.80063865599416,10963.610956895813,56.378740754608565,-0.797086825165502,34.94067862003511,224.831,9355.13352713969,11205.82783038296,150,False,14.262039983679866,False,147.2072304568541,159.92097996860886,False,52.86077075957845,False,False
11,1970-07-23 11:41:29.406365192,2025-09-17,2025-09-26 17:09:00.636,HA,D,1305006046,JASSM,3,101,76,2,2,1,225,9,2,0,1,26,0,0,0,0,-125019.91668092164,-4791623.048902807,4198274.716276646,2.29608,-3.09893,0.0776578,-85.75,-3.5,-6.5,0.0,0.0,0.0,0.0,0.0,0.0,2,0,41.40493483199449,-91.4945851794011,10000.001199244316,-95.93990791542572,0.0034530985745545,-0.0024040378139679,,9355.13352713969,11205.82783038296,150,11,2025-09-17,2025-09-26 17:09:00.734,HA,D,3933892930,HAWK11,1,1,73,2,1,1,225,2,1,0,0,12,1,225,2,1,-150417.85974295562,-4786774.602510299,4203384.433073521,-1.73627,0.371127,-0.403341,118.75,51.375,69.0,-0.125,-8.75,7.84375,0.03125,0.03125,0.0214844,4,0,41.463925157652746,-91.79984942264146,10968.868413566965,57.80943106753393,-0.5801614315226683,36.92748326307897,224.183,9355.13352713969,11205.82783038296,150,False,14.186503879203155,False,148.94049655833004,159.71053021889887,False,51.339916390313114,False,False
11,1970-07-23 11:41:29.417376676,2025-09-17,2025-09-26 17:09:01.737,HA,D,1306258764,JASSM,3,101,76,2,2,1,225,9,2,0,1,26,0,0,0,0,-125110.06902467164,-4791626.891676244,4198267.690886021,2.29608,-3.09893,0.0776578,-85.75,-3.5,-6.625,0.0,0.0,0.0,0.0,0.0,0.0,2,0,41.40485054273874,-91.49566124222672,9999.99855714503,-95.9406195974436,0.0042645937774607,-0.0024037297793991,,9355.13352713969,11205.82783038296,150,11,2025-09-17,2025-09-26 17:09:01.831,HA,D,3935722194,HAWK11,1,1,73,2,1,1,225,2,1,0,0,12,1,225,2,1,-150230.02185233062,-4786699.049775924,4203481.761198521,-1.67712,0.315137,-0.335654,124.375,46.0,61.0,-0.15625,-8.54688,7.65625,0.0410156,0.0332031,0.0527344,4,0,41.46506662679049,-91.79763164785656,10980.152379312776,62.65960722136447,-1.2713051986953363,39.07905686369579,223.853,9355.13352713969,11205.82783038296,150,False,14.06174046048788,False,153.35789873765754,159.2074149580076,False,47.431807729393164,False,False
11,1970-07-23 11:41:29.427704239,2025-09-17,2025-09-26 17:09:02.770,HA,D,1307513054,JASSM,3,101,76,2,2,1,225,9,2,0,1,26,0,0,0,0,-125200.33074342164,-4791630.738355932,4198260.657682896,2.29608,-3.09893,0.0776578,-85.75,-3.5,-6.625,0.0,0.0,0.0,0.0,0.0,0.0,2,0,41.40476615043475,-91.4967386080074,9999.999808154507,-95.9413321400114,0.0050770727317425,-0.0024034305975181,,9355.13352713969,11205.82783038296,150,11,2025-09-17,2025-09-26 17:09:02.721,HA,D,3936716360,HAWK11,1,1,73,2,1,1,225,2,1,0,0,12,1,225,2,1,-150125.68396170562,-4786662.612275924,4203527.726042271,-1.65162,0.282444,-0.305262,127.375,42.75,55.625,-0.265625,-8.875,7.9375,-0.0117188,0.0253906,0.0390625,4,0,41.46561311441848,-91.79639763904969,10982.42709005347,65.1492781868972,-1.237707729396119,39.89565846119673,223.584,9355.13352713969,11205.82783038296,150,False,13.971099143483103,False,156.0640398288539,158.94848221332842,False,44.98717672550888,False,False
11,1970-07-23 11:41:29.438277853,2025-09-17,2025-09-26 17:09:03.827,HA,D,1308823794,JASSM,3,101,76,2,2,1,225,9,2,0,1,26,0,0,0,0,-125294.65496217164,-4791634.756910619,4198253.306120396,2.29608,-3.09893,0.0777537,-85.75,-3.5,-6.625,0.0,0.0,0.0,0.0,0.0,0.0,2,0,41.40467794428619,-91.49786446128688,9999.998604410875,-95.94618719866143,0.0022820524718604,-0.0024034076606637,,9355.13352713969,11205.82783038296,150,11,2025-09-17,2025-09-26 17:09:03.925,HA,D,3938187724,HAWK11,1,1,73,2,1,1,225,2,1,0,0,12,1,225,2,1,-149964.46325858062,-4786612.770479049,4203590.495573521,-1.62957,0.234699,-0.245725,131.5,37.25,48.5,-0.3125,-9.23438,8.20312,0.0117188,0.0371094,0.0488281,4,0,41.46636336534925,-91.79448841400114,10983.899291551916,69.43339591587807,-1.719018014914698,40.30407647130227,223.193,9355.13352713969,11205.82783038296,150,False,13.852675889396899,False,159.96542203297355,158.60114324657118,False,41.433433530166916,False,False
11,1970-07-23 11:41:29.449318890,2025-09-17,2025-09-26 17:09:04.931,HA,D,1310077570,JASSM,3,101,76,2,2,1,225,9,2,0,1,26,0,0,0,0,-125384.88152467164,-4791638.600660619,4198246.272917271,2.29608,-3.09893,0.0777537,-85.75,-3.5,-6.625,0.0,0.0,0.0,0.0,0.0,0.0,2,0,41.40459355425639,-91.49894140218925,9999.99900682596,-95.94689945780472,0.0030942163823117,-0.0024031568963289,,9355.13352713969,11205.82783038296,150,11,2025-09-17,2025-09-26 17:09:05.128,HA,D,3939579556,HAWK11,1,1,73,2,1,1,225,2,1,0,0,12,1,225,2,1,-149808.28357108062,-4786572.559541549,4203641.374479771,-1.62353,0.18216,-0.193761,135.0,31.5,41.0,-0.09375,-9.65625,8.65625,0.0,0.0410156,0.0390625,4,0,41.46697509768637,-91.79263582322864,10983.608444168338,73.6177072953375,-1.6192408909813871,39.87185489538563,222.863,9355.13352713969,11205.82783038296,150,False,13.737012784430759,False,163.94522911006337,158.2874114238441,False,37.76684833794873,False,False
11,1970-07-23 11:41:29.459336300,2025-09-17,2025-09-26 17:09:05.933,HA,D,1311331224,JASSM,3,101,76,2,2,1,225,9,2,0,1,26,0,0,0,0,-125475.09997733062,-4791642.442354049,4198239.241667271,2.29608,-3.09893,0.0777537,-85.75,-3.5,-6.625,0.0,0.0,0.0,0.0,0.0,0.0,2,0,41.40450918083032,-91.50001824404144,10000.00227826772,-95.94761165024708,0.0039063057252339,-0.0024029251530553,,9355.13352713969,11205.82783038296,150,11,2025-09-17,2025-09-26 17:09:05.721,HA,D,3940136290,HAWK11,1,1,73,2,1,1,225,2,1,0,0,12,1,225,2,1,-149744.14685233062,-4786558.596650924,4203658.776823521,-1.61451,0.164999,-0.174203,136.375,28.875,38.125,-0.078125,-9.51562,8.57812,0.0175781,0.0390625,0.0390625,4,0,41.46718756863743,-91.79187407454504,10982.173938095912,75.09785098482396,-1.6702425705505055,40.16589072831157,222.705,9355.13352713969,11205.82783038296,150,False,13.662327247200306,False,165.5811787428613,158.12134701379924,False,36.29724507879693,False,False
11,1970-07-23 11:41:29.470354792,2025-09-17,2025-09-26 17:09:07.035,HA,D,1312641544,JASSM,3,101,76,2,2,1,225,9,2,0,1,26,0,0,0,0,-125569.39294608062,-4791646.457002486,4198231.888151646,2.29608,-3.09893,0.0777537,-85.75,-3.5,-6.625,0.0,0.0,0.0,0.0,0.0,0.0,2,0,41.40442095751923,-91.50114371625769,9999.998623914262,-95.94835600414598,0.0047550743813869,-0.0024026544953026,,9355.13352713969,11205.82783038296,150,11,2025-09-17,2025-09-26 17:09:06.926,HA,D,3941726954,HAWK11,1,1,73,2,1,1,225,2,1,0,0,12,1,225,2,1,-149558.32068045562,-4786524.694307174,4203702.671354771,-1.59227,0.108817,-0.113323,139.375,21.5,29.5,-0.125,-9.67188,8.79688,-0.0273438,0.0371094,0.0449219,4,0,41.46772010286652,-91.78966454894808,10979.954874164996,79.82498518105996,-1.66467225349019,40.84136917923181,222.338,9355.13352713969,11205.82783038296,150,False,13.528527393452025,False,170.2399613062461,157.79593243832662,False,31.96395814363437,False,False
11,1970-07-23 11:41:29.481376028,2025-09-17,2025-09-26 17:09:08.137,HA,D,1313894816,JASSM,3,101,76,2,2,1,225,9,2,0,1,26,0,0,0,0,-125659.58435233062,-4791650.295869674,4198224.856901646,2.29608,-3.09893,0.0777537,-85.75,-3.5,-6.625,0.0,0.0,0.0,0.0,0.0,0.0,2,0,41.40433658451675,-91.50222023011264,10000.001811845592,-95.94906797722088,0.0055669211268856,-0.0024024185418421,,9355.13352713969,11205.82783038296,150,11,2025-09-17,2025-09-26 17:09:08.127,HA,D,3943158554,HAWK11,1,1,73,2,1,1,225,2,1,0,0,12,1,225,2,1,-149389.82068045562,-4786502.924775924,4203732.147917271,-1.83119,0.060784,-0.0580036,141.375,14.75,22.75,0.03125,-9.9375,8.85938,-0.283203,0.0410156,0.0410156,4,0,41.468079881661225,-91.78765765614814,10977.57248279868,84.01826855456152,-1.7377446100208338,26.79244261460797,221.947,9355.13352713969,11205.82783038296,150,False,13.402996124770908,False,174.10081727353784,157.5210763907652,False,28.373219944557476,True,False
11,1970-07-23 11:41:29.491263390,2025-09-17,2025-09-26 17:09:09.126,HA,D,1315149094,JASSM,3,101,76,2,2,1,225,9,2,0,1,26,0,0,0,0,-125749.84607108062,-4791654.136689986,4198217.817839146,2.29608,-3.09893,0.0777537,-85.75,-3.5,-6.625,0.0,0.0,0.0,0.0,0.0,0.0,2,0,41.40425212610402,-91.5032975807462,10000.001601115518,-95.9497805025204,0.0063794020262212,-0.0024021728937912,,9355.13352713969,11205.82783038296,150,11,2025-09-17,2025-09-26 17:09:09.332,HA,D,3944629918,HAWK11,1,1,73,2,1,1,225,2,1,0,0,12,1,225,2,1,-149213.21716483062,-4786488.883760299,4203756.593229771,-2.1377,0.0282828,-0.0575243,142.375,8.625,20.5,-0.03125,-9.57812,8.70312,-0.1875,0.0214844,-0.00585938,4,0,41.46836116891457,-91.78555095191258,10982.644315835178,85.27578627608806,-0.3651337226915758,9.100360447284146,221.874,9355.13352713969,11205.82783038296,150,True,13.272082124111371,False,176.0717624562836,157.2546337618172,False,26.394717574035,True,False
11,1970-07-23 11:41:29.504103547,2025-09-17,2025-09-26 17:09:10.410,HA,D,1316520662,JASSM,3,101,76,2,2,1,225,9,2,0,1,26,0,0,0,0,-125848.54919608062,-4791658.334932174,4198210.118620396,2.29608,-3.09902,0.0777537,-85.75,-3.5,-6.625,0.0,0.0,0.0,0.0,0.0,0.0,2,0,41.40415975553697,-91.50447568413006,9999.99780390732,-95.94692774750966,0.0031710981222596,-0.0019750195605649,,9355.13352713969,11205.82783038296,150,11,2025-09-17,2025-09-26 17:09:10.627,HA,D,3946101284,HAWK11,1,1,73,2,1,1,225,2,1,0,0,12,1,225,2,1,-149038.13318045562,-4786480.454072799,4203780.968229771,-2.26339,0.0152439,-0.0689333,142.375,5.375,20.875,0.015625,-8.75,7.76562,-0.00585938,0.0078125,0.00585938,4,0,41.46860823790341,-91.78346031273684,11001.484240120704,85.28263499240053,0.6279899480599674,1.8517510897214613,220.713,9355.13352713969,11205.82783038296,150,True,13.137356825286972,False,176.07492823017765,156.9842555237277,False,26.040715513346537,True,False
11,1970-07-23 11:41:29.513341871,2025-09-17,2025-09-26 17:09:11.334,HA,D,1317773842,JASSM,3,101,76,2,2,1,225,9,2,0,1,26,0,0,0,0,-125938.72888358062,-4791662.170869674,4198203.085417271,2.29608,-3.09902,0.0777537,-85.75,-3.5,-6.625,0.0,0.0,0.0,0.0,0.0,0.0,2,0,41.4040753574379,-91.50555205025223,10000.001817586914,-95.94763961920091,0.0039828404778609,-0.0019747272623544,,9355.13352713969,11205.82783038296,150,11,2025-09-17,2025-09-26 17:09:10.923,HA,D,3946459182,HAWK11,1,1,73,2,1,1,225,2,1,0,0,12,1,225,2,1,-148994.47107108062,-4786478.823213424,4203787.372526646,-2.25754,0.0104502,-0.0682621,142.375,4.75,21.25,-0.046875,-8.45312,7.70312,0.0410156,0.0175781,0.00585938,4,0,41.468669234421554,-91.78293877579674,11008.050766069044,85.49344461854177,0.8080319215190193,2.1706670983121668,220.652,9355.13352713969,11205.82783038296,150,True,13.07124742343348,False,175.9079195888454,156.85493623298348,False,26.153866958652618,True,False
11,1970-07-23 11:41:29.524339680,2025-09-17,2025-09-26 17:09:12.433,HA,D,1319085570,JASSM,3,101,76,2,2,1,225,9,2,0,1,26,0,0,0,0,-126033.12732108062,-4791666.184541549,4198195.720182896,2.29608,-3.09902,0.0777537,-85.75,-3.5,-6.625,0.0,0.0,0.0,0.0,0.0,0.0,2,0,41.40398699019209,-91.50667876805778,9999.999779377617,-95.94838479049184,0.004832558898599,-0.0019744112642246,,9355.13352713969,11205.82783038296,150,11,2025-09-17,2025-09-26 17:09:12.423,HA,D,3948169148,HAWK11,1,1,73,2,1,1,225,2,1,0,0,12,1,225,2,1,-148792.23474295562,-4786473.637666549,4203815.065886021,-2.14163,-0.00488956,-0.0850401,141.875,2.625,20.25,-0.1875,-7.3125,7.3125,0.0820312,0.00976562,0.0175781,4,0,41.46892433610047,-91.78052220615292,11040.01756805905,85.35533590680183,2.103119532302509,8.74115976116855,219.442,9355.13352713969,11205.82783038296,150,True,12.925256196471684,False,176.08122642072897,156.55856145977629,False,25.68639471814216,True,False
11,1970-07-23 11:41:29.535360568,2025-09-17,2025-09-26 17:09:13.536,HA,D,1320396344,JASSM,3,101,76,2,2,1,225,9,2,0,1,26,0,0,0,0,-126127.45544608062,-4791670.194307174,4198188.360807896,2.29608,-3.09902,0.0777537,-85.75,-3.5,-6.625,0.0,0.0,0.0,0.0,0.0,0.0,2,0,41.40389868571928,-91.50780464386824,10000.00090388244,-95.94912940361108,0.0056816438097437,-0.0019741034138383,,9355.13352713969,11205.82783038296,150,11,2025-09-17,2025-09-26 17:09:13.627,HA,D,3949720046,HAWK11,1,1,73,2,1,1,225,2,1,0,0,12,1,225,2,1,-148608.27771170562,-4786471.403291549,4203838.892057896,-2.08573,-0.0214757,-0.0722888,141.875,0.625,18.25,-0.234375,-6.85938,6.6875,0.0,0.0,0.0136719,4,0,41.46913235023089,-91.77832312836895,11072.249797467972,86.53233417123458,2.3316180676381086,11.914564321777991,218.696,9355.13352713969,11205.82783038296,150,False,12.788106528257591,False,176.42207556173798,156.28081198332956,False,24.867808697220546,True,False
11,1970-07-23 11:41:29.546377454,2025-09-17,2025-09-26 17:09:14.637,HA,D,1321650414,JASSM,3,101,76,2,2,1,225,9,2,0,1,26,0,0,0,0,-126217.70153983062,-4791674.029268111,4198181.317839146,2.29608,-3.09902,0.0778495,-85.75,-3.5,-6.625,0.0,0.0,0.0,0.0,0.0,0.0,2,0,41.40381418595717,-91.508881795172,9999.998643659032,-95.9539522671548,0.0028499484367594,-0.0019741377498477,,9355.13352713969,11205.82783038296,150,11,2025-09-17,2025-09-26 17:09:14.518,HA,D,3950873278,HAWK11,1,1,73,2,1,1,225,2,1,0,0,12,1,225,2,1,-148472.34607108062,-4786471.006807174,4203854.013151646,-2.07691,-0.0211881,-0.0603046,141.875,0.0,15.875,-0.453125,-6.14062,6.03125,-0.0546875,-0.00390625,0.0214844,4,0,41.46926180270756,-91.77669769050364,11093.762639783756,87.03770656520489,1.8661693363389316,12.439566157905851,218.33,9355.13352713969,11205.82783038296,150,False,12.676356572213226,False,176.95103525390635,156.05752372855096,False,24.15851992792573,True,False
11,1970-07-23 11:41:29.557396543,2025-09-17,2025-09-26 17:09:15.739,HA,D,1322961614,JASSM,3,101,76,2,2,1,225,9,2,0,1,26,0,0,0,0,-126312.06091483062,-4791678.038057174,4198173.954557896,2.29608,-3.09902,0.0778495,-85.75,-3.5,-6.625,0.0,0.0,0.0,0.0,0.0,0.0,2,0,41.40372583446621,-91.51000803873129,9999.999925776763,-95.95469712095588,0.0036993148335046,-0.0019738944900771,,9355.13352713969,11205.82783038296,150,11,2025-09-17,2025-09-26 17:09:15.721,HA,D,3952225344,HAWK11,1,1,73,2,1,1,225,2,1,0,0,12,1,225,2,1,-148310.86755545562,-4786470.643525924,4203869.237761021,-2.07701,-0.0225303,-0.0404587,142.0,0.0,12.75,-0.21875,-5.67188,5.59375,-0.0605469,-0.00390625,0.0136719,4,0,41.46939644767093,-91.77476672526892,11113.646322889816,87.94245053210939,1.1724954967512389,12.454214672357264,218.293,9355.13352713969,11205.82783038296,150,False,12.549820093367938,False,177.56308542250224,155.8052217704823,False,23.365124073422784,True,False
11,1970-07-23 11:41:29.567275224,2025-09-17,2025-09-26 17:09:16.727,HA,D,1324215492,JASSM,3,101,76,2,2,1,225,9,2,0,1,26,0,0,0,0,-126402.29138358062,-4791681.871064986,4198166.911589146,2.29608,-3.09902,0.0778495,-85.75,-3.5,-6.625,0.0,0.0,0.0,0.0,0.0,0.0,2,0,41.40364132814849,-91.51108499823737,10000.00046782302,-95.95540937897331,0.0045115164883469,-0.0019736513686875,,9355.13352713969,11205.82783038296,150,11,2025-09-17,2025-09-26 17:09:16.628,HA,D,3953299042,HAWK11,1,1,73,2,1,1,225,2,1,0,0,12,1,225,2,1,-148183.02966483062,-4786470.026338424,4203878.935026646,-2.1656,-0.0173532,-0.0237767,142.25,0.5,10.375,0.15625,-5.42188,5.4375,-0.0585938,-0.0195312,0.0332031,4,0,41.46948909806109,-91.77323815465576,11123.46945147904,88.4634095063385,0.3185536791350069,7.394885199040319,218.501,9355.13352713969,11205.82783038296,150,True,12.441930237123046,False,177.85629034691797,155.58959551667053,False,22.911677914815062,True,False
11,1970-07-23 11:41:29.576359517,2025-09-17,2025-09-26 17:09:17.635,HA,D,1325289234,JASSM,3,101,76,2,2,1,225,9,2,0,1,26,0,0,0,0,-126479.56091483062,-4791685.152314986,4198160.880339146,2.29608,-3.09902,0.0778495,-85.75,-3.5,-6.625,0.0,0.0,0.0,0.0,0.0,0.0,2,0,41.40356895984032,-91.51200725865144,10000.001496308116,-95.9560193242389,0.0052070509269603,-0.0019734504456903,,9355.13352713969,11205.82783038296,150,11,2025-09-17,2025-09-26 17:09:17.520,HA,D,3954173908,HAWK11,1,1,73,2,1,1,225,2,1,0,0,12,1,225,2,1,-148079.51208670562,-4786469.182588424,4203885.638151646,-2.16042,-0.0124636,-0.011409,142.625,1.0,8.875,0.203125,-5.57812,5.42188,0.0410156,-0.0136719,0.00195312,4,0,41.469558406465126,-91.7720005096078,11128.087736270729,88.80961704881155,-0.3597139660146308,7.696371984179354,219.246,9355.13352713969,11205.82783038296,150,True,12.352529531141535,False,177.88885519000172,155.4094147720045,False,22.72089697890387,True,False
11,1970-07-23 11:41:29.587750547,2025-09-17,2025-09-26 17:09:18.775,HA,D,1326540950,JASSM,3,101,76,2,2,1,225,9,2,0,1,26,0,0,0,0,-126569.63903983062,-4791688.976533736,4198153.847136021,2.29608,-3.09912,0.0778495,-85.75,-3.5,-6.625,0.0,0.0,0.0,0.0,0.0,0.0,2,0,41.40348457696778,-91.51308239539664,9999.99952827801,-95.95309851876836,0.0019211155100712,-0.0015458787178361,,9355.13352713969,11205.82783038296,150,11,2025-09-17,2025-09-26 17:09:18.725,HA,D,3955685040,HAWK11,1,1,73,2,1,1,225,2,1,0,0,12,1,225,2,1,-147898.08044608062,-4786466.993135299,4203893.784636021,-2.13099,-0.00632767,-0.00115049,143.125,1.875,5.75,-0.171875,-5.96875,5.82812,0.0859375,0.00390625,0.0214844,4,0,41.469659794109816,-91.76983158995114,11126.623636897,89.01856535821263,-1.0107794062781943,9.38256952916226,219.918,9355.13352713969,11205.82783038296,150,True,12.217957950124875,False,177.35859885504007,155.14139396531087,False,22.220581101505406,True,False
11,1970-07-23 11:41:29.598389406,2025-09-17,2025-09-26 17:09:19.838,HA,D,1327853062,JASSM,3,101,76,2,2,1,225,9,2,0,1,26,0,0,0,0,-126664.06482108062,-4791692.984346236,4198146.476042271,2.29608,-3.09912,0.0778495,-85.75,-3.5,-6.625,0.0,0.0,0.0,0.0,0.0,0.0,2,0,41.40339612698539,-91.51420942136524,10000.002958973488,-95.95384388516275,0.0027710800787423,-0.0015455861598638,,9355.13352713969,11205.82783038296,150,11,2025-09-17,2025-09-26 17:09:19.927,HA,D,3957116638,HAWK11,1,1,73,2,1,1,225,2,1,0,0,12,1,225,2,1,-147726.08044608062,-4786464.540010299,4203898.718229771,-2.10798,-0.00872452,0.0135182,143.75,1.625,3.25,-0.265625,-6.57812,6.35938,-0.0175781,-0.00195312,0.0175781,4,0,41.46973931282649,-91.76777555339964,11118.263329257898,89.74077371387743,-1.4629384644961412,10.6862708195702,220.81,9355.13352713969,11205.82783038296,150,False,12.085901760859002,False,176.4537283151289,154.8765563032333,False,21.65488670556657,True,False
11,1970-07-23 11:41:29.608430306,2025-09-17,2025-09-26 17:09:20.843,HA,D,1329048044,JASSM,3,101,76,2,2,1,225,9,2,0,1,26,0,0,0,0,-126750.05700858062,-4791696.632783736,4198139.759245396,2.29608,-3.09912,0.0778495,-85.75,-3.5,-6.625,0.0,0.0,0.0,0.0,0.0,0.0,2,0,41.40331554837816,-91.51523578533404,9999.997821079343,-95.95452267690916,0.0035451327711854,-0.0015453009441242,,9355.13352713969,11205.82783038296,150,11,2025-09-17,2025-09-26 17:09:20.832,HA,D,3958389170,HAWK11,1,1,73,2,1,1,225,2,1,0,0,12,1,225,2,1,-147573.74450858062,-4786463.118135299,4203900.644011021,-2.16751,-0.0218592,0.0258859,144.25,0.75,1.5,-0.09375,-6.96875,6.73438,-0.0371094,-0.00976562,0.0078125,4,0,41.46978875910845,-91.76595429277802,11107.40687285992,90.77151110231884,-1.3668455988406003,7.264488691542485,221.678,9355.13352713969,11205.82783038296,150,True,11.967582159377406,False,175.67216350591235,154.6402039015373,False,21.135963118544673,True,False
11,1970-07-23 11:41:29.619752036,2025-09-17,2025-09-26 17:09:21.975,HA,D,1330358718,JASSM,3,101,76,2,2,1,225,9,2,0,1,26,0,0,0,0,-126844.37732108062,-4791700.634736861,4198132.394011021,2.29608,-3.09912,0.0778495,-85.75,-3.5,-6.625,0.0,0.0,0.0,0.0,0.0,0.0,2,0,41.4032271683292,-91.51636154707614,10000.001498703645,-95.95526720469924,0.0043941491325457,-0.0015450009130232,,9355.13352713969,11205.82783038296,150,11,2025-09-17,2025-09-26 17:09:22.020,HA,D,3959582170,HAWK11,1,1,73,2,1,1,225,2,1,0,0,12,1,225,2,1,-147429.40857108062,-4786462.375947799,4203901.710417271,-2.22542,-0.0245437,0.022051,144.75,0.0,0.75,0.0625,-7.20312,6.98438,-0.046875,0.0078125,-0.00195312,4,0,41.46982686539847,-91.76422844944084,11096.97077668658,90.70976232979206,-1.1048427228016369,3.9517124790055234,222.705,9355.13352713969,11205.82783038296,150,True,11.849232698335552,False,175.26672595331138,154.39972700467987,False,20.95514998511869,True,False
11,1970-07-23 11:41:29.629329199,2025-09-17,2025-09-26 17:09:22.932,HA,D,1331553248,JASSM,3,101,76,2,2,1,225,9,2,0,1,26,0,0,0,0,-126930.33825858062,-4791704.280244674,4198125.679167271,2.29608,-3.09912,0.0778495,-85.75,-3.5,-6.625,0.0,0.0,0.0,0.0,0.0,0.0,2,0,41.40314660606403,-91.51738753325144,9999.999378789733,-95.95594574431296,0.0051679202832884,-0.0015447219836161,,9355.13352713969,11205.82783038296,150,11,2025-09-17,2025-09-26 17:09:22.927,HA,D,3960775168,HAWK11,1,1,73,2,1,1,225,2,1,0,0,12,1,225,2,1,-147284.77966483062,-4786462.723604049,4203901.759245396,-2.25035,-0.0301044,0.0239685,145.0,-0.5,0.375,0.0,-7.29688,6.73438,0.0136719,0.00390625,0.0117188,4,0,41.46985164612583,-91.76249869767985,11086.990317692038,91.00417780581604,-0.9375831608390056,2.525640264904901,223.34,9355.13352713969,11205.82783038296,150,True,11.734718991115905,False,175.03900933736114,154.1673947348252,False,20.945140770993305,True,False
11,1970-07-23 11:41:29.639367966,2025-09-17,2025-09-26 17:09:23.936,HA,D,1332806172,JASSM,3,101,76,2,2,1,225,9,2,0,1,26,0,0,0,0,-127020.50232108062,-4791708.103486861,4198118.636198521,2.29608,-3.09912,0.0778495,-85.75,-3.5,-6.625,0.0,0.0,0.0,0.0,0.0,0.0,2,0,41.40306209924768,-91.518463683236,10000.000434921176,-95.95665745877432,0.0059795252326353,-0.0015444338003015,,9355.13352713969,11205.82783038296,150,11,2025-09-17,2025-09-26 17:09:23.834,HA,D,3961968166,HAWK11,1,1,73,2,1,1,225,2,1,0,0,12,1,225,2,1,-147139.93200858062,-4786463.571260299,4203901.530729771,-2.22015,-0.030392,0.0185995,145.125,-1.125,-0.125,-0.34375,-7.25,6.5,0.0078125,0.00585938,0.00195312,4,0,41.46987159245039,-91.76076614309189,11077.63008856295,90.78568751614957,-0.7202541401498407,4.259555143362494,223.67,9355.13352713969,11205.82783038296,150,True,11.618148102387535,False,174.74218382900824,153.92664722167584,False,20.874606292168494,True,False
