Subject_cm,Timestamp,SampleDate_cm,SampleTime_cm,Configuration_cm,Scenario_cm,DisTime_cm,MarkingTxt_cm,Application_cm,EntId_cm,Site_cm,ExerciseId_cm,ForceId_cm,Category_cm,Country_cm,Domain_cm,Kind_cm,Extra_cm,Specific_cm,Subcategory_cm,AltCategory_cm,AltCountry_cm,AltDomain_cm,AltKind_cm,ECEF_X_cm,ECEF_Y_cm,ECEF_Z_cm,OriPhi_cm,OriPsi_cm,OriTheta_cm,LinVelX_cm,LinVelY_cm,LinVelZ_cm,LinAccX_cm,LinAccY_cm,LinAccZ_cm,AngVelX_cm,AngVelY_cm,AngVelZ_cm,DrAlg_cm,Appearance_cm,Latitude_cm,Longitude_cm,Altitude_cm,Heading_cm,Pitch_cm,Roll_cm,CalibratedAirspeed_cm,CM_Altitude_Lead_cm,CM_Altitude_Wing_cm,CM_Airspeed_cm,Subject_ac,SampleDate_ac,SampleTime_ac,Configuration_ac,Scenario_ac,DisTime_ac,MarkingTxt_ac,Application_ac,EntId_ac,Site_ac,ExerciseId_ac,ForceId_ac,Category_ac,Country_ac,Domain_ac,Kind_ac,Extra_ac,Specific_ac,Subcategory_ac,AltCategory_ac,AltCountry_ac,AltDomain_ac,AltKind_ac,ECEF_X_ac,ECEF_Y_ac,ECEF_Z_ac,OriPhi_ac,OriPsi_ac,OriTheta_ac,LinVelX_ac,LinVelY_ac,LinVelZ_ac,LinAccX_ac,LinAccY_ac,LinAccZ_ac,AngVelX_ac,AngVelY_ac,AngVelZ_ac,DrAlg_ac,Appearance_ac,Latitude_ac,Longitude_ac,Altitude_ac,Heading_ac,Pitch_ac,Roll_ac,CalibratedAirspeed_ac,CM_Altitude_Lead_ac,CM_Altitude_Wing_ac,CM_Airspeed_ac,Bank_Angle_Condition,distance_nm,Distance_Condition,angle_between_vel,angle_between_pos,Cone_Condition,angle_between_pos_nose,Nose_Cone_Condition,Intercept_Criteria
11,1970-07-23 11:25:31.869313389,2025-09-16,2025-09-26 14:33:06.931,HH,C,2013740718,JASSM,3,104,76,2,2,1,225,9,2,0,1,26,0,0,0,0,-180260.69372733065,-4778116.122041549,4211549.878386021,-2.36693,-0.400848,0.381098,74.5,-31.5,-32.25,0.0,0.0,0.0,0.0,0.0,0.0,2,0,41.56441349322607,-92.16053376171962,10000.002237329856,119.8050749428596,-0.0036015391247585,0.0045473068159961,,8561.873061902648,11079.41924856223,150,11,2025-09-16,2025-09-26 14:33:06.956,HH,C,2048765870,AMBUSH51,1,1,48,2,1,1,225,2,1,0,0,9,1,225,2,1,-146896.58856646944,-4792271.33769105,4196171.0462976415,2.50373,2.441,-0.581329,-78.9184,66.8837,68.3243,-0.202991,-7.25366,6.57593,-0.00157189,0.00163015,-0.0106787,4,0,41.38318284476325,-91.75572695941776,8558.263682680225,-40.94390880132477,-1.5092700245755688,-0.5081340201148767,198.618,8561.873061902648,11079.41924856223,150,True,21.177638981580134,False,160.7151600965631,178.74309487642677,False,18.432786023267663,True,False
11,1970-07-23 11:25:31.880431712,2025-09-16,2025-09-26 14:33:08.043,HH,C,2014933688,JASSM,3,104,76,2,2,1,225,9,2,0,1,26,0,0,0,0,-180186.16931326807,-4778147.711885299,4211517.446745396,-2.36693,-0.400848,0.381098,74.5,-31.5,-32.25,0.0,0.0,0.0,0.0,0.0,0.0,2,0,41.56402340514251,-92.15962712282192,10000.003450728933,119.8056764607407,-0.0028190192032926,0.0045460018426643,,8561.873061902648,11079.41924856223,150,11,2025-09-16,2025-09-26 14:33:08.023,HH,C,2050038402,AMBUSH51,1,1,48,2,1,1,225,2,1,0,0,9,1,225,2,1,-146981.40535883643,-4792199.250936291,4196244.590277193,2.47781,2.44231,-0.580886,-79.1918,66.7689,68.8188,-0.0996202,-7.38652,6.57411,-0.0533121,0.000333935,0.00564361,4,0,41.384092739919296,-91.7567664748544,8546.809675099978,-41.01012159703191,-1.4917508955862762,-1.9505643387514944,199.107,8561.873061902648,11079.41924856223,150,True,21.06272334052819,False,160.73159281957095,178.78043957149495,False,18.466849202334725,True,False
11,1970-07-23 11:25:31.891473187,2025-09-16,2025-09-26 14:33:09.147,HH,C,2016126756,JASSM,3,104,76,2,2,1,225,9,2,0,1,26,0,0,0,0,-180111.63806326812,-4778179.301729049,4211485.011198521,-2.36693,-0.400848,0.381098,74.5,-31.5,-32.25,0.0,0.0,0.0,0.0,0.0,0.0,2,0,41.5636332851185,-92.15872041297597,9999.9994366124,119.80627802105585,-0.0020364337756991,0.0045447057919687,,8561.873061902648,11079.41924856223,150,11,2025-09-16,2025-09-26 14:33:09.022,HH,C,2051231400,AMBUSH51,1,1,48,2,1,1,225,2,1,0,0,9,1,225,2,1,-147060.45233991998,-4792132.780034775,4196312.471855685,2.42582,2.44406,-0.579419,-79.7805,66.7868,68.6361,-0.119023,-7.34102,6.5474,-0.041615,-0.00183612,-0.00914525,4,0,41.384932042325936,-91.75773504153722,8536.464618580352,-41.12828788072236,-1.5089882467625562,-4.870825977669962,199.657,8561.873061902648,11079.41924856223,150,True,20.952730426480958,False,160.97521160129298,178.81300551461948,False,18.28217797054387,True,False
11,1970-07-23 11:25:31.899270757,2025-09-16,2025-09-26 14:33:09.927,HH,C,2017260150,JASSM,3,104,76,2,2,1,225,9,2,0,1,26,0,0,0,0,-180040.83435233062,-4778209.313447799,4211454.196745396,-2.36693,-0.400752,0.381098,74.5,-31.5,-32.25,0.0,0.0,0.0,0.0,0.0,0.0,2,0,41.56326265146892,-92.15785905980168,10000.001198972372,119.80320516335227,-0.0048594251620824,0.0025005201672413,,8561.873061902648,11079.41924856223,150,11,2025-09-16,2025-09-26 14:33:10.022,HH,C,2052424400,AMBUSH51,1,1,48,2,1,1,225,2,1,0,0,9,1,225,2,1,-147140.6147985239,-4792066.331218278,4196380.686563733,2.37325,2.45269,-0.57062,-80.4815,65.1386,69.5801,-0.140539,-7.17643,6.4133,-0.0465689,-0.0158469,-0.0158177,4,0,41.385773251766885,-91.75871695049892,8526.988596883537,-41.762053003057225,-1.6687096220696325,-7.596598299656755,199.84,8561.873061902648,11079.41924856223,150,True,20.844526139667806,False,161.34059564005375,178.84416801001717,False,17.92983843616471,True,False
11,1970-07-23 11:25:31.908311777,2025-09-16,2025-09-26 14:33:10.831,HH,C,2018333892,JASSM,3,104,76,2,2,1,225,9,2,0,1,26,0,0,0,0,-179973.75720389312,-4778237.743135299,4211425.003386021,-2.36693,-0.400752,0.381098,74.5,-31.5,-32.25,0.0,0.0,0.0,0.0,0.0,0.0,2,0,41.5629115287426,-92.15704305181389,9999.99850837587,119.8037465393001,-0.0041551049873764,0.0024993022124582,,8561.873061902648,11079.41924856223,150,11,2025-09-16,2025-09-26 14:33:10.656,HH,C,2053179966,AMBUSH51,1,1,48,2,1,1,225,2,1,0,0,9,1,225,2,1,-147192.58067767508,-4792023.696825215,4196423.672362428,2.33197,2.46451,-0.567589,-81.4571,66.2887,67.6894,-0.0295572,-7.34614,6.49105,-0.056123,-0.00918895,-0.0088935,4,0,41.38630760291286,-91.75935333190566,8519.257739484783,-42.324153231896936,-1.467119006988122,-9.581452176894572,200.256,8561.873061902648,11079.41924856223,150,True,20.761419121946393,False,161.86698371108557,178.86133960353754,False,17.488903863839205,True,False
11,1970-07-23 11:25:31.920029827,2025-09-16,2025-09-26 14:33:12.002,HH,C,2019644364,JASSM,3,104,76,2,2,1,225,9,2,0,1,26,0,0,0,0,-179891.89196951812,-4778272.440400924,4211389.374479771,-2.36693,-0.400752,0.381098,74.5,-31.5,-32.25,0.0,0.0,0.0,0.0,0.0,0.0,2,0,41.5624829927018,-92.15604715560316,10000.000330923483,119.80440725599564,-0.0032955098628561,0.0024978195263909,,8561.873061902648,11079.41924856223,150,11,2025-09-16,2025-09-26 14:33:12.023,HH,C,2054810396,AMBUSH51,1,1,48,2,1,1,225,2,1,0,0,9,1,225,2,1,-147305.1449260367,-4791933.1732933335,4196515.496090852,2.23066,2.48218,-0.557138,-83.5866,65.407,66.7323,-0.0688683,-7.5144,6.63995,-0.0962826,0.000550317,-0.0134042,4,0,41.38744548831316,-91.76073117562932,8504.224364430818,-43.369532392298765,-1.4268328198956537,-14.820025058515483,200.879,8561.873061902648,11079.41924856223,150,False,20.621927889597067,False,162.99248681089853,178.89712961963028,False,16.440079210795975,True,False
11,1970-07-23 11:25:31.929469252,2025-09-16,2025-09-26 14:33:12.946,HH,C,2020898976,JASSM,3,104,76,2,2,1,225,9,2,0,1,26,0,0,0,0,-179813.51599295562,-4778305.657197799,4211355.263151646,-2.36693,-0.400752,0.381098,74.5,-31.5,-32.25,0.0,0.0,0.0,0.0,0.0,0.0,2,0,41.56207271645619,-92.15509371950654,10000.000393292768,119.80503979773933,-0.0024725542067088,0.0024964022090811,,8561.873061902648,11079.41924856223,150,11,2025-09-16,2025-09-26 14:33:13.022,HH,C,2056003396,AMBUSH51,1,1,48,2,1,1,225,2,1,0,0,9,1,225,2,1,-147389.42319221178,-4791868.734836944,4196580.53091141,2.1005,2.51286,-0.541173,-85.9911,64.3065,65.0318,-0.0637172,-7.77274,6.88378,-0.0955565,0.00789274,-0.0244917,4,0,41.38825249180681,-91.76176159093636,8493.132196099374,-45.1158963157312,-1.2278150325127672,-21.319392662733065,201.539,8561.873061902648,11079.41924856223,150,False,20.508188150276972,False,164.41285215538278,178.91771995068135,False,15.083523239843075,True,False
11,1970-07-23 11:25:31.941492100,2025-09-16,2025-09-26 14:33:14.149,HH,C,2022209766,JASSM,3,104,76,2,2,1,225,9,2,0,1,26,0,0,0,0,-179731.63025076812,-4778340.360322799,4211319.622526646,-2.36693,-0.400752,0.381194,74.5,-31.5,-32.25,0.0,0.0,0.0,0.0,0.0,0.0,2,0,41.561644054202944,-92.1540976008595,9999.998419078289,119.80954281271086,-0.0055386594968436,0.0024946771649097,,8561.873061902648,11079.41924856223,150,11,2025-09-16,2025-09-26 14:33:14.022,HH,C,2057196394,AMBUSH51,1,1,48,2,1,1,225,2,1,0,0,9,1,225,2,1,-147477.64728774226,-4791804.661876828,4196644.872432971,2.05495,2.53794,-0.515639,-88.8668,62.8819,63.0865,-0.110847,-7.59839,6.70374,-0.0163004,0.0112883,-0.0376078,4,0,41.38905190910898,-91.76283903421948,8481.742072254012,-47.00063329823505,-1.5917943636891445,-23.15838286537457,201.979,8561.873061902648,11079.41924856223,150,False,20.390668329641095,False,166.10785745835267,178.93421517393813,False,13.451171370076858,True,False
11,1970-07-23 11:25:31.952251963,2025-09-16,2025-09-26 14:33:15.225,HH,C,2023522714,JASSM,3,104,76,2,2,1,225,9,2,0,1,26,0,0,0,0,-179649.60974295562,-4778375.120088424,4211283.923307896,-2.36693,-0.400752,0.381194,74.5,-31.5,-32.25,0.0,0.0,0.0,0.0,0.0,0.0,2,0,41.56121468102933,-92.1530998562352,10000.00014680394,119.81020473922692,-0.0046774353237863,0.0024932499077293,,8561.873061902648,11079.41924856223,150,11,2025-09-16,2025-09-26 14:33:15.322,HH,C,2058747292,AMBUSH51,1,1,48,2,1,1,225,2,1,0,0,9,1,225,2,1,-147595.99975716943,-4791723.980402938,4196724.36510095,2.00104,2.57272,-0.485937,-92.8247,60.9191,59.9385,-0.165798,-7.6119,6.92817,-0.0134895,0.00115577,-0.0329452,4,0,41.39004689143612,-91.76428252579063,8464.648944870793,-49.43400475296657,-1.7867147301760853,-25.21874172872974,202.565,8561.873061902648,11079.41924856223,150,False,20.252961728566504,False,168.5236411471689,178.94866421086022,False,11.132584947928287,True,False
11,1970-07-23 11:25:31.962298659,2025-09-16,2025-09-26 14:33:16.229,HH,C,2024775992,JASSM,3,104,76,2,2,1,225,9,2,0,1,26,0,0,0,0,-179571.31677420562,-4778408.299775924,4211249.845182896,-2.36693,-0.400752,0.381194,74.5,-31.5,-32.25,0.0,0.0,0.0,0.0,0.0,0.0,2,0,41.56080480663056,-92.15214746802916,10000.00245355681,119.81083657002304,-0.0038553474820131,0.0024918816938702,,8561.873061902648,11079.41924856223,150,11,2025-09-16,2025-09-26 14:33:16.388,HH,C,2060019824,AMBUSH51,1,1,48,2,1,1,225,2,1,0,0,9,1,225,2,1,-147696.39887495828,-4791660.164172578,4196786.044550419,1.98825,2.59732,-0.455871,-96.0804,59.2746,57.1405,-0.202788,-7.59461,6.76191,-0.00119114,0.00665062,-0.0332011,4,0,41.390824552821655,-91.76550538127972,8449.057783222299,-51.50986853860076,-2.2800971721099934,-25.23851606939656,203.47,8561.873061902648,11079.41924856223,150,False,20.132758833362345,False,170.53212182324464,178.95420825318976,False,9.221723113839728,True,False
11,1970-07-23 11:25:31.973313079,2025-09-16,2025-09-26 14:33:17.331,HH,C,2026146468,JASSM,3,104,76,2,2,1,225,9,2,0,1,26,0,0,0,0,-179485.70251639312,-4778444.581025924,4211212.577604771,-2.36693,-0.400752,0.381194,74.5,-31.5,-32.25,0.0,0.0,0.0,0.0,0.0,0.0,2,0,41.56035658331768,-92.1511060349007,10000.001165554148,119.81152746890253,-0.0029563793562221,0.0024903749828277,,8561.873061902648,11079.41924856223,150,11,2025-09-16,2025-09-26 14:33:17.323,HH,C,2061133290,AMBUSH51,1,1,48,2,1,1,225,2,1,0,0,9,1,225,2,1,-147788.36427150658,-4791605.009097621,4196838.136894096,1.9725,2.6212,-0.433008,-98.9713,57.7149,54.586,-0.0777796,-7.765,6.9367,-0.000544076,0.00707298,-0.0384816,4,0,41.39148749723829,-91.76662432561557,8433.346317230833,-53.30457521683648,-2.451512455538097,-25.478408665122043,204.191,8561.873061902648,11079.41924856223,150,False,20.015465666981623,False,172.3167129613913,178.95425111739826,False,7.5464011744459665,True,False
11,1970-07-23 11:25:31.984452531,2025-09-16,2025-09-26 14:33:18.445,HH,C,2027400492,JASSM,3,104,76,2,2,1,225,9,2,0,1,26,0,0,0,0,-179407.36267264312,-4778477.776338424,4211178.477995396,-2.36693,-0.400752,0.381194,74.5,-31.5,-32.25,0.0,0.0,0.0,0.0,0.0,0.0,2,0,41.55994646495007,-92.1501531036106,9999.999752932088,119.8121596492678,-0.0021338093913601,0.0024890207997275,,8561.873061902648,11079.41924856223,150,11,2025-09-16,2025-09-26 14:33:18.588,HH,C,2062644422,AMBUSH51,1,1,48,2,1,1,225,2,1,0,0,9,1,225,2,1,-147915.60409638382,-4791533.48378795,4196904.40870819,1.96736,2.65379,-0.402585,-102.687,55.3904,51.2687,-0.122389,-7.92282,7.02395,0.00209828,0.0192299,-0.0288568,4,0,41.39233707177726,-91.76817072999668,8410.807914575147,-55.74237883472151,-2.6060220352579284,-24.90763547561641,204.924,8561.873061902648,11079.41924856223,150,False,19.880531118353403,False,174.61940817740904,178.95016110566354,False,5.445856074640805,True,False
11,1970-07-23 11:25:31.995473057,2025-09-16,2025-09-26 14:33:19.547,HH,C,2028711718,JASSM,3,104,76,2,2,1,225,9,2,0,1,26,0,0,0,0,-179325.44958670562,-4778512.487275924,4211142.821745396,-2.36693,-0.400657,0.381194,74.5,-31.5,-32.25,0.0,0.0,0.0,0.0,0.0,0.0,2,0,41.559517614035286,-92.14915671935913,10000.003816526663,119.80917659745208,-0.0048401515949987,0.0004441606226443,,8561.873061902648,11079.41924856223,150,11,2025-09-16,2025-09-26 14:33:19.621,HH,C,2063877188,AMBUSH51,1,1,48,2,1,1,225,2,1,0,0,9,1,225,2,1,-148024.57200591714,-4791476.970561245,4196956.188764024,1.96911,2.7,-0.382273,-105.927,52.402,48.776,-0.124323,-9.21722,8.25422,0.0443468,0.0400442,-0.0439099,4,0,41.39300283841338,-91.76949335229808,8392.387033316098,-58.328917794344726,-1.7904902781953038,-23.69503683549589,205.779,8561.873061902648,11079.41924856223,150,False,19.757595852544526,False,176.77310927829078,178.94247502722857,False,3.5419666725639263,True,False
11,1970-07-23 11:25:32.006233614,2025-09-16,2025-09-26 14:33:20.623,HH,C,2030023868,JASSM,3,104,76,2,2,1,225,9,2,0,1,26,0,0,0,0,-179243.47888358062,-4778547.219697799,4211107.138151646,-2.36693,-0.400657,0.381194,74.5,-31.5,-32.25,0.0,0.0,0.0,0.0,0.0,0.0,2,0,41.55908845504007,-92.1481596487619,10000.000491475805,119.80983804910278,-0.003979450208048,0.0004426751843099,,8561.873061902648,11079.41924856223,150,11,2025-09-16,2025-09-26 14:33:20.622,HH,C,2065070186,AMBUSH51,1,1,48,2,1,1,225,2,1,0,0,9,1,225,2,1,-148132.22351989878,-4791426.659011314,4197003.804624372,1.97184,2.74896,-0.370249,-108.957,48.0322,47.1654,-0.198774,-10.2264,9.29768,-0.00270373,0.0489658,-0.0213792,4,0,41.39360382595531,-91.7707979869568,8380.097893044982,-60.68492959965401,-0.471318895836086,-22.461418380096315,206.28,8561.873061902648,11079.41924856223,150,False,19.63728612265486,False,179.18118586614844,178.93400904290104,False,1.6434465756856598,True,False
11,1970-07-23 11:25:32.016271310,2025-09-16,2025-09-26 14:33:21.627,HH,C,2031157262,JASSM,3,104,76,2,2,1,225,9,2,0,1,26,0,0,0,0,-179172.67517264312,-4778577.219697799,4211076.315886021,-2.36693,-0.400657,0.381194,74.5,-31.5,-32.25,0.0,0.0,0.0,0.0,0.0,0.0,2,0,41.55871775930302,-92.1472984215575,9999.999745198566,119.81040937840925,-0.0032360062574418,0.0004413965209479,,8561.873061902648,11079.41924856223,150,11,2025-09-16,2025-09-26 14:33:21.588,HH,C,2066223418,AMBUSH51,1,1,48,2,1,1,225,2,1,0,0,9,1,225,2,1,-148239.0588075288,-4791382.657249014,4197048.275680572,1.93986,2.78944,-0.360187,-111.572,43.08,45.8045,-0.125398,-9.72505,8.92458,-0.0304422,0.0209256,-0.0221198,4,0,41.39414618208142,-91.77209056380391,8376.454996921455,-62.6255300779475,0.6530084108007239,-23.468228586635924,206.207,8561.873061902648,11079.41924856223,150,False,19.526243422325233,False,178.14420584306487,178.9265910881513,False,2.1888682407761686,True,False
11,1970-07-23 11:25:32.026032161,2025-09-16,2025-09-26 14:33:22.603,HH,C,2032350310,JASSM,3,104,76,2,2,1,225,9,2,0,1,26,0,0,0,0,-179098.14587576812,-4778608.797822799,4211043.870573521,-2.36693,-0.400657,0.381194,74.5,-31.5,-32.25,0.0,0.0,0.0,0.0,0.0,0.0,2,0,41.5583275454312,-92.14639188868516,9999.99904742466,119.8110107585098,-0.0024534406406905,0.0004400455435622,,8561.873061902648,11079.41924856223,150,11,2025-09-16,2025-09-26 14:33:22.455,HH,C,2067257350,AMBUSH51,1,1,48,2,1,1,225,2,1,0,0,9,1,225,2,1,-148336.09828023324,-4791347.09565201,4197086.267989676,1.92441,2.82306,-0.343348,-113.547,39.4595,43.8427,-0.0610531,-9.6093,8.38819,0.00674217,0.0425263,-0.0306524,4,0,41.39459637720777,-91.7732630127717,8378.781687105009,-64.57979916620341,1.2744512403218704,-23.7225947460659,205.999,8561.873061902648,11079.41924856223,150,False,19.420306733010396,False,176.10086646084744,178.91952429266402,False,4.11539573550978,True,False
11,1970-07-23 11:25:32.036450822,2025-09-16,2025-09-26 14:33:23.645,HH,C,2033603332,JASSM,3,104,76,2,2,1,225,9,2,0,1,26,0,0,0,0,-179019.86755545562,-4778641.963838424,4211009.792448521,-2.36684,-0.400657,0.38129,74.5,-31.5,-32.25,0.0,0.0,0.0,0.0,0.0,0.0,2,0,41.55791769356373,-92.14543976677908,9999.999533774891,119.81548467924104,-0.0055572873570102,0.0059298562546189,,8561.873061902648,11079.41924856223,150,11,2025-09-16,2025-09-26 14:33:23.588,HH,C,2068609416,AMBUSH51,1,1,48,2,1,1,225,2,1,0,0,9,1,225,2,1,-148466.84126349795,-4791304.955996467,4197134.147492044,1.89534,2.86381,-0.319164,-115.785,34.3871,41.1413,-0.0725351,-8.73534,7.88667,-0.00686284,0.013993,-0.0315096,4,0,41.395146235381695,-91.77484056183374,8388.95117033892,-67.10827542844811,1.9176997983001651,-24.699223167580183,205.388,8561.873061902648,11079.41924856223,150,False,19.29329960684303,False,173.339805882678,178.91019922247025,False,6.837201340541182,True,False
11,1970-07-23 11:25:32.047491304,2025-09-16,2025-09-26 14:33:24.749,HH,C,2034916256,JASSM,3,104,76,2,2,1,225,9,2,0,1,26,0,0,0,0,-178937.84802420562,-4778676.713838424,4210974.085417271,-2.36684,-0.400657,0.38129,74.5,-31.5,-32.25,0.0,0.0,0.0,0.0,0.0,0.0,2,0,41.55748825042805,-92.14444215285884,10000.001459733538,119.8161464704959,-0.0046960757619705,0.0059284303835388,,8561.873061902648,11079.41924856223,150,11,2025-09-16,2025-09-26 14:33:24.855,HH,C,2070120548,AMBUSH51,1,1,48,2,1,1,225,2,1,0,0,9,1,225,2,1,-148613.80726432035,-4791263.854487859,4197182.63467536,1.89392,2.89618,-0.285213,-117.563,30.5646,37.2419,-0.10856,-7.84339,6.94917,0.0241692,0.00390216,-0.0338669,4,0,41.39569100539815,-91.77661156594232,8404.241475721357,-69.7411959803363,1.8849620870364217,-24.31570726597042,204.631,8561.873061902648,11079.41924856223,150,False,19.156608587842786,False,170.83808012931456,178.89618832691224,False,9.434641381371101,True,False
11,1970-07-23 11:25:32.058491254,2025-09-16,2025-09-26 14:33:25.849,HH,C,2036229244,JASSM,3,104,76,2,2,1,225,9,2,0,1,26,0,0,0,0,-178855.82458670562,-4778711.463838424,4210938.374479771,-2.36684,-0.400657,0.38129,74.5,-31.5,-32.375,0.0,0.0,0.0,0.0,0.0,0.0,2,0,41.557058773172095,-92.1434445053771,9999.999258017237,119.81680827839789,-0.0038348210920126,0.0059269998100536,,8561.873061902648,11079.41924856223,150,11,2025-09-16,2025-09-26 14:33:25.856,HH,C,2071313546,AMBUSH51,1,1,48,2,1,1,225,2,1,0,0,9,1,225,2,1,-148731.89702691336,-4791234.131178431,4197217.31840262,1.88996,2.91896,-0.2616,-118.707,28.1327,33.923,-0.133192,-7.95905,6.95649,0.0058808,0.00836295,-0.0237843,4,0,41.3960801976198,-91.77803339363392,8415.382991598759,-71.58935798811201,1.89248102394222,-24.251286307428188,204.154,8561.873061902648,11079.41924856223,150,False,19.038167668096914,False,168.9672614023388,178.952479860886,False,11.352972539592828,True,False
11,1970-07-23 11:25:32.069248316,2025-09-16,2025-09-26 14:33:26.924,HH,C,2037482180,JASSM,3,104,76,2,2,1,225,9,2,0,1,26,0,0,0,0,-178777.55212576812,-4778744.623994674,4210904.296354771,-2.36684,-0.400657,0.38129,74.5,-31.5,-32.375,0.0,0.0,0.0,0.0,0.0,0.0,2,0,41.55664893045831,-92.14249249349275,9999.99925148453,119.81743980784456,-0.0030129534138042,0.0059256365986015,,8561.873061902648,11079.41924856223,150,11,2025-09-16,2025-09-26 14:33:26.989,HH,C,2072665612,AMBUSH51,1,1,48,2,1,1,225,2,1,0,0,9,1,225,2,1,-148867.1889711781,-4791203.40313791,4197252.713842331,1.89831,2.93966,-0.232454,-119.899,25.5822,30.0191,-0.106556,-7.59949,6.70241,0.0154973,0.00272038,-0.0350591,4,0,41.39647697461915,-91.77966112422529,8426.91995488224,-73.60010091242428,1.6163988617747818,-23.54390148820263,203.69,8561.873061902648,11079.41924856223,150,False,18.913899026718344,False,166.89033245124108,178.92897515963875,False,13.527062103581327,True,False
11,1970-07-23 11:25:32.079472299,2025-09-16,2025-09-26 14:33:27.947,HH,C,2038792760,JASSM,3,104,76,2,2,1,225,9,2,0,1,26,0,0,0,0,-178695.67907889312,-4778779.307588424,4210868.649870396,-2.36684,-0.400657,0.38129,74.5,-31.5,-32.375,0.0,0.0,0.0,0.0,0.0,0.0,2,0,41.55622023288225,-92.14149670216555,9999.997451315548,119.81810037347928,-0.0021532830770093,0.0059242160808798,,8561.873061902648,11079.41924856223,150,11,2025-09-16,2025-09-26 14:33:27.888,HH,C,2073739310,AMBUSH51,1,1,48,2,1,1,225,2,1,0,0,9,1,225,2,1,-148975.60283960414,-4791180.995100377,4197277.910670704,1.9085,2.95628,-0.210728,-120.744,23.6553,27.1143,-0.125747,-7.61411,6.81342,0.0308895,0.00837335,-0.0181917,4,0,41.39676034908184,-91.78096466813028,8434.75187957808,-75.1475562567081,1.468735304324157,-22.79269298425564,203.286,8561.873061902648,11079.41924856223,150,False,18.80337329500292,False,165.3158657771149,178.90444797899679,False,15.173859512810465,True,False
11,1970-07-23 11:25:32.090488860,2025-09-16,2025-09-26 14:33:29.048,HH,C,2040046726,JASSM,3,104,76,2,2,1,225,9,2,0,1,26,0,0,0,0,-178617.34314139312,-4778812.493135299,4210834.542448521,-2.36684,-0.400561,0.38129,74.5,-31.375,-32.375,0.0,0.0,0.0,0.0,0.0,0.0,2,0,41.5558100393699,-92.14054394353586,9999.998974914106,119.81508860220124,-0.0048971824242349,0.0038789352172813,,8561.873061902648,11079.41924856223,150,11,2025-09-16,2025-09-26 14:33:28.922,HH,C,2074972076,AMBUSH51,1,1,48,2,1,1,225,2,1,0,0,9,1,225,2,1,-149100.628818147,-4791157.548152288,4197303.702198698,1.92244,2.98181,-0.188853,-121.507,21.3089,23.8409,-0.127943,-8.07333,7.29455,0.0288381,0.0192736,-0.0248205,4,0,41.39705082883248,-91.78246707483896,8442.596636194428,-77.04006936289314,1.696035765423491,-21.756011245231072,202.7,8561.873061902648,11079.41924856223,150,False,18.68718433657546,False,163.54184778659,178.89401698481467,False,17.078790202714462,True,False
11,1970-07-23 11:25:32.101250546,2025-09-16,2025-09-26 14:33:30.125,HH,C,2041358368,JASSM,3,104,76,2,2,1,225,9,2,0,1,26,0,0,0,0,-178535.40368826812,-4778847.204072799,4210798.866667271,-2.36684,-0.400561,0.38129,74.5,-31.375,-32.375,0.0,0.0,0.0,0.0,0.0,0.0,2,0,41.55538097923908,-92.139547370665,10000.003641063407,119.8157496754086,-0.0040368160636765,0.0038774604577215,,8561.873061902648,11079.41924856223,150,11,2025-09-16,2025-09-26 14:33:30.089,HH,C,2076363908,AMBUSH51,1,1,48,2,1,1,225,2,1,0,0,9,1,225,2,1,-149242.73593844558,-4791134.650107805,4197329.383589695,1.93753,3.01138,-0.165056,-122.152,16.8707,22.7751,-0.159501,-8.11761,7.23314,0.0307065,0.0193235,-0.0374788,4,0,41.39733411474515,-91.78417335994492,8452.870117705826,-79.17024487276775,2.032319838481109,-20.662426699908536,202.052,8561.873061902648,11079.41924856223,150,False,18.561100825969234,False,161.695939523753,178.84509941492965,False,18.94517940071808,True,False
11,1970-07-23 11:25:32.112270619,2025-09-16,2025-09-26 14:33:31.227,HH,C,2042671072,JASSM,3,104,76,2,2,1,225,9,2,0,1,26,0,0,0,0,-178453.39782889312,-4778881.940400924,4210763.157682896,-2.36684,-0.400561,0.38129,74.5,-31.375,-32.375,0.0,0.0,0.0,0.0,0.0,0.0,2,0,41.55495155015892,-92.13855000456388,9999.99698005042,119.81641126918971,-0.0031757469287634,0.0038759731237245,,8561.873061902648,11079.41924856223,150,11,2025-09-16,2025-09-26 14:33:31.221,HH,C,2077715972,AMBUSH51,1,1,48,2,1,1,225,2,1,0,0,9,1,225,2,1,-149382.62175446164,-4791115.852505051,4197350.720855381,1.94314,3.03966,-0.144983,-122.841,14.3233,18.0507,-0.158374,-8.22838,7.36799,0.0152997,0.012547,-0.0339834,4,0,41.3975640646103,-91.78585159251836,8463.646021353445,-81.09578223124757,2.467917577289071,-20.166331363301158,201.539,8561.873061902648,11079.41924856223,150,False,18.437729008973555,False,159.36810990210205,178.78822787970643,False,21.39543657159404,True,False
11,1970-07-23 11:25:32.123288472,2025-09-16,2025-09-26 14:33:32.328,HH,C,2043982526,JASSM,3,104,76,2,2,1,225,9,2,0,1,26,0,0,0,0,-178371.47009451812,-4778916.643525924,4210727.483854771,-2.36684,-0.400561,0.38129,74.5,-31.375,-32.375,0.0,0.0,0.0,0.0,0.0,0.0,2,0,41.55452252983349,-92.13755360186236,9999.997252902278,119.81707221829998,-0.0023155022171384,0.0038744943679211,,8561.873061902648,11079.41924856223,150,11,2025-09-16,2025-09-26 14:33:32.288,HH,C,2078988504,AMBUSH51,1,1,48,2,1,1,225,2,1,0,0,9,1,225,2,1,-149513.56658940885,-4791101.876608818,4197367.675479995,1.9476,3.05813,-0.127809,-123.029,11.5729,15.2873,-0.164026,-7.79627,6.99845,0.00828389,0.012443,-0.0118812,4,0,41.39773737646488,-91.78742121813416,8476.098426473736,-82.52981145022774,2.603382056460518,-19.829872936068924,200.916,8561.873061902648,11079.41924856223,150,False,18.32037583535821,False,157.58913258774268,178.72721526703606,False,23.26244785448878,True,False
11,1970-07-23 11:25:32.134310282,2025-09-16,2025-09-26 14:33:33.431,HH,C,2045294812,JASSM,3,104,76,2,2,1,225,9,2,0,1,26,0,0,0,0,-178289.49060233062,-4778951.368135299,4210691.786589146,-2.36684,-0.400561,0.381386,74.5,-31.375,-32.375,0.0,0.0,0.0,0.0,0.0,0.0,2,0,41.55409322635642,-92.13655658307007,9999.999214638012,119.82157601397176,-0.0053803525464844,0.0038727823880952,,8561.873061902648,11079.41924856223,150,11,2025-09-16,2025-09-26 14:33:33.455,HH,C,2080380336,AMBUSH51,1,1,48,2,1,1,225,2,1,0,0,9,1,225,2,1,-149656.93383992257,-4791089.312840529,4197382.947834395,1.9728,3.07603,-0.102947,-123.13,9.42264,11.8685,-0.0760117,-7.55427,6.80577,0.0279309,0.00777622,-0.0268199,4,0,41.39788860001423,-91.78913873592526,8489.338206345903,-84.27466588648257,2.4266438840406064,-18.34470660977661,200.39,8561.873061902648,11079.41924856223,150,False,18.19802205158076,False,155.79312069374566,178.65166182228367,False,25.177982517134684,True,False
11,1970-07-23 11:25:32.145330271,2025-09-16,2025-09-26 14:33:34.533,HH,C,2046608152,JASSM,3,104,76,2,2,1,225,9,2,0,1,26,0,0,0,0,-178207.44470389312,-4778986.120088424,4210656.060026646,-2.36684,-0.400561,0.381386,74.5,-31.375,-32.375,0.0,0.0,0.0,0.0,0.0,0.0,2,0,41.553663568556026,-92.13555877021848,10000.00315833397,119.82223788734645,-0.0045188665734534,0.0038713578387214,,8561.873061902648,11079.41924856223,150,11,2025-09-16,2025-09-26 14:33:34.521,HH,C,2081652868,AMBUSH51,1,1,48,2,1,1,225,2,1,0,0,9,1,225,2,1,-149787.08644468122,-4791080.144781203,4197393.947382667,1.99752,3.09113,-0.0795011,-123.188,7.47506,9.48264,-0.253333,-7.47476,6.82715,0.0216455,0.0102958,-0.0184039,4,0,41.3979932071432,-91.7906971134942,8500.655247699291,-85.85446136748472,2.1864960097222115,-16.913022687023076,199.73,8561.873061902648,11079.41924856223,150,False,18.08324788350925,False,154.3830331348666,178.57444176325578,False,26.692920929807375,True,False
11,1970-07-23 11:25:32.156449512,2025-09-16,2025-09-26 14:33:35.644,HH,C,2047921196,JASSM,3,104,76,2,2,1,225,9,2,0,1,26,0,0,0,0,-178125.41736014312,-4779020.862275924,4210620.339323521,-2.36684,-0.400561,0.381386,74.5,-31.375,-32.375,0.0,0.0,0.0,0.0,0.0,0.0,2,0,41.55323399565618,-92.13456119708438,10000.002325988837,119.82289959609204,-0.0036575741337297,0.0038699301518941,,8561.873061902648,11079.41924856223,150,11,2025-09-16,2025-09-26 14:33:35.621,HH,C,2082965168,AMBUSH51,1,1,48,2,1,1,225,2,1,0,0,9,1,225,2,1,-149923.54424011972,-4791072.638539178,4197402.577634256,2.02438,3.10641,-0.0658104,-123.038,5.61937,6.99519,-0.125274,-7.61806,6.74835,0.0349946,0.0031365,-0.0119645,4,0,41.39807073715922,-91.79233020227548,8511.413889050218,-87.02215845268243,2.324901782871967,-15.35640317619005,199.4,8561.873061902648,11079.41924856223,150,False,17.966512585343537,False,152.9703089721942,178.48513105576419,False,28.22347888719565,True,False
11,1970-07-23 11:25:32.167467052,2025-09-16,2025-09-26 14:33:36.746,HH,C,2049233222,JASSM,3,104,76,2,2,1,225,9,2,0,1,26,0,0,0,0,-178043.45349295562,-4779055.575166549,4210584.645964146,-2.36684,-0.400561,0.381386,74.5,-31.375,-32.375,0.0,0.0,0.0,0.0,0.0,0.0,2,0,41.5528047588797,-92.13356441018834,9999.999655201267,119.82356077769886,-0.0027969549910211,0.0038685138688551,,8561.873061902648,11079.41924856223,150,11,2025-09-16,2025-09-26 14:33:36.888,HH,C,2084476300,AMBUSH51,1,1,48,2,1,1,225,2,1,0,0,9,1,225,2,1,-150078.64561554935,-4791066.542070821,4197409.583746446,2.10606,3.1272,-0.0419349,-122.936,3.59717,4.95766,-0.2678,-8.0006,7.34702,0.0651507,0.014301,-0.0189449,4,0,41.398125418071984,-91.79418550349564,8523.562777453713,-88.83790180248398,2.3158599106206204,-10.686137732504216,199.168,8561.873061902648,11079.41924856223,150,False,17.842075735671983,False,151.64086615594601,178.37486071086047,False,29.685342413349495,True,False
11,1970-07-23 11:25:32.178809190,2025-09-16,2025-09-26 14:33:37.880,HH,C,2050486200,JASSM,3,104,76,2,2,1,225,9,2,0,1,26,0,0,0,0,-177965.17810233062,-4779088.725557174,4210550.558073521,-2.36684,-0.400465,0.381386,74.5,-31.375,-32.375,0.0,0.0,0.0,0.0,0.0,0.0,2,0,41.55239482721179,-92.13261249242886,9999.998901618284,119.82054867422032,-0.0055414913173605,0.00182279647209,,8561.873061902648,11079.41924856223,150,11,2025-09-16,2025-09-26 14:33:37.821,HH,C,2085589764,AMBUSH51,1,1,48,2,1,1,225,2,1,0,0,9,1,225,2,1,-150193.91016775602,-4791063.888098071,4197413.687410484,2.16377,3.13965,-0.0425749,-122.616,1.59547,4.51426,-0.234404,-7.64271,6.92931,0.063403,-0.0236845,-0.00652995,4,0,41.39814742445424,-91.79556357990133,8534.822641203014,-89.28231816655548,2.8758416863775915,-7.369236255511939,198.875,8561.873061902648,11079.41924856223,150,True,17.73935517621565,False,150.83899754999058,178.2867433942536,False,30.57346029276238,False,False
11,1970-07-23 11:25:32.189269320,2025-09-16,2025-09-26 14:33:38.926,HH,C,2051798040,JASSM,3,104,76,2,2,1,225,9,2,0,1,26,0,0,0,0,-177883.22595389312,-4779123.432588424,4210514.866667271,-2.36684,-0.400465,0.381386,74.5,-31.375,-32.375,0.0,0.0,0.0,0.0,0.0,0.0,2,0,41.55196561898532,-92.13161587422604,9999.996414632493,119.82120973306026,-0.0046809875552769,0.0018213116820289,,8561.873061902648,11079.41924856223,150,11,2025-09-16,2025-09-26 14:33:38.855,HH,C,2086822530,AMBUSH51,1,1,48,2,1,1,225,2,1,0,0,9,1,225,2,1,-150319.53660370412,-4791061.960959408,4197417.449047238,2.24343,3.13428,-0.0331277,-122.276,1.50251,3.56334,-0.148355,-6.89095,6.20938,0.0725223,0.0117855,-0.0104644,4,0,41.39816084734689,-91.79706517809343,8547.934863287435,-89.48694257527208,2.288845326811088,-2.8259442224097047,198.728,8561.873061902648,11079.41924856223,150,True,17.62992445606196,False,150.50167426119117,178.18648869272005,False,31.036477658821603,False,False
11,1970-07-23 11:25:32.200290048,2025-09-16,2025-09-26 14:33:40.029,HH,C,2053110830,JASSM,3,104,76,2,2,1,225,9,2,0,1,26,0,0,0,0,-177801.21423514312,-4779158.165010299,4210479.149870396,-2.36684,-0.400465,0.381386,74.5,-31.375,-32.375,0.0,0.0,0.0,0.0,0.0,0.0,2,0,41.55153609284887,-92.13061854471682,10000.00025793627,119.82187125809556,-0.0038198595599018,0.0018198281937176,,8561.873061902648,11079.41924856223,150,11,2025-09-16,2025-09-26 14:33:40.121,HH,C,2088333662,AMBUSH51,1,1,48,2,1,1,225,2,1,0,0,9,1,225,2,1,-150474.91678749476,-4791059.983071058,4197421.464178588,2.23864,3.1351,-0.0325893,-122.04,-0.688114,5.13036,-0.248075,-7.1798,6.60749,-0.0899514,-0.0029534,0.0153642,4,0,41.39817070537736,-91.79892226540876,8563.778805626374,-89.54227007778653,2.3049459275267417,-3.101024052169313,197.946,8561.873061902648,11079.41924856223,150,True,17.50706003986212,False,150.2686617681654,178.05843545540617,False,31.37234722337272,False,False
11,1970-07-23 11:25:32.210327327,2025-09-16,2025-09-26 14:33:41.032,HH,C,2054421654,JASSM,3,104,76,2,2,1,225,9,2,0,1,26,0,0,0,0,-177719.32751639312,-4779192.842744674,4210443.485807896,-2.36684,-0.400465,0.381386,74.5,-31.375,-32.375,0.0,0.0,0.0,0.0,0.0,0.0,2,0,41.551107211679856,-92.12962274926268,10000.000815639012,119.82253175999308,-0.0029600439952923,0.0018183457345601,,8561.873061902648,11079.41924856223,150,11,2025-09-16,2025-09-26 14:33:40.988,HH,C,2089367594,AMBUSH51,1,1,48,2,1,1,225,2,1,0,0,9,1,225,2,1,-150580.7661361163,-4791058.537780907,4197423.114464777,2.16493,3.13325,-0.0305121,-121.786,0.758082,2.56657,-0.0549259,-7.0608,6.31728,0.00726232,-0.00800301,-0.0114464,4,0,41.39817066129643,-91.80018740095956,8571.984578606283,-89.56247942772703,2.147796784153075,-7.328612250570042,197.946,8561.873061902648,11079.41924856223,150,True,17.407282792803525,False,149.92983148301914,177.9652970981393,False,31.85988287952841,False,False
11,1970-07-23 11:25:32.220446033,2025-09-16,2025-09-26 14:33:42.044,HH,C,2055556020,JASSM,3,104,76,2,2,1,225,9,2,0,1,26,0,0,0,0,-177648.46032889312,-4779222.850557174,4210412.622526646,-2.36684,-0.400465,0.381386,74.5,-31.375,-32.375,0.0,0.0,0.0,0.0,0.0,0.0,2,0,41.55073606786311,-92.1287609705396,10000.000111705178,119.8231033653131,-0.0022159498203588,0.0018170878816326,,8561.873061902648,11079.41924856223,150,11,2025-09-16,2025-09-26 14:33:42.055,HH,C,2090640126,AMBUSH51,1,1,48,2,1,1,225,2,1,0,0,9,1,225,2,1,-150709.7779341619,-4791057.576405568,4197424.791866162,2.16401,-3.13669,-0.00255015,-121.57,0.439089,1.33577,-0.142516,-6.89412,6.37196,-0.0232995,-0.00651746,-0.0125762,4,0,41.39816357357669,-91.801729077327,8583.237417598177,-91.2678636024827,1.6586656038562997,-7.425328463681355,197.567,8561.873061902648,11079.41924856223,150,True,17.30417481718784,False,149.41465334136458,177.8504434991606,False,32.51126560123087,False,False
11,1970-07-23 11:25:32.230495150,2025-09-16,2025-09-26 14:33:43.049,HH,C,2056749432,JASSM,3,104,76,2,2,1,225,9,2,0,1,26,0,0,0,0,-177573.90661795562,-4779254.420869674,4210380.149870396,-2.36684,-0.400465,0.381386,74.5,-31.375,-32.375,0.0,0.0,0.0,0.0,0.0,0.0,2,0,41.55034557519683,-92.12785437191596,9999.998432818962,119.82370469449651,-0.0014331299047655,0.0018157345447574,,8561.873061902648,11079.41924856223,150,11,2025-09-16,2025-09-26 14:33:43.055,HH,C,2091833124,AMBUSH51,1,1,48,2,1,1,225,2,1,0,0,9,1,225,2,1,-150832.1182202087,-4791057.194488934,4197425.028617175,2.17686,-3.13636,-0.00363848,-121.394,-0.0315366,0.0489241,-0.0963812,-7.26816,6.65921,0.0472701,-0.00197344,-0.00434324,4,0,41.3981445411404,-91.80319082879689,8592.2819128851,-91.23462892185836,1.7152709751801527,-6.688027938256777,197.225,8561.873061902648,11079.41924856223,150,True,17.202255166131824,False,148.82602435719426,177.73623650503788,False,33.23208923115394,False,False
11,1970-07-23 11:25:32.241247917,2025-09-16,2025-09-26 14:33:44.124,HH,C,2058000808,JASSM,3,104,76,2,2,1,225,9,2,0,1,26,0,0,0,0,-177495.73181326812,-4779287.524385299,4210346.101042271,-2.36684,-0.400465,0.381482,74.5,-31.375,-32.375,0.0,0.0,0.0,0.0,0.0,0.0,2,0,41.54993611650053,-92.12690375135108,10000.00269119685,119.8281778021304,-0.0045377942788355,0.0018141496643634,,8561.873061902648,11079.41924856223,150,11,2025-09-16,2025-09-26 14:33:44.155,HH,C,2093145424,AMBUSH51,1,1,48,2,1,1,225,2,1,0,0,9,1,225,2,1,-150964.79821805356,-4791057.530328166,4197424.395686859,2.21168,-3.13033,0.0104042,-121.238,-0.760432,-0.581187,-0.182251,-7.17154,6.41821,0.00846074,-0.00497158,-0.0110407,4,0,41.39811341068421,-91.80477583691686,8602.014208914612,-92.0678828893212,1.443177488558908,-4.716777445899614,197.152,8561.873061902648,11079.41924856223,150,True,17.09384402046433,False,148.3724212616881,177.60826637673966,False,33.82214032655146,False,False
11,1970-07-23 11:25:32.254006739,2025-09-16,2025-09-26 14:33:45.400,HH,C,2059134920,JASSM,3,104,76,2,2,1,225,9,2,0,1,26,0,0,0,0,-177424.88220389312,-4779317.524385299,4210315.241667271,-2.36684,-0.400465,0.381482,74.5,-31.375,-32.375,0.0,0.0,0.0,0.0,0.0,0.0,2,0,41.54956502124966,-92.12604221764686,10000.004066654616,119.8287492317874,-0.0037938730797723,0.0018129218700132,,8561.873061902648,11079.41924856223,150,11,2025-09-16,2025-09-26 14:33:45.288,HH,C,2094497488,AMBUSH51,1,1,48,2,1,1,225,2,1,0,0,9,1,225,2,1,-151102.78324464173,-4791058.341379499,4197422.75892111,2.22417,-3.12625,0.0106415,-121.014,-1.22366,-1.33648,-0.0886662,-7.30967,6.62111,0.0370211,0.00568106,-0.00215238,4,0,41.39807165885912,-91.8064240422617,8611.15814547902,-92.23377989286789,1.6104769351514243,-4.008168536030524,196.626,8561.873061902648,11079.41924856223,150,True,16.988079411822234,False,147.96227173347876,177.47159632366998,False,34.38084679613576,False,False
11,1970-07-23 11:25:32.260327539,2025-09-16,2025-09-26 14:33:46.032,HH,C,2060328208,JASSM,3,104,76,2,2,1,225,9,2,0,1,26,0,0,0,0,-177350.33532889312,-4779349.086885299,4210282.770964146,-2.36684,-0.400465,0.381482,74.5,-31.375,-32.375,0.0,0.0,0.0,0.0,0.0,0.0,2,0,41.54917456531236,-92.12513573705414,9999.999817385236,119.82935046885112,-0.0030111372719942,0.0018116397090561,,8561.873061902648,11079.41924856223,150,11,2025-09-16,2025-09-26 14:33:46.121,HH,C,2095491654,AMBUSH51,1,1,48,2,1,1,225,2,1,0,0,9,1,225,2,1,-151203.52523913558,-4791059.195392782,4197421.309465251,2.24889,-3.12281,0.0136731,-120.856,-1.3424,-1.75183,-0.0817362,-7.2614,6.47233,0.0112903,0.00385014,-0.0142843,4,0,41.39803788542287,-91.80762728557424,8617.93232953151,-92.4953881051593,1.6441793650879744,-2.6016540675379285,196.48,8561.873061902648,11079.41924856223,150,True,16.89670105358929,False,147.7804271184598,177.36741180549637,False,34.67580396915667,False,False
11,1970-07-23 11:25:32.270475447,2025-09-16,2025-09-26 14:33:47.047,HH,C,2061580788,JASSM,3,104,76,2,2,1,225,9,2,0,1,26,0,0,0,0,-177272.08532889312,-4779382.219697799,4210248.685026646,-2.36684,-0.400369,0.381482,74.5,-31.375,-32.375,0.0,0.0,0.0,0.0,0.0,0.0,2,0,41.54876467600807,-92.1241842375791,10000.000660806629,119.8263383109566,-0.0057559250704358,-0.0002345688880819,,8561.873061902648,11079.41924856223,150,11,2025-09-16,2025-09-26 14:33:46.924,HH,C,2096446054,AMBUSH51,1,1,48,2,1,1,225,2,1,0,0,9,1,225,2,1,-151300.05854385736,-4791060.000479884,4197419.90768351,2.25301,-3.11887,0.0180151,-120.689,-1.49112,-1.87313,-0.203347,-7.20051,6.63616,-0.00293052,-0.0026434,0.000791666,4,0,41.39800550300668,-91.80878026419232,8624.367865389424,-92.83229365476912,1.6496253524397404,-2.3786049452859355,196.027,8561.873061902648,11079.41924856223,150,True,16.80491468183836,False,147.6885683129724,177.26536829543136,False,34.874743141145686,False,False
11,1970-07-23 11:25:32.280253358,2025-09-16,2025-09-26 14:33:48.025,HH,C,2062715348,JASSM,3,104,76,2,2,1,225,9,2,0,1,26,0,0,0,0,-177201.20739920562,-4779412.227510299,4210217.811979771,-2.36674,-0.400369,0.381482,74.5,-31.375,-32.375,0.0,0.0,0.0,0.0,0.0,0.0,2,0,41.54839342788843,-92.12332239247348,10000.000025854222,119.82690993399812,-0.0050117155620396,0.0052556406342597,,8561.873061902648,11079.41924856223,150,11,2025-09-16,2025-09-26 14:33:47.922,HH,C,2097639052,AMBUSH51,1,1,48,2,1,1,225,2,1,0,0,9,1,225,2,1,-151420.7491435349,-4791061.26183414,4197417.762522269,2.26518,-3.1216,0.0172942,-120.556,-1.55132,-2.13132,0.0192896,-7.12659,6.49834,0.0260688,-0.000756296,0.00274326,4,0,41.39796083448172,-91.81022167493148,8632.195626223787,-92.6986638796752,1.5608334450184538,-1.675196270179901,195.991,8561.873061902648,11079.41924856223,150,True,16.707318051480314,False,147.57908362781149,177.13774838941728,False,35.12017270303445,False,False
11,1970-07-23 11:25:32.291267362,2025-09-16,2025-09-26 14:33:49.126,HH,C,2063966624,JASSM,3,104,76,2,2,1,225,9,2,0,1,26,0,0,0,0,-177123.03845389312,-4779445.323213424,4210183.759245396,-2.36674,-0.400369,0.381482,74.5,-31.375,-32.375,0.0,0.0,0.0,0.0,0.0,0.0,2,0,41.54798395058637,-92.12237190271708,9999.997644054716,119.82754034618075,-0.0041909348092637,0.0052542202210983,,8561.873061902648,11079.41924856223,150,11,2025-09-16,2025-09-26 14:33:49.155,HH,C,2099110416,AMBUSH51,1,1,48,2,1,1,225,2,1,0,0,9,1,225,2,1,-151570.0462313687,-4791063.207344465,4197414.723142579,2.28101,-3.1185,0.0248479,-120.499,-1.93154,-2.06493,-0.127052,-6.98631,6.40564,0.00552918,-0.0267741,-0.000974759,4,0,41.397900657687714,-91.81200458384396,8641.999649499772,-93.14196030552829,1.408714460583253,-0.783232674759452,195.795,8561.873061902648,11079.41924856223,150,True,16.592854264867988,False,147.47581683841312,176.97729373065803,False,35.386657722806106,False,False
11,1970-07-23 11:25:32.301228604,2025-09-16,2025-09-26 14:33:50.122,HH,C,2065159088,JASSM,3,104,76,2,2,1,225,9,2,0,1,26,0,0,0,0,-177048.54333670562,-4779476.862275924,4210151.308073521,-2.36674,-0.400369,0.381482,74.5,-31.375,-32.375,0.0,0.0,0.0,0.0,0.0,0.0,2,0,41.547593725520166,-92.12146609630388,9999.99891949308,119.82814111739232,-0.0034087371870573,0.0052528791149435,,8561.873061902648,11079.41924856223,150,11,2025-09-16,2025-09-26 14:33:50.155,HH,C,2100303416,AMBUSH51,1,1,48,2,1,1,225,2,1,0,0,9,1,225,2,1,-151689.19426775366,-4791064.774869577,4197411.883314585,2.27397,-3.12651,0.0247701,-120.359,-1.51419,-2.66324,-0.199516,-6.77259,6.20209,0.00222312,-0.00344859,0.00154692,4,0,41.39784972804703,-91.81342744297028,8648.97001172422,-92.8355648353323,1.0688102526667511,-1.1685131929115236,195.416,8561.873061902648,11079.41924856223,150,True,16.49409579442957,False,147.40621814838946,176.84503786079463,False,35.60388134869154,False,False
11,1970-07-23 11:25:32.310471124,2025-09-16,2025-09-26 14:33:51.047,HH,C,2066292482,JASSM,3,104,76,2,2,1,225,9,2,0,1,26,0,0,0,0,-176977.73962576812,-4779506.836885299,4210120.464323521,-2.36674,-0.400369,0.381482,74.5,-31.375,-32.375,0.0,0.0,0.0,0.0,0.0,0.0,2,0,41.54722283593103,-92.12060518551937,9999.998451668467,119.82871210752393,-0.0026653024558757,0.0052516089874026,,8561.873061902648,11079.41924856223,150,11,2025-09-16,2025-09-26 14:33:51.022,HH,C,2101337348,AMBUSH51,1,1,48,2,1,1,225,2,1,0,0,9,1,225,2,1,-151793.57349729404,-4791065.875037855,4197408.915633248,2.27893,-3.12666,0.028795,-120.324,-1.06746,-3.29079,-0.133761,-6.89558,6.24018,0.0160445,-0.00277239,-0.00488004,4,0,41.397803481481496,-91.81467403458946,8653.369602541392,-93.00344826287392,0.9105012915177236,-0.8871663113074917,195.49,8561.873061902648,11079.41924856223,150,True,16.404225766165148,False,147.33395454956448,176.7262851010435,False,35.80927194461549,False,False
11,1970-07-23 11:25:32.320507494,2025-09-16,2025-09-26 14:33:52.050,HH,C,2067425876,JASSM,3,104,76,2,2,1,225,9,2,0,1,26,0,0,0,0,-176906.93396170562,-4779536.813447799,4210089.618620396,-2.36674,-0.400369,0.381482,74.5,-31.375,-32.375,0.0,0.0,0.0,0.0,0.0,0.0,2,0,41.54685191549936,-92.11974426032825,10000.001875650967,119.82928310302349,-0.0019218398104385,0.0052503267140975,,8561.873061902648,11079.41924856223,150,11,2025-09-16,2025-09-26 14:33:52.055,HH,C,2102570114,AMBUSH51,1,1,48,2,1,1,225,2,1,0,0,9,1,225,2,1,-151917.9644083966,-4791066.819422001,4197405.260531333,2.2878,-3.12579,0.0295993,-120.17,-0.903945,-3.48005,-0.0142786,-6.93379,6.23453,0.00600564,0.00255185,0.00876867,4,0,41.39774973259221,-91.81615975982048,8657.460956810033,-93.07202536451314,0.9185177578979712,-0.3814058338758991,195.306,8561.873061902648,11079.41924856223,150,True,16.305697552739154,False,147.31897115522253,176.58447723636894,False,35.97378659512873,False,False
11,1970-07-23 11:25:32.330807621,2025-09-16,2025-09-26 14:33:53.080,HH,C,2068618922,JASSM,3,104,76,2,2,1,225,9,2,0,1,26,0,0,0,0,-176832.40173514312,-4779568.364229049,4210057.149870396,-2.36674,-0.400369,0.381482,74.5,-31.375,-32.375,0.0,0.0,0.0,0.0,0.0,0.0,2,0,41.54646148955571,-92.11883803608038,10000.001613395656,119.82988413790672,-0.0011392606467235,0.0052489965944566,,8561.873061902648,11079.41924856223,150,11,2025-09-16,2025-09-26 14:33:53.054,HH,C,2103763112,AMBUSH51,1,1,48,2,1,1,225,2,1,0,0,9,1,225,2,1,-152039.13264272327,-4791067.63296161,4197401.465467468,2.2994,-3.12727,0.0266592,-120.221,-1.00488,-3.3683,-0.122086,-7.49478,6.85573,0.0201391,0.00267252,0.00723943,4,0,41.39769640632322,-91.8176070308129,8660.683183105268,-92.89072614732012,0.967761685511782,0.2886296800642479,195.221,8561.873061902648,11079.41924856223,150,True,16.206364095844634,False,147.32594994535367,176.44330824208964,False,36.109768366392764,False,False
11,1970-07-23 11:25:32.339309699,2025-09-16,2025-09-26 14:33:53.930,HH,C,2069752316,JASSM,3,104,76,2,2,1,225,9,2,0,1,26,0,0,0,0,-176761.59704764312,-4779598.336885299,4210026.302214146,-2.36674,-0.400369,0.381578,74.5,-31.375,-32.375,0.0,0.0,0.0,0.0,0.0,0.0,2,0,41.54609056577405,-92.11797714450992,9999.998530467285,119.8342978280553,-0.0043211756132636,0.0052475597006381,,8561.873061902648,11079.41924856223,150,11,2025-09-16,2025-09-26 14:33:53.787,HH,C,2104637978,AMBUSH51,1,1,48,2,1,1,225,2,1,0,0,9,1,225,2,1,-152127.35008820365,-4791068.340851979,4197398.737891073,2.3078,-3.12624,0.0276496,-120.237,-0.999031,-3.3047,-0.296176,-7.49179,6.79647,0.01221,0.00450137,0.00303039,4,0,41.39765712202632,-91.81866068174266,8663.395128337594,-92.97303582567898,0.9752138207121764,0.767019818657588,195.221,8561.873061902648,11079.41924856223,150,True,16.123740366681456,False,147.35022653498288,176.33691087502507,False,36.19395616091471,False,False
11,1970-07-23 11:25:32.348466844,2025-09-16,2025-09-26 14:33:54.846,HH,C,2070826058,JASSM,3,104,76,2,2,1,225,9,2,0,1,26,0,0,0,0,-176694.51892264312,-4779626.731416549,4209997.079557896,-2.36674,-0.400369,0.381578,74.5,-31.375,-32.375,0.0,0.0,0.0,0.0,0.0,0.0,2,0,41.545739171701584,-92.1171615723722,10000.000481028976,119.8348387319069,-0.0036168621269933,0.0052464069972734,,8561.873061902648,11079.41924856223,150,11,2025-09-16,2025-09-26 14:33:54.821,HH,C,2105870744,AMBUSH51,1,1,48,2,1,1,225,2,1,0,0,9,1,225,2,1,-152250.89357404775,-4791069.256303603,4197395.2441778295,2.31468,-3.12802,0.0251032,-120.26,-1.11107,-2.92606,-0.098086,-7.33541,6.68262,0.0110178,0.00195472,0.00737675,4,0,41.397604743631305,-91.82013628582138,8667.720547400344,-92.79704303275352,0.9963953204353044,1.1666245394247827,195.221,8561.873061902648,11079.41924856223,150,True,16.028178804074745,False,147.44582913823436,176.19102750669524,False,36.243194600235654,False,False
11,1970-07-23 11:25:32.357246055,2025-09-16,2025-09-26 14:33:55.724,HH,C,2071901462,JASSM,3,104,76,2,2,1,225,9,2,0,1,26,0,0,0,0,-176627.33630545562,-4779655.170869674,4209967.808073521,-2.36674,-0.400369,0.381578,74.5,-31.375,-32.375,0.0,0.0,0.0,0.0,0.0,0.0,2,0,41.54538719803784,-92.11634473830928,10000.00010634885,119.83538046892735,-0.0029114381171639,0.0052452297017936,,8561.873061902648,11079.41924856223,150,11,2025-09-16,2025-09-26 14:33:55.787,HH,C,2107023976,AMBUSH51,1,1,48,2,1,1,225,2,1,0,0,9,1,225,2,1,-152367.70745396678,-4791070.017273384,4197392.3070108,2.32216,-3.13134,0.0207179,-120.143,-0.865856,-2.70698,-0.0711913,-7.37526,6.50254,0.00391464,-0.0072207,0.0092472,4,0,41.39755829595291,-91.82153154845692,8672.354802254167,-92.48393762023892,1.021492821935091,1.6051781837895314,195.184,8561.873061902648,11079.41924856223,150,True,15.935459523682164,False,147.60060375285778,176.05126023683997,False,36.231917217376214,False,False
11,1970-07-23 11:25:32.367267267,2025-09-16,2025-09-26 14:33:56.726,HH,C,2073033194,JASSM,3,104,76,2,2,1,225,9,2,0,1,26,0,0,0,0,-176556.63513358062,-4779685.096650924,4209937.005339146,-2.36674,-0.400273,0.381578,74.5,-31.375,-32.375,0.0,0.0,0.0,0.0,0.0,0.0,2,0,41.54501681487095,-92.11548513515488,9999.99934227932,119.83230758580048,-0.005735500384513,0.0031986893886527,,8561.873061902648,11079.41924856223,150,11,2025-09-16,2025-09-26 14:33:56.554,HH,C,2107938608,AMBUSH51,1,1,48,2,1,1,225,2,1,0,0,9,1,225,2,1,-152459.68971794515,-4791070.52546398,4197390.131864346,2.30655,-3.13157,0.0187926,-120.07,-0.835117,-2.45967,-0.132622,-7.40954,6.53617,-0.0451541,0.00094563,-0.00263923,4,0,41.39752318075978,-91.82263024703616,8676.083629344985,-92.39323659099524,1.085450223107989,0.7129384997654046,195.001,8561.873061902648,11079.41924856223,150,True,15.85130016817753,False,147.6958750793879,175.93733947845925,False,36.25087485740703,False,False
11,1970-07-23 11:25:32.376324269,2025-09-16,2025-09-26 14:33:57.632,HH,C,2074166566,JASSM,3,104,76,2,2,1,225,9,2,0,1,26,0,0,0,0,-176485.83142264312,-4779715.067354049,4209906.155729771,-2.36674,-0.400273,0.381578,74.5,-31.375,-32.375,0.0,0.0,0.0,0.0,0.0,0.0,2,0,41.54464586417488,-92.11462429446466,10000.001041319743,119.83287850051865,-0.0049920583962045,0.0031974069902939,,8561.873061902648,11079.41924856223,150,11,2025-09-16,2025-09-26 14:33:57.655,HH,C,2109250906,AMBUSH51,1,1,48,2,1,1,225,2,1,0,0,9,1,225,2,1,-152591.02496700364,-4791071.067314181,4197387.118449362,2.29977,-3.13517,0.0185072,-120.045,-0.501044,-2.54513,-0.155772,-7.01935,6.32433,0.0100316,-0.00944694,5.72164e-05,4,0,41.39747474048151,-91.8241990715651,8681.163592430601,-92.24537024335304,0.9427035512747008,0.3309237195712725,194.964,8561.873061902648,11079.41924856223,150,True,15.750102750431088,False,147.77489105784622,175.77759474853394,False,36.33917319358257,False,False
11,1970-07-23 11:25:32.386005710,2025-09-16,2025-09-26 14:33:58.600,HH,C,2075241610,JASSM,3,104,76,2,2,1,225,9,2,0,1,26,0,0,0,0,-176418.67126639312,-4779743.493135299,4209876.894011021,-2.36674,-0.400273,0.381578,74.5,-31.375,-32.375,0.0,0.0,0.0,0.0,0.0,0.0,2,0,41.54429401479897,-92.11380776284088,10000.000263787591,119.83342002532636,-0.004286883650951,0.003196205910736,,8561.873061902648,11079.41924856223,150,11,2025-09-16,2025-09-26 14:33:58.687,HH,C,2110483672,AMBUSH51,1,1,48,2,1,1,225,2,1,0,0,9,1,225,2,1,-152715.64267332296,-4791071.277482522,4197384.231044549,2.29742,-3.13543,0.0177774,-119.956,-0.253993,-2.60014,-0.220444,-7.21267,6.61999,-0.0151977,0.000423401,0.013373,4,0,41.39743037642021,-91.82568776666194,8685.183197141358,-92.20513983767108,0.960321625211754,0.1971881515379447,194.769,8561.873061902648,11079.41924856223,150,True,15.654156286086742,False,147.83525458487364,175.62406020448188,False,36.43824401311827,False,False
11,1970-07-23 11:25:32.395274609,2025-09-16,2025-09-26 14:33:59.527,HH,C,2076375442,JASSM,3,104,76,2,2,1,225,9,2,0,1,26,0,0,0,0,-176347.83825858062,-4779773.473604049,4209846.030729771,-2.36674,-0.400273,0.381578,74.5,-31.375,-32.375,0.0,0.0,0.0,0.0,0.0,0.0,2,0,41.54392290761271,-92.11294658630366,10000.000398172431,119.83399115461536,-0.0035431394873828,0.003194930829835,,8561.873061902648,11079.41924856223,150,11,2025-09-16,2025-09-26 14:33:59.454,HH,C,2111398304,AMBUSH51,1,1,48,2,1,1,225,2,1,0,0,9,1,225,2,1,-152806.6667538406,-4791071.226340763,4197382.190206189,2.30498,-3.13806,0.0152204,-119.903,-0.0859202,-2.5483,-0.124301,-7.27863,6.50982,0.018949,0.00170713,-0.00382517,4,0,41.39739963743002,-91.8267752254147,8687.768807411296,-91.9963172831906,0.9451531585511784,0.636028617411393,194.732,8561.873061902648,11079.41924856223,150,True,15.570429092959207,False,147.90755599488313,175.50696811126278,False,36.48611360411982,False,False
11,1970-07-23 11:25:32.404313878,2025-09-16,2025-09-26 14:34:00.431,HH,C,2077507118,JASSM,3,104,76,2,2,1,225,9,2,0,1,26,0,0,0,0,-176277.14099295562,-4779803.395479049,4209815.226042271,-2.36674,-0.400273,0.381578,74.5,-31.375,-32.375,0.0,0.0,0.0,0.0,0.0,0.0,2,0,41.54355250823438,-92.11208707042168,10000.000053674734,119.83456117838426,-0.0028008224253268,0.0031936606523257,,8561.873061902648,11079.41924856223,150,11,2025-09-16,2025-09-26 14:34:00.221,HH,C,2112312936,AMBUSH51,1,1,48,2,1,1,225,2,1,0,0,9,1,225,2,1,-152898.5786427137,-4791071.116311729,4197380.171541324,2.31451,-3.13775,0.0146637,-119.877,-0.0578593,-2.33015,-0.151814,-7.32905,6.52841,0.0106911,0.000431723,-0.00444935,4,0,41.39736921963184,-91.82787331170468,8690.331620532472,-91.98471110165804,0.9802141305562988,1.1821042045555494,194.769,8561.873061902648,11079.41924856223,150,True,15.48645010976483,False,147.99289614217602,175.38760644570806,False,36.52013071233162,False,False
11,1970-07-23 11:25:32.413466343,2025-09-16,2025-09-26 14:34:01.346,HH,C,2078582010,JASSM,3,104,76,2,2,1,225,9,2,0,1,26,0,0,0,0,-176209.99060233062,-4779831.815400924,4209785.966276646,-2.36674,-0.400273,0.381578,74.5,-31.375,-32.375,0.0,0.0,0.0,0.0,0.0,0.0,2,0,41.54320068673183,-92.11127068579508,9999.999890537449,119.83510259399776,-0.0020957479870534,0.0031924548664872,,8561.873061902648,11079.41924856223,150,11,2025-09-16,2025-09-26 14:34:01.354,HH,C,2113665002,AMBUSH51,1,1,48,2,1,1,225,2,1,0,0,9,1,225,2,1,-153034.99588884183,-4791070.8646615725,4197377.186742378,2.31343,-3.13954,0.00921102,-119.794,0.0903359,-2.14614,-0.0230849,-7.26353,6.70066,-0.00118698,0.00325509,0.00924928,4,0,41.39732465577031,-91.82950314206651,8693.950682821122,-91.68378508159236,1.1114244879848076,1.1269344827055567,194.964,8561.873061902648,11079.41924856223,150,True,15.385602052446707,False,148.105008040435,175.2152224793854,False,36.58280823075934,False,False
11,1970-07-23 11:25:32.422264490,2025-09-16,2025-09-26 14:34:02.226,HH,C,2079655752,JASSM,3,104,76,2,2,1,225,9,2,0,1,26,0,0,0,0,-176142.91150076812,-4779860.204072799,4209756.737761021,-2.36674,-0.400273,0.381578,74.5,-31.375,-32.375,0.0,0.0,0.0,0.0,0.0,0.0,2,0,41.54284924061767,-92.11045517718134,10000.000654726144,119.83564342489002,-0.0013914261711419,0.0031912568300406,,8561.873061902648,11079.41924856223,150,11,2025-09-16,2025-09-26 14:34:02.087,HH,C,2114539868,AMBUSH51,1,1,48,2,1,1,225,2,1,0,0,9,1,225,2,1,-153122.8231572782,-4791070.565149279,4197375.518263734,2.31573,-3.14027,0.00637295,-119.749,0.249092,-1.98793,-0.149504,-7.54645,6.83972,-0.00400202,0.0003485,-0.00367745,4,0,41.39729847996855,-91.83055249992285,8696.496797059113,-91.53476848337382,1.1883458323339608,1.2622972531850607,194.622,8561.873061902648,11079.41924856223,150,True,15.305713764118808,False,148.21187231126407,175.09869629260425,False,36.59415237195021,False,False
11,1970-07-23 11:25:32.433288975,2025-09-16,2025-09-26 14:34:03.328,HH,C,2080968862,JASSM,3,104,76,2,2,1,225,9,2,0,1,26,0,0,0,0,-176060.87927420562,-4779894.920869674,4209720.991667271,-2.36674,-0.400273,0.381674,74.5,-31.375,-32.375,0.0,0.0,0.0,0.0,0.0,0.0,2,0,41.54241943068504,-92.1094578892893,10000.000964613962,119.84014767000814,-0.0044553183910899,0.0031896137704511,,8561.873061902648,11079.41924856223,150,11,2025-09-16,2025-09-26 14:34:03.254,HH,C,2115931700,AMBUSH51,1,1,48,2,1,1,225,2,1,0,0,9,1,225,2,1,-153261.9982814617,-4791069.995403514,4197373.451712272,2.30827,-3.14069,0.00352848,-119.795,0.212408,-1.46256,-0.0986944,-7.54213,6.71556,-0.000281921,-0.00172585,0.0132336,4,0,41.39726144514784,-91.83221539469326,8701.558292582755,-91.39781376560155,1.2794931759913193,0.837728077653212,194.61,8561.873061902648,11079.41924856223,150,True,15.194305492471038,False,148.38374811177687,174.9173249000628,False,36.6005488146996,False,False
11,1970-07-23 11:25:32.444806875,2025-09-16,2025-09-26 14:34:04.480,HH,C,2082279304,JASSM,3,104,76,2,2,1,225,9,2,0,1,26,0,0,0,0,-175979.01306326812,-4779929.565400924,4209685.317839146,-2.36674,-0.400273,0.381674,74.5,-31.375,-32.375,0.0,0.0,0.0,0.0,0.0,0.0,2,0,41.54199049338948,-92.10846263374602,10000.00090302384,119.84080769527898,-0.0035957338424284,0.0031882081021519,,8561.873061902648,11079.41924856223,150,11,2025-09-16,2025-09-26 14:34:04.354,HH,C,2117243998,AMBUSH51,1,1,48,2,1,1,225,2,1,0,0,9,1,225,2,1,-153394.4498922756,-4791069.752829297,4197371.772387162,2.3129,-3.14062,0.00178793,-119.743,0.0222643,-0.965083,-0.325096,-7.33824,6.88647,-0.00678794,0.00554374,0.000627299,4,0,41.3972263350059,-91.83379783834503,8707.745097332183,-91.32663772888884,1.349580549705492,1.1049391806744888,194.317,8561.873061902648,11079.41924856223,150,True,15.086046704275015,False,148.49407691455207,174.74142490910538,False,36.66121745662374,False,False
11,1970-07-23 11:25:32.455323669,2025-09-16,2025-09-26 14:34:05.532,HH,C,2083592832,JASSM,3,104,76,2,2,1,225,9,2,0,1,26,0,0,0,0,-175896.95446951812,-4779964.291963424,4209649.558073521,-2.36674,-0.400273,0.381674,74.5,-31.375,-32.375,0.0,0.0,0.0,0.0,0.0,0.0,2,0,41.54156052156496,-92.10746505231434,10000.002508223124,119.84146925739628,-0.002734120168638,0.0031867836981839,,8561.873061902648,11079.41924856223,150,11,2025-09-16,2025-09-26 14:34:05.354,HH,C,2118436996,AMBUSH51,1,1,48,2,1,1,225,2,1,0,0,9,1,225,2,1,-153513.2029855607,-4791069.4147732,4197370.775927015,2.30452,3.14054,-0.00172029,-119.611,0.104567,-0.686571,-0.129191,-7.19306,6.62412,0.000964356,-0.0171826,0.00878115,4,0,41.39719899253797,-91.83521666514012,8714.10781646423,-91.10008005417372,1.3966627772044984,0.6301005343568831,194.194,8561.873061902648,11079.41924856223,150,True,14.98353941447561,False,148.6174954819159,174.58032893629198,False,36.69889852044385,False,False
11,1970-07-23 11:25:32.465466188,2025-09-16,2025-09-26 14:34:06.546,HH,C,2084845698,JASSM,3,104,76,2,2,1,225,9,2,0,1,26,0,0,0,0,-175818.68542654935,-4779997.411104049,4209615.448698521,-2.36674,-0.400177,0.381674,74.5,-31.375,-32.375,0.0,0.0,0.0,0.0,0.0,0.0,2,0,41.54115041338318,-92.10651355417558,9999.997094733266,119.83845754050772,-0.0054787142698494,0.0011396050510058,,8561.873061902648,11079.41924856223,150,11,2025-09-16,2025-09-26 14:34:06.454,HH,C,2119749296,AMBUSH51,1,1,48,2,1,1,225,2,1,0,0,9,1,225,2,1,-153645.57821723627,-4791068.797796903,4197369.795226714,2.31085,3.13865,0.00144925,-119.583,0.440565,-0.611162,-0.349386,-7.21991,6.7697,4.26522e-05,0.00282857,-0.00701056,4,0,41.39717079964736,-91.83679833479567,8720.900401648627,-91.16555549986468,1.196332666397953,0.991329461953486,194.231,8561.873061902648,11079.41924856223,150,True,14.877603265219618,False,148.75461568297294,174.40145040268774,False,36.745872854777076,False,False
11,1970-07-23 11:25:32.476827015,2025-09-16,2025-09-26 14:34:07.682,HH,C,2086156706,JASSM,3,104,76,2,2,1,225,9,2,0,1,26,0,0,0,0,-175736.78405936187,-4780032.069307174,4209579.757292271,-2.36674,-0.400177,0.381674,74.5,-31.375,-32.375,0.0,0.0,0.0,0.0,0.0,0.0,2,0,41.54072125827571,-92.10551791069992,10000.003115468073,119.83911780656808,-0.0046187568397247,0.0011381368381871,,8561.873061902648,11079.41924856223,150,11,2025-09-16,2025-09-26 14:34:07.853,HH,C,2121419494,AMBUSH51,1,1,48,2,1,1,225,2,1,0,0,9,1,225,2,1,-153812.62409867207,-4791067.609319501,4197368.497550738,2.30712,3.13611,-0.00313439,-119.4,0.71908,-0.516475,-0.205978,-7.13759,6.4286,-0.00258098,0.00909324,0.0133439,4,0,41.39713722417567,-91.83879441636915,8728.346148733266,-90.87380859580746,1.2626416100752575,0.783936038493721,194.158,8561.873061902648,11079.41924856223,150,True,14.754618063274565,False,148.87942110570833,174.17622764987152,False,36.851006893908696,False,False
11,1970-07-23 11:25:32.488247733,2025-09-16,2025-09-26 14:34:08.824,HH,C,2087469458,JASSM,3,104,76,2,2,1,225,9,2,0,1,26,0,0,0,0,-175654.77380545562,-4780066.770479049,4209544.015104771,-2.36674,-0.400177,0.381674,74.5,-31.375,-32.375,0.0,0.0,0.0,0.0,0.0,0.0,2,0,41.54029152005331,-92.1045209580898,9999.998998160503,119.83977893517286,-0.0037576549966742,0.0011366627521887,,8561.873061902648,11079.41924856223,150,11,2025-09-16,2025-09-26 14:34:08.854,HH,C,2122612492,AMBUSH51,1,1,48,2,1,1,225,2,1,0,0,9,1,225,2,1,-153931.91524254472,-4791066.66247114,4197367.650624294,2.30724,3.13505,-0.00132132,-119.324,0.910823,-0.468635,-0.179776,-7.14586,6.44505,-0.00476144,-0.00592449,-0.00665894,4,0,41.39711434833183,-91.84021989773244,8733.60377332054,-90.91241802779408,1.1493502907540931,0.7899260078292392,193.962,8561.873061902648,11079.41924856223,150,True,14.652174549665904,False,148.9593708615472,174.00720467846583,False,36.9433887049567,False,False
