Subject_cm,Timestamp,SampleDate_cm,SampleTime_cm,Configuration_cm,Scenario_cm,DisTime_cm,MarkingTxt_cm,Application_cm,EntId_cm,Site_cm,ExerciseId_cm,ForceId_cm,Category_cm,Country_cm,Domain_cm,Kind_cm,Extra_cm,Specific_cm,Subcategory_cm,AltCategory_cm,AltCountry_cm,AltDomain_cm,AltKind_cm,ECEF_X_cm,ECEF_Y_cm,ECEF_Z_cm,OriPhi_cm,OriPsi_cm,OriTheta_cm,LinVelX_cm,LinVelY_cm,LinVelZ_cm,LinAccX_cm,LinAccY_cm,LinAccZ_cm,AngVelX_cm,AngVelY_cm,AngVelZ_cm,DrAlg_cm,Appearance_cm,Latitude_cm,Longitude_cm,Altitude_cm,Heading_cm,Pitch_cm,Roll_cm,CalibratedAirspeed_cm,CM_Altitude_Lead_cm,CM_Altitude_Wing_cm,CM_Airspeed_cm,Subject_ac,SampleDate_ac,SampleTime_ac,Configuration_ac,Scenario_ac,DisTime_ac,MarkingTxt_ac,Application_ac,EntId_ac,Site_ac,ExerciseId_ac,ForceId_ac,Category_ac,Country_ac,Domain_ac,Kind_ac,Extra_ac,Specific_ac,Subcategory_ac,AltCategory_ac,AltCountry_ac,AltDomain_ac,AltKind_ac,ECEF_X_ac,ECEF_Y_ac,ECEF_Z_ac,OriPhi_ac,OriPsi_ac,OriTheta_ac,LinVelX_ac,LinVelY_ac,LinVelZ_ac,LinAccX_ac,LinAccY_ac,LinAccZ_ac,AngVelX_ac,AngVelY_ac,AngVelZ_ac,DrAlg_ac,Appearance_ac,Latitude_ac,Longitude_ac,Altitude_ac,Heading_ac,Pitch_ac,Roll_ac,CalibratedAirspeed_ac,CM_Altitude_Lead_ac,CM_Altitude_Wing_ac,CM_Airspeed_ac,Bank_Angle_Condition,distance_nm,Distance_Condition,angle_between_vel,angle_between_pos,Cone_Condition,angle_between_pos_nose,Nose_Cone_Condition,Intercept_Criteria
11,1970-07-23 11:25:48.320802163,2025-09-16,2025-09-26 15:00:32.080,AH,C,3976301986,JASSM,3,125,76,2,2,1,225,9,2,0,1,26,0,0,0,0,-172972.29821951812,-4769821.196260299,4221182.194792271,-2.51458,-0.703426,0.607361,54.375,-46.0,-49.375,0.0,0.0,0.0,0.0,0.0,0.0,2,0,41.68037353297492,-92.0768580848883,9999.99578095729,139.8285327820894,-0.0007540543994095,0.0009609015536713,,8582.48906893005,10960.61793957396,150,11,2025-09-16,2025-09-26 15:00:32.021,AH,C,3327539238,HAWK11,1,1,73,2,1,1,225,2,1,0,0,12,1,225,2,1,-145757.20349295562,-4790658.427705611,4199146.634245396,2.30088,2.78072,-0.410819,-100.75,30.25,31.375,-0.0625,-6.96875,6.73438,0.0214844,0.00585938,0.00195312,4,0,41.41307285929825,-91.742703477912,10960.812171348893,-60.21826088870127,2.3541968668075035,-2.9360036594953143,177.88,8582.48906893005,10960.61793957396,150,True,21.941811754812967,False,152.24752810048773,176.93943788104428,False,24.705444800620686,True,False
11,1970-07-23 11:25:48.330316661,2025-09-16,2025-09-26 15:00:33.031,AH,C,3977494814,JASSM,3,125,76,2,2,1,225,9,2,0,1,26,0,0,0,0,-172917.96130545562,-4769867.290010299,4221132.671354771,-2.51458,-0.703426,0.607456,54.375,-46.0,-49.375,0.0,0.0,0.0,0.0,0.0,0.0,2,0,41.679776799590144,-92.07618619308056,10000.000035466888,139.83220150636353,-0.0044213237206489,0.0009592877973003,,8582.48906893005,10960.61793957396,150,11,2025-09-16,2025-09-26 15:00:32.725,AH,C,3328374338,HAWK11,1,1,73,2,1,1,225,2,1,0,0,12,1,225,2,1,-145827.86560233062,-4790636.998018111,4199168.606901646,2.3049,2.78341,-0.411682,-100.875,30.125,31.375,0.046875,-7.23438,7.03125,0.00585938,0.00390625,0.00390625,4,0,41.41333586823089,-91.74355560196146,10961.0832671339,-60.282987869643854,2.489823041334422,-2.6464329654251326,178.173,8582.48906893005,10960.61793957396,150,True,21.857598889826242,False,152.18144305339385,176.97780543713588,False,24.810690886891486,True,False
11,1970-07-23 11:25:48.339380521,2025-09-16,2025-09-26 15:00:33.938,AH,C,3978626670,JASSM,3,125,76,2,2,1,225,9,2,0,1,26,0,0,0,0,-172866.40124686187,-4769911.028291549,4221085.675261021,-2.51458,-0.703426,0.607456,54.375,-46.0,-49.375,0.0,0.0,0.0,0.0,0.0,0.0,2,0,41.67921053380099,-92.0755486493261,10000.000276807164,139.8326254495254,-0.0036814660758291,0.0009578996505568,,8582.48906893005,10960.61793957396,150,11,2025-09-16,2025-09-26 15:00:34.021,AH,C,3329726402,HAWK11,1,1,73,2,1,1,225,2,1,0,0,12,1,225,2,1,-145943.06872733062,-4790602.526338424,4199204.323698521,2.29896,2.78782,-0.417722,-101.0,29.75,31.375,-0.140625,-7.20312,6.95312,0.0,-0.00585938,-0.00195312,4,0,41.41376115980688,-91.74494469729096,10962.447542125949,-60.20017331968743,2.8986834896044176,-2.8811161429621035,178.393,8582.48906893005,10960.61793957396,150,True,21.752255636965245,False,152.0344988384794,177.04577619186605,False,25.027736624510023,True,False
11,1970-07-23 11:25:48.348256761,2025-09-16,2025-09-26 15:00:34.825,AH,C,3979702030,JASSM,3,125,76,2,2,1,225,9,2,0,1,26,0,0,0,0,-172817.41540701812,-4769952.582979049,4221041.022917271,-2.51458,-0.703426,0.607456,54.375,-46.0,-49.375,0.0,0.0,0.0,0.0,0.0,0.0,2,0,41.67867251824177,-92.07494294627446,9999.998323364112,139.83302821541486,-0.0029785330356696,0.0009565690965373,,8582.48906893005,10960.61793957396,150,11,2025-09-16,2025-09-26 15:00:34.631,AH,C,3330680802,HAWK11,1,1,73,2,1,1,225,2,1,0,0,12,1,225,2,1,-146024.03943045562,-4790578.786104049,4199229.392057896,2.3003,2.79386,-0.416859,-101.125,29.25,31.375,-0.1875,-7.17188,6.95312,0.015625,-0.00976562,-0.00390625,4,0,41.41405692355608,-91.74592085810109,10964.535503880788,-60.45830503040983,3.090297914780728,-2.6772958211966245,178.259,8582.48906893005,10960.61793957396,150,True,21.667436332398182,False,151.84605391013307,177.09270069496978,False,25.26588234587004,True,False
11,1970-07-23 11:25:48.358797305,2025-09-16,2025-09-26 15:00:35.879,AH,C,3980835098,JASSM,3,125,76,2,2,1,225,9,2,0,1,26,0,0,0,0,-172765.80017264312,-4769996.368135299,4220993.976042271,-2.51458,-0.703426,0.607456,54.375,-46.0,-49.375,0.0,0.0,0.0,0.0,0.0,0.0,2,0,41.6781056357564,-92.07430474206409,10000.004479210977,139.83345258853123,-0.0022378806607956,0.0009551770509331,,8582.48906893005,10960.61793957396,150,11,2025-09-16,2025-09-26 15:00:35.726,AH,C,3331953334,HAWK11,1,1,73,2,1,1,225,2,1,0,0,12,1,225,2,1,-146131.54138358062,-4790547.477510299,4199262.798307896,2.30519,2.79424,-0.416763,-101.25,28.875,31.5,0.09375,-7.0625,6.84375,0.0078125,0.00390625,0.0117188,4,0,41.41444916935824,-91.74721680912072,10968.100236096434,-60.477171759384326,3.1018216718065785,-2.389091080279338,178.051,8582.48906893005,10960.61793957396,150,True,21.56638740831061,False,151.74128818114178,177.15713865135112,False,25.43814196699824,True,False
11,1970-07-23 11:25:48.367342120,2025-09-16,2025-09-26 15:00:36.734,AH,C,3981968674,JASSM,3,125,76,2,2,1,225,9,2,0,1,26,0,0,0,0,-172714.16198904935,-4770040.168916549,4220946.905729771,-2.51448,-0.70333,0.607456,54.375,-46.0,-49.375,0.0,0.0,0.0,0.0,0.0,0.0,2,0,41.67753850366671,-92.07366626697278,9999.999229237288,139.83022580499772,-0.0041425442496375,0.0033110125876828,,8582.48906893005,10960.61793957396,150,11,2025-09-16,2025-09-26 15:00:36.927,AH,C,3333424698,HAWK11,1,1,73,2,1,1,225,2,1,0,0,12,1,225,2,1,-146257.15857108062,-4790511.516572799,4199301.835417271,2.56961,2.79156,-0.429706,-101.125,28.875,31.875,-0.453125,-7.17188,6.92188,0.589844,0.0,-0.0117188,4,0,41.41490379458252,-91.74873093355193,10973.811246772051,-59.84974878244387,3.522576279816992,12.734370157433316,179.395,8582.48906893005,10960.61793957396,150,False,21.455960904265655,False,151.89735334837317,177.23449226204605,False,25.362123712848618,True,False
11,1970-07-23 11:25:48.377216990,2025-09-16,2025-09-26 15:00:37.721,AH,C,3983160246,JASSM,3,125,76,2,2,1,225,9,2,0,1,26,0,0,0,0,-172659.88220389312,-4770086.211885299,4220897.429167271,-2.51448,-0.70333,0.607456,54.375,-46.0,-49.375,0.0,0.0,0.0,0.0,0.0,0.0,2,0,41.67694235771018,-92.07299514149338,10000.00485484748,139.83067205905516,-0.0033636639386343,0.0033095038991757,,8582.48906893005,10960.61793957396,150,11,2025-09-16,2025-09-26 15:00:38.021,AH,C,3334736998,HAWK11,1,1,73,2,1,1,225,2,1,0,0,12,1,225,2,1,-146367.24841483062,-4790476.968721236,4199338.405729771,3.11676,2.77353,-0.477547,-98.25,32.875,34.375,-0.5625,-7.89062,7.65625,0.101562,0.0800781,0.0859375,4,0,41.41533616632999,-91.75005902307456,10976.486443649112,-57.240838629989376,4.788598640060765,43.82046374656235,177.587,8582.48906893005,10960.61793957396,150,False,21.34993784728486,False,154.68927673608798,177.29838635762565,False,22.62613024755912,True,False
11,1970-07-23 11:25:48.386793812,2025-09-16,2025-09-26 15:00:38.679,AH,C,3984233988,JASSM,3,125,76,2,2,1,225,9,2,0,1,26,0,0,0,0,-172610.96960623687,-4770127.700166549,4220852.839323521,-2.51448,-0.70333,0.607456,54.375,-46.0,-49.375,0.0,0.0,0.0,0.0,0.0,0.0,2,0,41.67640512984027,-92.07239038838988,9999.996389118896,139.83107417538812,-0.0026617802454022,0.0033081274743598,,8582.48906893005,10960.61793957396,150,11,2025-09-16,2025-09-26 15:00:38.631,AH,C,3335413030,HAWK11,1,1,73,2,1,1,225,2,1,0,0,12,1,225,2,1,-146422.90857108062,-4790456.830049361,4199358.729948521,3.1322,2.69866,-0.501612,-95.75,36.125,37.0,-0.296875,-9.21875,8.98438,-0.0292969,0.0488281,0.150391,4,0,41.41558304206576,-91.75073147219514,10975.253397783905,-53.56226242094439,3.1266811635880525,42.940637677313546,177.88,8582.48906893005,10960.61793957396,150,False,21.276635251411463,False,157.21739494112524,177.32562441444784,False,20.12104793752662,True,False
11,1970-07-23 11:25:48.397596197,2025-09-16,2025-09-26 15:00:39.759,AH,C,3985427034,JASSM,3,125,76,2,2,1,225,9,2,0,1,26,0,0,0,0,-172556.62292654935,-4770173.797822799,4220803.300261021,-2.51448,-0.70333,0.607456,54.375,-46.0,-49.375,0.0,0.0,0.0,0.0,0.0,0.0,2,0,41.67580824365693,-92.0717184602911,10000.001021553584,139.83152095316453,-0.0018819418785789,0.0033066176921147,,8582.48906893005,10960.61793957396,150,11,2025-09-16,2025-09-26 15:00:39.631,AH,C,3336606028,HAWK11,1,1,73,2,1,1,225,2,1,0,0,12,1,225,2,1,-146517.76208670562,-4790417.571260299,4199399.394011021,-3.03143,2.61227,-0.515322,-91.25,41.625,42.375,-0.359375,-8.8125,8.5625,0.111328,0.0449219,0.015625,4,0,41.41607382350033,-91.75187924665198,10974.093464143938,-49.83694157503474,0.7956108803374311,47.50759715876804,179.652,8582.48906893005,10960.61793957396,150,False,21.173480950944878,False,161.8954019410493,177.36813734205205,False,15.48172754661765,True,False
11,1970-07-23 11:25:48.406355547,2025-09-16,2025-09-26 15:00:40.635,AH,C,3986620080,JASSM,3,125,76,2,2,1,225,9,2,0,1,26,0,0,0,0,-172502.27478201812,-4770219.895479049,4220753.757292271,-2.51448,-0.70333,0.607456,54.375,-46.0,-49.375,0.0,0.0,0.0,0.0,0.0,0.0,2,0,41.67521132754348,-92.07104652703728,10000.000878582732,139.83196772911973,-0.0011020751428859,0.0033051011839028,,8582.48906893005,10960.61793957396,150,11,2025-09-16,2025-09-26 15:00:40.632,AH,C,3337799028,HAWK11,1,1,73,2,1,1,225,2,1,0,0,12,1,225,2,1,-146607.67810233062,-4790371.643525924,4199444.837370396,-3.03565,2.61036,-0.536797,-86.375,48.0,47.125,-0.1875,-8.625,8.39062,-0.0742188,0.046875,0.078125,4,0,41.41663743024945,-91.75297047721904,10966.540660383156,-48.95582055801773,1.6602004211575956,47.22974146547638,178.173,8582.48906893005,10960.61793957396,150,False,21.068832216500347,False,166.65262325679825,177.39823258678902,False,10.745646283109604,True,False
11,1970-07-23 11:25:48.416235605,2025-09-16,2025-09-26 15:00:41.623,AH,C,3987755296,JASSM,3,125,76,2,2,1,225,9,2,0,1,26,0,0,0,0,-172450.56189139312,-4770263.754854049,4220706.616667271,-2.51448,-0.70333,0.607552,54.375,-46.0,-49.375,0.0,0.0,0.0,0.0,0.0,0.0,2,0,41.67464337021592,-92.07040718760746,9999.996983322882,139.8356170122306,-0.0048095798070759,0.0033035242204701,,8582.48906893005,10960.61793957396,150,11,2025-09-16,2025-09-26 15:00:41.562,AH,C,3338514826,HAWK11,1,1,73,2,1,1,225,2,1,0,0,12,1,225,2,1,-146658.42614920562,-4790341.640596236,4199473.702604771,-3.02587,2.52858,-0.564217,-82.75,51.125,49.625,-0.359375,-9.04688,8.71875,-0.0117188,0.0664062,0.121094,4,0,41.4170015220853,-91.75358786292966,10959.225969226243,-44.88677829817384,0.2983875574879104,45.4072936393821,179.738,8582.48906893005,10960.61793957396,150,False,20.98963179844098,False,169.38803877682582,177.40822508884557,False,8.025472990445826,True,False
11,1970-07-23 11:25:48.426279207,2025-09-16,2025-09-26 15:00:42.627,AH,C,3988948354,JASSM,3,125,76,2,2,1,225,9,2,0,1,26,0,0,0,0,-172396.21423514312,-4770309.852510299,4220657.073698521,-2.51448,-0.70333,0.607552,54.375,-46.0,-49.375,0.0,0.0,0.0,0.0,0.0,0.0,2,0,41.67404644621009,-92.06973528444124,10000.004447369396,139.83606375805118,-0.0040297155700415,0.0033020481412683,,8582.48906893005,10960.61793957396,150,11,2025-09-16,2025-09-26 15:00:42.725,AH,C,3340185024,HAWK11,1,1,73,2,1,1,225,2,1,0,0,12,1,225,2,1,-146771.97107108062,-4790262.408174361,4199550.481901646,-3.01207,2.44708,-0.598924,-75.25,58.5,57.0,-0.203125,-9.29688,9.0,-0.0625,0.0566406,0.03125,4,0,41.41797046275415,-91.75497367471294,10939.57381523267,-40.58259592023918,-0.4982838960769764,43.6245563449861,180.361,8582.48906893005,10960.61793957396,150,False,20.8581450392427,False,175.6649503595391,177.4209965049073,False,2.140188983438929,True,False
11,1970-07-23 11:25:48.437593589,2025-09-16,2025-09-26 15:00:43.759,AH,C,3990199700,JASSM,3,125,76,2,2,1,225,9,2,0,1,26,0,0,0,0,-172339.21081717435,-4770358.196260299,4220605.108854771,-2.51448,-0.70333,0.607552,54.375,-46.0,-49.375,0.0,0.0,0.0,0.0,0.0,0.0,2,0,41.67342038147847,-92.06903056410924,9999.998504956742,139.83653231823786,-0.0032117688114722,0.003300519545359,,8582.48906893005,10960.61793957396,150,11,2025-09-16,2025-09-26 15:00:43.725,AH,C,3341457556,HAWK11,1,1,73,2,1,1,225,2,1,0,0,12,1,225,2,1,-146848.53747733062,-4790196.628877486,4199614.061979771,-3.07237,2.37067,-0.640916,-68.75,62.75,62.125,-0.125,-9.48438,9.3125,-0.0722656,0.0429688,0.0839844,4,0,41.41877700408013,-91.7559127142192,10921.580901047571,-36.28473143957407,-0.5646692224793397,37.58461422023336,181.277,8582.48906893005,10960.61793957396,150,False,20.74509881330588,False,177.9497110803599,177.41095073575366,False,3.8189081226013517,True,False
11,1970-07-23 11:25:48.446334362,2025-09-16,2025-09-26 15:00:44.633,AH,C,3991394074,JASSM,3,125,76,2,2,1,225,9,2,0,1,26,0,0,0,0,-172284.80310233062,-4770404.340791549,4220555.507292271,-2.51448,-0.70333,0.607552,54.375,-46.0,-49.375,0.0,0.0,0.0,0.0,0.0,0.0,2,0,41.67282278811005,-92.0683579456699,9999.995583057347,139.83697952887275,-0.0024310422764465,0.0032990397969101,,8582.48906893005,10960.61793957396,150,11,2025-09-16,2025-09-26 15:00:44.631,AH,C,3342531256,HAWK11,1,1,73,2,1,1,225,2,1,0,0,12,1,225,2,1,-146908.89489920562,-4790137.188447799,4199672.981901646,-3.06394,2.298,-0.674472,-63.25,65.375,66.375,-0.046875,-9.71875,9.48438,-0.015625,0.0507812,0.0429688,4,0,41.41951732716456,-91.75665575849546,10907.845806161198,-32.472974063635,-0.7019217002213627,35.4795270006941,182.634,8582.48906893005,10960.61793957396,150,False,20.643148626631454,False,175.1411863145816,177.39038416398316,False,7.338701877626205,True,False
11,1970-07-23 11:25:48.457600165,2025-09-16,2025-09-26 15:00:45.760,AH,C,3992646852,JASSM,3,125,76,2,2,1,225,9,2,0,1,26,0,0,0,0,-172227.73425467435,-4770452.743135299,4220503.479948521,-2.51448,-0.70333,0.607552,54.375,-46.0,-49.375,0.0,0.0,0.0,0.0,0.0,0.0,2,0,41.6721959584357,-92.06765244183242,9999.99935573583,139.837448598703,-0.0016121269961576,0.0032974858224234,,8582.48906893005,10960.61793957396,150,11,2025-09-16,2025-09-26 15:00:45.835,AH,C,3344002620,HAWK11,1,1,73,2,1,1,225,2,1,0,0,12,1,225,2,1,-146981.93005545562,-4790053.169893111,4199758.229948521,-3.08196,2.23386,-0.723176,-55.5,68.25,71.5,-0.078125,-9.3125,9.125,-0.0625,0.0546875,0.0566406,4,0,41.42057926538888,-91.7575593332298,10891.779696863863,-28.64508022535164,0.3192084025370376,32.06874438860117,182.426,8582.48906893005,10960.61793957396,150,False,20.51984448340772,False,170.43575476166885,177.34782564616384,False,12.183754415826185,True,False
11,1970-07-23 11:25:48.467253414,2025-09-16,2025-09-26 15:00:46.725,AH,C,3993898516,JASSM,3,125,76,2,2,1,225,9,2,0,1,26,0,0,0,0,-172170.71667654935,-4770501.098604049,4220451.499479771,-2.51448,-0.703234,0.607552,54.375,-46.0,-49.375,0.0,0.0,0.0,0.0,0.0,0.0,2,0,41.671569708683016,-92.06694758694448,9999.999381188316,139.83426401767565,-0.0034412738266534,0.0001592725900657,,8582.48906893005,10960.61793957396,150,11,2025-09-16,2025-09-26 15:00:46.726,AH,C,3345036552,HAWK11,1,1,73,2,1,1,225,2,1,0,0,12,1,225,2,1,-147027.69568045562,-4789992.156221236,4199821.720182896,-3.07026,2.15543,-0.754143,-50.5,69.375,74.875,-0.125,-9.60938,9.29688,-0.0078125,0.0429688,0.0546875,4,0,41.42136244942991,-91.75812861967536,10883.00761251902,-24.88024491686706,0.3819863921643241,29.73537701860606,183.037,8582.48906893005,10960.61793957396,150,False,20.41904863748417,False,167.46202865407304,177.30525483762028,False,15.221520419554363,True,False
11,1970-07-23 11:25:48.477292527,2025-09-16,2025-09-26 15:00:47.729,AH,C,3995091562,JASSM,3,125,76,2,2,1,225,9,2,0,1,26,0,0,0,0,-172116.36902029935,-4770547.188447799,4220401.952604771,-2.51448,-0.703234,0.607552,54.375,-46.0,-49.375,0.0,0.0,0.0,0.0,0.0,0.0,2,0,41.670972784591285,-92.06627575108747,9999.999148320998,139.83471069178847,-0.0026614265308109,0.0001577579311828,,8582.48906893005,10960.61793957396,150,11,2025-09-16,2025-09-26 15:00:47.631,AH,C,3346150018,HAWK11,1,1,73,2,1,1,225,2,1,0,0,12,1,225,2,1,-147071.71911795562,-4789925.508760299,4199892.954557896,-3.04534,2.10999,-0.777153,-44.875,70.625,77.875,-0.15625,-8.79688,8.46875,-0.0292969,0.0332031,0.0136719,4,0,41.42223173572412,-91.7586791675714,10877.065115172096,-22.62393416927665,0.7938338814541379,29.382082431846165,183.245,8582.48906893005,10960.61793957396,150,False,20.31733066983677,False,164.241033063938,177.25088257166567,False,18.503202061428937,True,False
11,1970-07-23 11:25:48.487313396,2025-09-16,2025-09-26 15:00:48.731,AH,C,3996285160,JASSM,3,125,76,2,2,1,225,9,2,0,1,26,0,0,0,0,-172061.99597342435,-4770593.297822799,4220352.382292271,-2.51448,-0.703234,0.607552,54.375,-46.0,-49.375,0.0,0.0,0.0,0.0,0.0,0.0,2,0,41.67037558765053,-92.06560361464383,9999.997260015529,139.83515756049536,-0.0018812228914709,0.000156248509674,,8582.48906893005,10960.61793957396,150,11,2025-09-16,2025-09-26 15:00:48.835,AH,C,3347382784,HAWK11,1,1,73,2,1,1,225,2,1,0,0,12,1,225,2,1,-147114.25036795562,-4789850.832979049,4199973.706511021,-3.03699,2.03885,-0.809846,-39.125,71.5,80.5,-0.171875,-9.17188,8.75,-0.0410156,0.0371094,0.0605469,4,0,41.42321329625506,-91.7592148446794,10871.933876528568,-19.266910429677782,1.433985047027049,27.018940553743388,183.123,8582.48906893005,10960.61793957396,150,False,20.211119067206887,False,161.073158541998,177.18160852404364,False,21.7433510700231,True,False
11,1970-07-23 11:25:48.497353323,2025-09-16,2025-09-26 15:00:49.735,AH,C,3997418554,JASSM,3,125,76,2,2,1,225,9,2,0,1,26,0,0,0,0,-172010.36609061187,-4770637.082979049,4220305.311979771,-2.51448,-0.703234,0.607552,54.375,-46.0,-49.375,0.0,0.0,0.0,0.0,0.0,0.0,2,0,41.66980849810912,-92.0649653986447,10000.002164345697,139.83558187239316,-0.0011403669209787,0.0001548041293642,,8582.48906893005,10960.61793957396,150,11,2025-09-16,2025-09-26 15:00:49.725,AH,C,3348575782,HAWK11,1,1,73,2,1,1,225,2,1,0,0,12,1,225,2,1,-147149.63513358062,-4789777.437471236,4200055.374479771,-2.97199,1.95583,-0.836595,-33.375,71.875,83.125,-0.109375,-9.48438,9.1875,0.00390625,0.03125,0.0253906,4,0,41.4241947231096,-91.75966466178656,10871.40640658701,-15.70738220217014,1.809799581472096,27.354333321159203,183.416,8582.48906893005,10960.61793957396,150,False,20.10991504870892,False,157.95528288077003,177.1037601129151,False,24.94077058018043,True,False
11,1970-07-23 11:25:48.508372989,2025-09-16,2025-09-26 15:00:50.837,AH,C,3998731008,JASSM,3,125,76,2,2,1,225,9,2,0,1,26,0,0,0,0,-171950.57898123687,-4770687.786104049,4220250.800261021,-2.51448,-0.703234,0.607648,54.375,-46.0,-49.375,0.0,0.0,0.0,0.0,0.0,0.0,2,0,41.66915177548752,-92.06422636208946,10000.002657265297,139.83929563266702,-0.0047290348523883,0.0001529702031582,,8582.48906893005,10960.61793957396,150,11,2025-09-16,2025-09-26 15:00:50.927,AH,C,3350086914,HAWK11,1,1,73,2,1,1,225,2,1,0,0,12,1,225,2,1,-147186.43005545562,-4789683.742158736,4200162.308073521,-2.92645,1.88354,-0.860947,-26.0,72.625,85.25,-0.171875,-8.04688,7.84375,-0.0195312,0.0175781,0.0527344,4,0,41.42546719271525,-91.76013880038924,10875.922920334166,-12.688835457337008,2.390020303324337,26.96511777340655,182.463,8582.48906893005,10960.61793957396,150,False,19.98822595897186,False,154.1113395052959,176.99215972027292,False,28.896445720097883,True,False
11,1970-07-23 11:25:48.519240278,2025-09-16,2025-09-26 15:00:51.924,AH,C,4000041854,JASSM,3,125,76,2,2,1,225,9,2,0,1,26,0,0,0,0,-171890.86486990875,-4770738.422822799,4220196.358854771,-2.51448,-0.703234,0.607648,54.375,-46.0,-49.375,0.0,0.0,0.0,0.0,0.0,0.0,2,0,41.66849590203283,-92.06348824481164,10000.005003043274,139.83978635086194,-0.003872191644298,0.0001513599585396,,8582.48906893005,10960.61793957396,150,11,2025-09-16,2025-09-26 15:00:51.835,AH,C,3351001546,HAWK11,1,1,73,2,1,1,225,2,1,0,0,12,1,225,2,1,-147204.04528983062,-4789627.676729049,4200226.690886021,-2.86883,1.8076,-0.867754,-21.875,73.0,86.0,-0.203125,-8.0,7.67188,0.0292969,0.0195312,0.046875,4,0,41.426232088495965,-91.76036991378608,10879.157472051578,-9.847917234080422,2.133379501319804,27.068602376566837,182.707,8582.48906893005,10960.61793957396,150,False,19.896361289907517,False,152.01408562023167,176.91606108675464,False,31.069759767115727,False,False
11,1970-07-23 11:25:48.530274123,2025-09-16,2025-09-26 15:00:53.027,AH,C,4001354204,JASSM,3,125,76,2,2,1,225,9,2,0,1,26,0,0,0,0,-171831.08239920562,-4770789.118135299,4220141.851042271,-2.51448,-0.703234,0.607648,54.375,-46.0,-49.375,0.0,0.0,0.0,0.0,0.0,0.0,2,0,41.66783924173538,-92.0627492972925,10000.004666019378,139.8402776146759,-0.0030143434758451,0.0001497278817655,,8582.48906893005,10960.61793957396,150,11,2025-09-16,2025-09-26 15:00:53.021,AH,C,3352552446,HAWK11,1,1,73,2,1,1,225,2,1,0,0,12,1,225,2,1,-147227.62146170562,-4789530.402314986,4200338.923307896,-2.78743,1.73512,-0.874657,-15.0,73.875,86.75,0.109375,-7.5,7.25,-0.00585938,0.0136719,0.0371094,4,0,41.42756402864405,-91.76068741283636,10885.395193084723,-7.144475688057115,2.064376823877605,28.653437034717115,181.644,8582.48906893005,10960.61793957396,150,False,19.777009684594532,False,148.55445574120117,176.78014645145888,False,34.66487102235828,False,False
11,1970-07-23 11:25:48.541294462,2025-09-16,2025-09-26 15:00:54.129,AH,C,4002666528,JASSM,3,125,76,2,2,1,225,9,2,0,1,26,0,0,0,0,-171771.300905065,-4770839.809541549,4220087.343229771,-2.51439,-0.703234,0.607648,54.375,-46.0,-49.375,0.0,0.0,0.0,0.0,0.0,0.0,2,0,41.66718259975693,-92.06201037819088,9999.999537459847,139.84076885324654,-0.0021565193532617,0.0056395751461416,,8582.48906893005,10960.61793957396,150,11,2025-09-16,2025-09-26 15:00:54.225,AH,C,3353944276,HAWK11,1,1,73,2,1,1,225,2,1,0,0,12,1,225,2,1,-147241.29919608062,-4789442.384736861,4200438.622526646,-2.77574,1.63206,-0.862289,-9.25,75.0,86.75,0.0,-7.25,7.01562,-0.236328,0.015625,0.046875,4,0,41.42875811500968,-91.76088322069228,10886.448202505357,-3.4275369147953603,0.952497521300835,24.91211261628856,181.937,8582.48906893005,10960.61793957396,150,False,19.66753121412404,False,145.69652605106052,176.64766583409872,False,37.65378553094632,False,False
11,1970-07-23 11:25:48.551333410,2025-09-16,2025-09-26 15:00:55.133,AH,C,4003920704,JASSM,3,125,76,2,2,1,225,9,2,0,1,26,0,0,0,0,-171714.16833670562,-4770888.254854049,4220035.253386021,-2.51439,-0.703234,0.607648,54.375,-46.0,-49.375,0.0,0.0,0.0,0.0,0.0,0.0,2,0,41.666555067156,-92.06130421470232,10000.00507233942,139.84123830972254,-0.0013367191802691,0.0056380339059159,,8582.48906893005,10960.61793957396,150,11,2025-09-16,2025-09-26 15:00:55.225,AH,C,3355177042,HAWK11,1,1,73,2,1,1,225,2,1,0,0,12,1,225,2,1,-147248.74255545562,-4789363.246064986,4200527.733854771,-3.00775,1.58125,-0.852797,-6.0,75.875,86.75,-0.109375,-6.5625,6.35938,-0.183594,0.00390625,0.00976562,4,0,41.42982905387314,-91.76100126072174,10885.88401239876,-1.55220995376297,0.3154898490146482,9.437529420587358,181.766,8582.48906893005,10960.61793957396,150,True,19.568193034636625,False,144.08208789889983,176.52158773902667,False,39.39284308334973,False,False
11,1970-07-23 11:25:48.562353014,2025-09-16,2025-09-26 15:00:56.235,AH,C,4005233428,JASSM,3,125,76,2,2,1,225,9,2,0,1,26,0,0,0,0,-171654.36877615875,-4770938.957979049,4219980.726042271,-2.51439,-0.703234,0.607648,54.375,-46.0,-49.375,0.0,0.0,0.0,0.0,0.0,0.0,2,0,41.6658982182597,-92.06056510322536,9999.993627007938,139.84172966376207,-0.0004786371105496,0.0056364082672412,,8582.48906893005,10960.61793957396,150,11,2025-09-16,2025-09-26 15:00:56.131,AH,C,3356131442,HAWK11,1,1,73,2,1,1,225,2,1,0,0,12,1,225,2,1,-147252.63903983062,-4789301.181611861,4200597.425261021,3.13479,1.58403,-0.848579,-4.875,76.25,86.875,0.0,-6.64062,6.28125,-0.167969,-0.0136719,-0.0136719,4,0,41.43066798240213,-91.7610706378639,10884.878581735296,-1.6649693285591365,0.0781091802296169,1.498456963816329,182.133,8582.48906893005,10960.61793957396,150,True,19.47825083122983,False,143.52135281221985,176.41728713237765,False,40.05744760317402,False,False
11,1970-07-23 11:25:48.573368864,2025-09-16,2025-09-26 15:00:57.336,AH,C,4006486160,JASSM,3,125,76,2,2,1,225,9,2,0,1,26,0,0,0,0,-171597.3018816275,-4770987.348604049,4219928.694792271,-2.51439,-0.703138,0.607648,54.375,-46.0,-49.375,0.0,0.0,0.0,0.0,0.0,0.0,2,0,41.66527138339126,-92.0598597790681,10000.007559862985,139.838547996123,-0.0023054565387277,0.0024996311195431,,8582.48906893005,10960.61793957396,150,11,2025-09-16,2025-09-26 15:00:57.333,AH,C,3357682340,HAWK11,1,1,73,2,1,1,225,2,1,0,0,12,1,225,2,1,-147257.69372733062,-4789200.678682174,4200708.345182896,3.09375,1.5987,-0.843498,-4.25,77.5,86.375,-0.34375,-6.67188,6.42188,-0.0117188,-0.00195312,-0.0078125,4,0,41.43201366932576,-91.7611679860549,10878.967260400332,-2.232995536937884,-0.1900422032991683,-0.2228133361695121,182.463,8582.48906893005,10960.61793957396,150,True,19.36786906295364,False,143.22372114083032,176.2533672744707,False,40.515763951335856,False,False
11,1970-07-23 11:25:48.584230384,2025-09-16,2025-09-26 15:00:58.423,AH,C,4007857514,JASSM,3,125,76,2,2,1,225,9,2,0,1,26,0,0,0,0,-171534.83142264312,-4771040.313447799,4219871.729948521,-2.51439,-0.703138,0.607648,54.375,-46.0,-49.375,0.0,0.0,0.0,0.0,0.0,0.0,2,0,41.66458519022499,-92.05908768805313,9999.993663863625,139.83906126159476,-0.0014090519792685,0.0024978771289506,,8582.48906893005,10960.61793957396,150,11,2025-09-16,2025-09-26 15:00:58.426,AH,C,3359034404,HAWK11,1,1,73,2,1,1,225,2,1,0,0,12,1,225,2,1,-147262.21325858062,-4789113.235322799,4200806.249479771,3.07937,1.59083,-0.863919,-4.125,74.625,89.25,0.109375,-7.51562,7.35938,-0.00976562,0.0175781,0.00195312,4,0,41.43319390206393,-91.76125414207108,10876.87687042958,-1.8893008103465203,0.968060446695947,-1.383947175763911,183.086,8582.48906893005,10960.61793957396,150,True,19.260517759698573,False,143.06323384858013,176.10581211812746,False,40.830918893671075,False,False
11,1970-07-23 11:25:48.596266247,2025-09-16,2025-09-26 15:00:59.626,AH,C,4009229340,JASSM,3,125,76,2,2,1,225,9,2,0,1,26,0,0,0,0,-171472.33923514312,-4771093.301729049,4219814.749479771,-2.51439,-0.703138,0.607744,54.375,-46.0,-49.375,0.0,0.0,0.0,0.0,0.0,0.0,2,0,41.66389875129059,-92.05831534272988,10000.006305917152,139.84279936237127,-0.0049615204374639,0.0024959685183497,,8582.48906893005,10960.61793957396,150,11,2025-09-16,2025-09-26 15:00:59.333,AH,C,3360147870,HAWK11,1,1,73,2,1,1,225,2,1,0,0,12,1,225,2,1,-147265.22497733062,-4789040.630830611,4200886.120573521,3.10775,1.60052,-0.865165,-3.75,77.25,87.0,-0.140625,-7.17188,6.79688,0.0332031,0.0,-0.00195312,4,0,41.43416441367406,-91.76131682480964,10872.01081090422,-2.2461723326037517,1.055388078100728,0.6578311539718694,182.964,8582.48906893005,10960.61793957396,150,True,19.163057612680777,False,142.96426864787878,175.98047997301714,False,41.05025186662897,False,False
11,1970-07-23 11:25:48.606293882,2025-09-16,2025-09-26 15:01:00.629,AH,C,4010482128,JASSM,3,125,76,2,2,1,225,9,2,0,1,26,0,0,0,0,-171415.269655065,-4771141.688447799,4219762.710417271,-2.51439,-0.703138,0.607744,54.375,-46.0,-49.375,0.0,0.0,0.0,0.0,0.0,0.0,2,0,41.66327187380735,-92.05761003169049,10000.007026476074,139.84326822202144,-0.0041426142371424,0.0024944126450822,,8582.48906893005,10960.61793957396,150,11,2025-09-16,2025-09-26 15:01:00.521,AH,C,3361539702,HAWK11,1,1,73,2,1,1,225,2,1,0,0,12,1,225,2,1,-147269.42419608062,-4788949.836885299,4200987.708464146,-3.13114,1.59198,-0.871972,-3.25,77.25,87.125,0.015625,-7.1875,6.9375,0.0371094,0.00585938,0.0175781,4,0,41.43538950242508,-91.7614003893469,10869.672745864762,-1.9142185099855245,1.432980269629902,2.8296755316322613,183.086,8582.48906893005,10960.61793957396,150,True,19.058725848954357,False,142.7158227141386,175.8249539541285,False,41.454578688470775,False,False
11,1970-07-23 11:25:48.618313978,2025-09-16,2025-09-26 15:01:01.831,AH,C,4011854388,JASSM,3,125,76,2,2,1,225,9,2,0,1,26,0,0,0,0,-171352.75769217435,-4771194.688447799,4219705.706511021,-2.51439,-0.703138,0.607744,54.375,-46.0,-49.375,0.0,0.0,0.0,0.0,0.0,0.0,2,0,41.66258520140253,-92.0568374755386,10000.005322320709,139.84378177661355,-0.0032456076208564,0.0024927027279647,,8582.48906893005,10960.61793957396,150,11,2025-09-16,2025-09-26 15:01:01.726,AH,C,3362971300,HAWK11,1,1,73,2,1,1,225,2,1,0,0,12,1,225,2,1,-147272.82068045562,-4788857.200166549,4201091.673307896,-3.06509,1.57521,-0.877725,-2.25,77.25,87.125,-0.0625,-7.20312,6.8125,0.0371094,0.00585938,0.0175781,4,0,41.436641744239374,-91.7614750392887,10867.91412313619,-1.2872927004087518,1.7435227336768102,5.894097213216923,183.404,8582.48906893005,10960.61793957396,150,True,18.948985629143433,False,142.2242821213666,175.66229888907552,False,42.10883991743219,False,False
11,1970-07-23 11:25:48.629352944,2025-09-16,2025-09-26 15:01:02.935,AH,C,4013225016,JASSM,3,125,76,2,2,1,225,9,2,0,1,26,0,0,0,0,-171290.31994803375,-4771247.622041549,4219648.769011021,-2.51439,-0.703138,0.607744,54.375,-45.875,-49.375,0.0,0.0,0.0,0.0,0.0,0.0,2,0,41.6618993512508,-92.0560658545063,9999.997436523774,139.84429470265593,-0.0023496759742348,0.0024910018551732,,8582.48906893005,10960.61793957396,150,11,2025-09-16,2025-09-26 15:01:02.833,AH,C,3364243832,HAWK11,1,1,73,2,1,1,225,2,1,0,0,12,1,225,2,1,-147274.53552420562,-4788775.006807174,4201183.784636021,-3.06518,1.54549,-0.877725,-1.0,77.25,87.125,-0.078125,-7.09375,6.8125,-0.0917969,-0.00195312,0.0195312,4,0,41.43775215494447,-91.76152575179994,10865.974970728725,-0.1990032762274654,1.728075363488973,4.611556936369265,183.037,8582.48906893005,10960.61793957396,150,True,18.84628806690603,False,141.57664152542617,175.54305701494164,False,42.8723032504127,False,False
11,1970-07-23 11:25:48.640350697,2025-09-16,2025-09-26 15:01:04.035,AH,C,4014538670,JASSM,3,125,76,2,2,1,225,9,2,0,1,26,0,0,0,0,-171230.4776628775,-4771298.356416549,4219594.198698521,-2.51439,-0.703138,0.607744,54.375,-45.875,-49.375,0.0,0.0,0.0,0.0,0.0,0.0,2,0,41.6612420015978,-92.0553263236626,9999.998331968458,139.84478629062036,-0.0014909833074359,0.0024893690439756,,8582.48906893005,10960.61793957396,150,11,2025-09-16,2025-09-26 15:01:03.834,AH,C,3365198232,HAWK11,1,1,73,2,1,1,225,2,1,0,0,12,1,225,2,1,-147275.15466483062,-4788712.862275924,4201253.435026646,-3.12692,1.52516,-0.878971,-0.5,77.375,87.25,-0.15625,-7.14062,7.09375,-0.0742188,0.00976562,0.0117188,4,0,41.43859188320605,-91.7615559980999,10864.478254277135,0.5445438269303671,1.802962244362897,0.2005375967241518,183.489,8582.48906893005,10960.61793957396,150,True,18.758149621106313,False,141.33050378406008,175.42603160487693,False,43.23555016185108,False,False
11,1970-07-23 11:25:48.649268670,2025-09-16,2025-09-26 15:01:04.926,AH,C,4015612412,JASSM,3,125,76,2,2,1,225,9,2,0,1,26,0,0,0,0,-171181.56433279935,-4771339.825166549,4219549.593229771,-2.51439,-0.703138,0.607744,54.375,-45.875,-49.375,0.0,0.0,0.0,0.0,0.0,0.0,2,0,41.66070469120917,-92.05472186401448,9999.99962962351,139.84518808805117,-0.0007891065588922,0.0024880289472716,,8582.48906893005,10960.61793957396,150,11,2025-09-16,2025-09-26 15:01:04.760,AH,C,3366112864,HAWK11,1,1,73,2,1,1,225,2,1,0,0,12,1,225,2,1,-147275.43786795562,-4788653.489229049,4201320.362761021,3.11398,1.53034,-0.880026,-0.5,77.25,87.625,0.078125,-7.0,7.04688,-0.0410156,-0.00390625,-0.0078125,4,0,41.43939680591194,-91.7615812106278,10863.862034769923,0.3547698175578174,1.862442656844303,-1.999458026057308,183.905,8582.48906893005,10960.61793957396,150,True,18.681094027212566,False,141.32493280751578,175.314285464815,False,43.35417084577648,False,False
11,1970-07-23 11:25:48.659289945,2025-09-16,2025-09-26 15:01:05.928,AH,C,4016745806,JASSM,3,125,76,2,2,1,225,9,2,0,1,26,0,0,0,0,-171129.93420584625,-4771383.594697799,4219502.511198521,-2.51439,-0.703138,0.607744,54.375,-45.875,-49.375,0.0,0.0,0.0,0.0,0.0,0.0,2,0,41.66013755498558,-92.05408384280368,10000.00032956989,139.84561218996816,-4.826233055881436e-05,0.0024866276685013,,8582.48906893005,10960.61793957396,150,11,2025-09-16,2025-09-26 15:01:06.131,AH,C,3368220496,HAWK11,1,1,73,2,1,1,225,2,1,0,0,12,1,225,2,1,-147276.85583670562,-4788515.536104049,4201475.950651646,3.02597,1.53925,-0.87993,-1.375,77.75,88.125,-0.03125,-6.92188,7.09375,-0.0351562,0.00585938,0.00390625,4,0,41.44126745196736,-91.76164887864596,10862.680536364222,0.0290737546288422,1.8575388422958388,-6.658949296321491,185.163,8582.48906893005,10960.61793957396,150,True,18.555133075544273,False,141.75050569405118,175.0664306150214,False,43.17673342095598,False,False
11,1970-07-23 11:25:48.670433367,2025-09-16,2025-09-26 15:01:07.043,AH,C,4018058056,JASSM,3,125,76,2,2,1,225,9,2,0,1,26,0,0,0,0,-171070.15490897125,-4771434.270479049,4219447.995573521,-2.51439,-0.703043,0.607744,54.375,-45.875,-49.375,0.0,0.0,0.0,0.0,0.0,0.0,2,0,41.659480896841785,-92.0533451328649,9999.99508295422,139.84245077992767,-0.0018378423239096,-0.000652637411435,,8582.48906893005,10960.61793957396,150,11,2025-09-16,2025-09-26 15:01:06.927,AH,C,3369174894,HAWK11,1,1,73,2,1,1,225,2,1,0,0,12,1,225,2,1,-147278.17028983062,-4788453.026338424,4201546.630339146,3.01408,1.54453,-0.880409,-2.125,78.0,88.5,-0.09375,-7.0,7.125,0.00390625,-0.00390625,-0.0214844,4,0,41.44211617086222,-91.76168757429716,10862.592438162175,-0.1634762749363346,1.8861174498516424,-7.113477431736523,185.603,8582.48906893005,10960.61793957396,150,True,18.466724843517284,False,142.11099560788008,174.94488667277224,False,42.93818752843711,False,False
11,1970-07-23 11:25:48.681332145,2025-09-16,2025-09-26 15:01:08.133,AH,C,4019370776,JASSM,3,125,76,2,2,1,225,9,2,0,1,26,0,0,0,0,-171010.35486014312,-4771484.965791549,4219393.460417271,-2.51439,-0.703043,0.60784,54.375,-45.875,-49.375,0.0,0.0,0.0,0.0,0.0,0.0,2,0,41.65882399024608,-92.05260618067054,9999.997954275586,139.84616487345895,-0.005425998697698,-0.0006545068535893,,8582.48906893005,10960.61793957396,150,11,2025-09-16,2025-09-26 15:01:08.041,AH,C,3370009994,HAWK11,1,1,73,2,1,1,225,2,1,0,0,12,1,225,2,1,-147279.51013358062,-4788398.239229049,4201608.599089146,2.99922,1.56351,-0.879355,-2.75,78.25,88.75,-0.15625,-7.03125,7.14062,0.00390625,-0.00195312,-0.0175781,4,0,41.44286014386808,-91.7617237349875,10862.578920491234,-0.8575480465611757,1.833704729537318,-7.149201274535786,186.129,8582.48906893005,10960.61793957396,150,True,18.382892233940645,False,142.41063484942143,174.8357688979857,False,42.74776353989921,False,False
11,1970-07-23 11:25:48.692350400,2025-09-16,2025-09-26 15:01:09.235,AH,C,4020681572,JASSM,3,125,76,2,2,1,225,9,2,0,1,26,0,0,0,0,-170950.64270194,-4771535.582979049,4219339.007292271,-2.51439,-0.703043,0.60784,54.375,-45.875,-49.375,0.0,0.0,0.0,0.0,0.0,0.0,2,0,41.65816807856569,-92.05186833108448,10000.0007424868,139.8466553143469,-0.0045691980196672,-0.0006561242838954,,8582.48906893005,10960.61793957396,150,11,2025-09-16,2025-09-26 15:01:09.224,AH,C,3371879024,HAWK11,1,1,73,2,1,1,225,2,1,0,0,12,1,225,2,1,-147284.68200858062,-4788275.288057174,4201746.753386021,3.06432,1.57032,-0.874657,-3.875,79.125,88.75,-0.046875,-6.45312,6.64062,0.0585938,0.0078125,-0.00390625,4,0,41.44452317998107,-91.76183077060688,10860.741082618282,-1.1125004537288083,1.571281114250887,-3.1270076684879107,186.972,8582.48906893005,10960.61793957396,150,True,18.258188365449776,False,142.95504224938023,174.61011423220305,False,42.4271000824486,False,False
11,1970-07-23 11:25:48.702232044,2025-09-16,2025-09-26 15:01:10.223,AH,C,4021936142,JASSM,3,125,76,2,2,1,225,9,2,0,1,26,0,0,0,0,-170893.49157889312,-4771584.032197799,4219286.886198521,-2.51439,-0.703043,0.60784,54.375,-45.875,-49.375,0.0,0.0,0.0,0.0,0.0,0.0,2,0,41.65754025320166,-92.05116214036995,10000.007593565377,139.8471247059832,-0.0037491131855434,-0.000657698085978,,8582.48906893005,10960.61793957396,150,11,2025-09-16,2025-09-26 15:01:10.333,AH,C,3373231090,HAWK11,1,1,73,2,1,1,225,2,1,0,0,12,1,225,2,1,-147289.18396170562,-4788184.579072799,4201847.616667271,-3.13527,1.56965,-0.874848,-3.875,79.75,88.875,0.046875,-6.71875,6.90625,0.0683594,0.00195312,0.00195312,4,0,41.44574281866301,-91.76191794607492,10857.142074644717,-1.0876510201785603,1.5829319759996303,1.6342397101324255,187.73,8582.48906893005,10960.61793957396,150,True,18.155209397850147,False,142.95157754626592,174.43997645471637,False,42.599406855480126,False,False
11,1970-07-23 11:25:48.713250794,2025-09-16,2025-09-26 15:01:11.325,AH,C,4023250960,JASSM,3,125,76,2,2,1,225,9,2,0,1,26,0,0,0,0,-170833.59607108062,-4771634.801729049,4219232.261198521,-2.51429,-0.703043,0.60784,54.375,-45.875,-49.375,0.0,0.0,0.0,0.0,0.0,0.0,2,0,41.6568823050382,-92.05042205591444,10000.001847249903,139.8476166199198,-0.0028896721480416,0.004832142407015,,8582.48906893005,10960.61793957396,150,11,2025-09-16,2025-09-26 15:01:11.334,AH,C,3374225256,HAWK11,1,1,73,2,1,1,225,2,1,0,0,12,1,225,2,1,-147292.29333670562,-4788118.342744674,4201920.976042271,-3.0926,1.55881,-0.874465,-3.375,79.875,89.25,-0.15625,-6.79688,6.875,0.0136719,-0.00585938,0.00585938,4,0,41.4466314722978,-91.76197947652037,10853.87313841425,-0.689958823477352,1.5546344655163302,3.613316491387889,188.927,8582.48906893005,10960.61793957396,150,True,18.06473352113236,False,142.70530924176163,174.30956725645413,False,42.97683608058624,False,False
11,1970-07-23 11:25:48.725271071,2025-09-16,2025-09-26 15:01:12.527,AH,C,4024619748,JASSM,3,125,76,2,2,1,225,9,2,0,1,26,0,0,0,0,-170771.24157889312,-4771687.657197799,4219175.390104771,-2.51429,-0.703043,0.60784,54.375,-45.875,-49.375,0.0,0.0,0.0,0.0,0.0,0.0,2,0,41.65619730683994,-92.04965160292004,9999.997219554329,139.84812871222408,-0.0019949213792482,0.0048304228378823,,8582.48906893005,10960.61793957396,150,11,2025-09-16,2025-09-26 15:01:12.521,AH,C,3375895454,HAWK11,1,1,73,2,1,1,225,2,1,0,0,12,1,225,2,1,-147296.46521170562,-4788004.473604049,4202046.622526646,-3.10171,1.522,-0.868904,-2.375,80.625,89.5,-0.171875,-6.625,6.78125,-0.0664062,-0.00390625,0.00390625,4,0,41.44815624467429,-91.76207122945152,10847.159782292129,0.6677159895494679,1.237220888046491,1.5099959277220891,189.709,8582.48906893005,10960.61793957396,150,True,17.94470646129781,False,142.22490957752376,174.0930538810775,False,43.67234044684373,False,False
11,1970-07-23 11:25:48.735314643,2025-09-16,2025-09-26 15:01:13.531,AH,C,4025872514,JASSM,3,125,76,2,2,1,225,9,2,0,1,26,0,0,0,0,-170714.17346365875,-4771736.032197799,4219123.343229771,-2.51429,-0.703043,0.60784,54.375,-45.875,-49.375,0.0,0.0,0.0,0.0,0.0,0.0,2,0,41.65557039257536,-92.04894648253212,10000.004826311975,139.84859737424705,-0.0011760381403718,0.0048288587065092,,8582.48906893005,10960.61793957396,150,11,2025-09-16,2025-09-26 15:01:13.427,AH,C,3376969152,HAWK11,1,1,73,2,1,1,225,2,1,0,0,12,1,225,2,1,-147298.69958670562,-4787931.016572799,4202127.124479771,3.14073,1.52497,-0.861138,-2.25,81.25,89.75,-0.109375,-6.67188,6.84375,-0.0253906,0.0117188,0.0,4,0,41.44913623215355,-91.762124959158,10841.60208629198,0.562742437442991,0.7919145803181651,-0.6967905184980607,190.455,8582.48906893005,10960.61793957396,150,True,17.853348975413205,False,142.16267333667338,173.94682269707351,False,43.87970574903896,False,False
11,1970-07-23 11:25:48.745988902,2025-09-16,2025-09-26 15:01:14.598,AH,C,4027064356,JASSM,3,125,76,2,2,1,225,9,2,0,1,26,0,0,0,0,-170659.879030065,-4771782.051729049,4219073.823698521,-2.51429,-0.703043,0.60784,54.375,-45.875,-49.375,0.0,0.0,0.0,0.0,0.0,0.0,2,0,41.65497395444022,-92.04827564764928,10000.000505054535,139.84904324285466,-0.0003969637575302,0.0048273761574879,,8582.48906893005,10960.61793957396,150,11,2025-09-16,2025-09-26 15:01:14.724,AH,C,3378480284,HAWK11,1,1,73,2,1,1,225,2,1,0,0,12,1,225,2,1,-147301.85193045562,-4787827.750947799,4202240.337370396,3.12491,1.52976,-0.878492,-2.375,81.375,90.75,-0.1875,-8.25,8.39062,0.0214844,0.0351562,0.015625,4,0,41.45051418713541,-91.76220062967616,10833.894862759573,0.3760626820659937,1.7858259934177056,-1.3973978317824145,191.909,8582.48906893005,10960.61793957396,150,True,17.74725572265292,False,142.20889691385045,173.74666884657523,False,44.03642214360628,False,False
11,1970-07-23 11:25:48.755371805,2025-09-16,2025-09-26 15:01:15.537,AH,C,4028199392,JASSM,3,125,76,2,2,1,225,9,2,0,1,26,0,0,0,0,-170608.1729753775,-4771825.875947799,4219026.663542271,-2.51429,-0.703043,0.60784,54.375,-45.875,-49.375,0.0,0.0,0.0,0.0,0.0,0.0,2,0,41.65440594590184,-92.0476368055988,9999.993512150926,139.84946784264287,0.0003449701275261,0.0048259634615722,,8582.48906893005,10960.61793957396,150,11,2025-09-16,2025-09-26 15:01:15.427,AH,C,3379196084,HAWK11,1,1,73,2,1,1,225,2,1,0,0,12,1,225,2,1,-147303.25427420562,-4787778.762666549,4202295.513151646,3.13843,1.52401,-0.888942,-2.5,80.625,91.875,-0.0625,-8.59375,8.75,0.0,0.015625,0.0078125,4,0,41.4511777997686,-91.76223541514813,10833.425419538986,0.579311637831933,2.3872760646542286,-0.8702326778195636,192.41,8582.48906893005,10960.61793957396,150,True,17.67446446249478,False,142.24633727390435,173.6411312578146,False,44.108939926487075,False,False
11,1970-07-23 11:25:48.765275735,2025-09-16,2025-09-26 15:01:16.527,AH,C,4029451494,JASSM,3,125,76,2,2,1,225,9,2,0,1,26,0,0,0,0,-170551.13415701812,-4771874.223604049,4218974.640104771,-2.51429,-0.702947,0.607936,54.375,-45.875,-49.375,0.0,0.0,0.0,0.0,0.0,0.0,2,0,41.65377933386301,-92.0469320873239,10000.000014747406,139.84951160679148,-0.0059311321105911,0.0016880409072763,,8582.48906893005,10960.61793957396,150,11,2025-09-16,2025-09-26 15:01:16.427,AH,C,3380468616,HAWK11,1,1,73,2,1,1,225,2,1,0,0,12,1,225,2,1,-147305.82458670562,-4787693.643525924,4202393.663542271,3.1415,1.51624,-0.889134,-2.5,79.875,92.75,0.0,-7.10938,7.17188,-0.015625,0.0,0.00585938,4,0,41.45234620926973,-91.76229745632818,10837.578940333962,0.8597092225010555,2.403616816748376,-1.0281544011352322,192.251,8582.48906893005,10960.61793957396,150,True,17.575451478517518,False,142.22230301782287,173.46421014180473,False,44.31233140761558,False,False
11,1970-07-23 11:25:48.775293774,2025-09-16,2025-09-26 15:01:17.529,AH,C,4030643688,JASSM,3,125,76,2,2,1,225,9,2,0,1,26,0,0,0,0,-170496.824342565,-4771920.254854049,4218925.104948521,-2.51429,-0.702947,0.607936,54.375,-45.875,-49.375,0.0,0.0,0.0,0.0,0.0,0.0,2,0,41.65318271195987,-92.0462611001468,10000.00060076871,139.84995756107233,-0.0051518348809519,0.0016865499280191,,8582.48906893005,10960.61793957396,150,11,2025-09-16,2025-09-26 15:01:17.520,AH,C,3381860448,HAWK11,1,1,73,2,1,1,225,2,1,0,0,12,1,225,2,1,-147308.78161795562,-4787600.104463424,4202502.894011021,3.13018,1.51538,-0.908596,-2.625,78.875,94.0,0.0,-8.15625,8.3125,0.0,0.00585938,0.0,4,0,41.45363941982764,-91.76236722089948,10845.141383650362,0.8701774468306346,3.520397957951732,-1.714430142436862,193.143,8582.48906893005,10960.61793957396,150,True,17.473554347806918,False,142.23647589819524,173.26906520068437,False,44.494454312470516,False,False
11,1970-07-23 11:25:48.785333932,2025-09-16,2025-09-26 15:01:18.533,AH,C,4031778678,JASSM,3,125,76,2,2,1,225,9,2,0,1,26,0,0,0,0,-170445.12048514312,-4771964.075166549,4218877.944792271,-2.51429,-0.702947,0.607936,54.375,-45.875,-49.375,0.0,0.0,0.0,0.0,0.0,0.0,2,0,41.65261471492743,-92.04562232151508,9999.995293005966,139.85038210390653,-0.004409931762829,0.0016851304168174,,8582.48906893005,10960.61793957396,150,11,2025-09-16,2025-09-26 15:01:18.631,AH,C,3382973914,HAWK11,1,1,73,2,1,1,225,2,1,0,0,12,1,225,2,1,-147311.46325858062,-4787527.088838424,4202591.153776646,3.12318,1.515,-0.922689,-2.875,76.375,96.375,-0.15625,-7.875,8.0,-0.00976562,0.0136719,-0.0078125,4,0,41.454669021832125,-91.76242614496353,10857.586634780013,0.8684520623142321,4.329031668143974,-2.13291013267885,192.569,8582.48906893005,10960.61793957396,150,True,17.385242072663587,False,142.21851784330772,173.1093178729413,False,44.665597896254184,False,False
11,1970-07-23 11:25:48.795595604,2025-09-16,2025-09-26 15:01:19.559,AH,C,4032969936,JASSM,3,125,76,2,2,1,225,9,2,0,1,26,0,0,0,0,-170390.85315115875,-4772010.071260299,4218828.448698521,-2.51429,-0.702947,0.607936,54.375,-45.875,-49.375,0.0,0.0,0.0,0.0,0.0,0.0,2,0,41.65201854899179,-92.04495188296092,10000.006195988695,139.85082768333953,-0.003631241506585,0.0016836388684631,,8582.48906893005,10960.61793957396,150,11,2025-09-16,2025-09-26 15:01:19.521,AH,C,3384047612,HAWK11,1,1,73,2,1,1,225,2,1,0,0,12,1,225,2,1,-147313.48083670562,-4787457.436494674,4202676.325651646,3.13651,1.50599,-0.919813,-2.75,77.375,95.5,-0.0625,-7.0625,7.21875,-0.00585938,-0.015625,-0.00976562,4,0,41.45565788889723,-91.76247589351108,10871.547382551844,1.1851794802675906,4.172199089935318,-1.7570361579661176,192.801,8582.48906893005,10960.61793957396,150,True,17.296845421355666,False,142.21856856175611,172.9519753531901,False,44.82692781069097,False,False
11,1970-07-23 11:25:48.804273163,2025-09-16,2025-09-26 15:01:20.427,AH,C,4034104948,JASSM,3,125,76,2,2,1,225,9,2,0,1,26,0,0,0,0,-170339.14807303375,-4772053.891572799,4218781.284636021,-2.51429,-0.702947,0.607936,54.375,-45.875,-49.375,0.0,0.0,0.0,0.0,0.0,0.0,2,0,41.65145051856241,-92.04431311269376,9999.999453509428,139.85125221087952,-0.0028893113073061,0.0016822109067109,,8582.48906893005,10960.61793957396,150,11,2025-09-16,2025-09-26 15:01:20.832,AH,C,3385717810,HAWK11,1,1,73,2,1,1,225,2,1,0,0,12,1,225,2,1,-147317.72888358062,-4787348.760713424,4202809.497526646,3.12069,1.50838,-0.915787,-3.125,77.625,95.25,-0.125,-6.4375,6.51562,0.0,-0.0136719,0.0,4,0,41.45720247337183,-91.76256667079934,10894.037063227424,1.1072139558347236,3.941039825724424,-2.5597396612020997,192.569,8582.48906893005,10960.61793957396,150,True,17.186785997832235,False,142.40690926400157,172.7165218165618,False,44.8747712809081,False,False
11,1970-07-23 11:25:48.814310303,2025-09-16,2025-09-26 15:01:21.431,AH,C,4035297970,JASSM,3,125,76,2,2,1,225,9,2,0,1,26,0,0,0,0,-170284.80041678375,-4772099.950166549,4218731.714323521,-2.51429,-0.702947,0.607936,54.375,-45.875,-49.375,0.0,0.0,0.0,0.0,0.0,0.0,2,0,41.65085348936369,-92.0436417083848,10000.002172647546,139.85169842192414,-0.0021094900537386,0.0016807330901211,,8582.48906893005,10960.61793957396,150,11,2025-09-16,2025-09-26 15:01:21.358,AH,C,3386195010,HAWK11,1,1,73,2,1,1,225,2,1,0,0,12,1,225,2,1,-147319.07068045562,-4787317.010713424,4202848.063932896,3.12712,1.50349,-0.911376,-3.25,77.875,95.125,-0.078125,-6.25,6.40625,0.0136719,-0.00195312,0.00390625,4,0,41.457651415288,-91.76259439671716,10899.8790041236,1.2851560776917614,3.6932675029356696,-2.40162195396119,192.178,8582.48906893005,10960.61793957396,150,True,17.12129608628654,False,142.47454924717084,172.63295513263088,False,44.89118678216233,False,False
11,1970-07-23 11:25:48.824348620,2025-09-16,2025-09-26 15:01:22.434,AH,C,4036490344,JASSM,3,125,76,2,2,1,225,9,2,0,1,26,0,0,0,0,-170230.48230154935,-4772145.985322799,4218682.167448521,-2.51429,-0.702947,0.607936,54.375,-45.875,-49.375,0.0,0.0,0.0,0.0,0.0,0.0,2,0,41.65025674757193,-92.042970680727,10000.005031355724,139.85214437740592,-0.0013300669415128,0.0016792350821599,,8582.48906893005,10960.61793957396,150,11,2025-09-16,2025-09-26 15:01:22.426,AH,C,3387626608,HAWK11,1,1,73,2,1,1,225,2,1,0,0,12,1,225,2,1,-147322.90075858062,-4787223.204072799,4202961.554167271,3.13565,1.50599,-0.909459,-3.375,78.25,94.75,0.0,-6.42188,6.60938,0.0,-0.00390625,-0.00585938,4,0,41.45897478127348,-91.7626747101742,10916.146624835616,1.2002677428622983,3.582442750663149,-1.8052263613669064,192.838,8582.48906893005,10960.61793957396,150,True,17.018703936265222,False,142.55226745711175,172.4240281091629,False,45.023143032617774,False,False
11,1970-07-23 11:25:48.834369178,2025-09-16,2025-09-26 15:01:23.436,AH,C,4037682470,JASSM,3,125,76,2,2,1,225,9,2,0,1,26,0,0,0,0,-170176.17541678375,-4772192.008760299,4218632.628386021,-2.51429,-0.702947,0.607936,54.375,-45.875,-49.375,0.0,0.0,0.0,0.0,0.0,0.0,2,0,41.64966012198438,-92.0422998051294,10000.001066307792,139.85259022658985,-0.0005508029070779,0.0016777347625238,,8582.48906893005,10960.61793957396,150,11,2025-09-16,2025-09-26 15:01:23.427,AH,C,3388899140,HAWK11,1,1,73,2,1,1,225,2,1,0,0,12,1,225,2,1,-147326.59411795562,-4787139.457979049,4203061.528776646,3.12664,1.50378,-0.900447,-3.5,79.0,94.25,-0.046875,-6.07812,6.28125,-0.0214844,-0.00195312,0.00390625,4,0,41.46014710249056,-91.76274968974624,10927.780124369769,1.292017664874822,3.06949680693978,-2.4155256210064806,192.948,8582.48906893005,10960.61793957396,150,True,16.922615375437047,False,142.6383591839089,172.23483048841206,False,45.12680501892989,False,False
11,1970-07-23 11:25:48.845272571,2025-09-16,2025-09-26 15:01:24.527,AH,C,4038935166,JASSM,3,125,76,2,2,1,225,9,2,0,1,26,0,0,0,0,-170119.10901053375,-4772240.368135299,4218580.573698521,-2.51429,-0.702947,0.607936,54.375,-45.875,-49.375,0.0,0.0,0.0,0.0,0.0,0.0,2,0,41.64903320240958,-92.0415948544938,9999.998067332896,139.85305871564904,0.0002680372016742,0.0016761748841747,,8582.48906893005,10960.61793957396,150,11,2025-09-16,2025-09-26 15:01:24.630,AH,C,3390012606,HAWK11,1,1,73,2,1,1,225,2,1,0,0,12,1,225,2,1,-147330.04919608062,-4787064.399385299,4203149.737761021,-3.14015,1.49573,-0.894119,-3.625,79.875,93.875,-0.1875,-6.45312,6.48438,0.0175781,0.0,-0.0136719,4,0,41.46118837816422,-91.76281862554384,10935.195655242502,1.5909876306758128,2.716849483098227,-1.8217068550132056,193.339,8582.48906893005,10960.61793957396,150,True,16.829831620673104,False,142.71838378824776,172.06167318031444,False,45.21956151555229,False,False
11,1970-07-23 11:25:48.854295868,2025-09-16,2025-09-26 15:01:25.429,AH,C,4040068778,JASSM,3,125,76,2,2,1,225,9,2,0,1,26,0,0,0,0,-170067.46765311187,-4772284.129854049,4218533.468229771,-2.51429,-0.702947,0.608032,54.375,-45.875,-49.375,0.0,0.0,0.0,0.0,0.0,0.0,2,0,41.64846588368003,-92.04095693230153,9999.99952220669,139.8567058135454,-0.003437037952013,0.0016746988823426,,8582.48906893005,10960.61793957396,150,11,2025-09-16,2025-09-26 15:01:25.520,AH,C,3391324904,HAWK11,1,1,73,2,1,1,225,2,1,0,0,12,1,225,2,1,-147334.11560233062,-4786976.262666549,4203252.058073521,-3.14044,1.50436,-0.881943,-3.75,80.875,93.375,-0.03125,-5.95312,6.09375,0.0195312,-0.0117188,0.00976562,4,0,41.4624025970413,-91.76289968682724,10941.17976204536,1.2998228638644658,2.011394301336356,-1.4665467238719827,193.498,8582.48906893005,10960.61793957396,150,True,16.734490068714067,False,142.79795076283992,171.86378604648561,False,45.33616676721132,False,False
11,1970-07-23 11:25:48.864329784,2025-09-16,2025-09-26 15:01:26.432,AH,C,4041202172,JASSM,3,125,76,2,2,1,225,9,2,0,1,26,0,0,0,0,-170015.8370378775,-4772327.883760299,4218486.370573521,-2.51429,-0.702851,0.608032,54.375,-45.875,-49.5,0.0,0.0,0.0,0.0,0.0,0.0,2,0,41.647898658296576,-92.0403191534451,10000.00330642282,139.85347823934646,-0.0053434141431217,-0.0014653946572132,,8582.48906893005,10960.61793957396,150,11,2025-09-16,2025-09-26 15:01:26.359,AH,C,3392160004,HAWK11,1,1,73,2,1,1,225,2,1,0,0,12,1,225,2,1,-147336.81286795562,-4786919.272432174,4203317.147917271,-3.11925,1.49755,-0.879355,-3.75,81.625,93.0,0.046875,-6.29688,6.28125,0.015625,-0.00195312,0.00390625,4,0,41.46318048505794,-91.76295291528731,10942.73123504726,1.552472794656032,1.87119407454303,-0.5446880885185268,193.999,8582.48906893005,10960.61793957396,150,True,16.65769866483688,False,142.85086680503633,171.68535475209737,False,45.457381395702384,False,False
11,1970-07-23 11:25:48.874369134,2025-09-16,2025-09-26 15:01:27.436,AH,C,4042456188,JASSM,3,125,76,2,2,1,225,9,2,0,1,26,0,0,0,0,-169958.70984061187,-4772376.293916549,4218434.257292271,-2.51419,-0.702851,0.608032,54.375,-45.875,-49.5,0.0,0.0,0.0,0.0,0.0,0.0,2,0,41.64727104179365,-92.03961349061426,10000.00367616828,139.85394718562725,-0.0045236888681344,0.0040381591058176,,8582.48906893005,10960.61793957396,150,11,2025-09-16,2025-09-26 15:01:27.316,AH,C,3393551836,HAWK11,1,1,73,2,1,1,225,2,1,0,0,12,1,225,2,1,-147341.36950858062,-4786823.207979049,4203426.046354771,-3.09826,1.49189,-0.875807,-3.625,81.875,93.0,-0.03125,-6.59375,6.57812,0.0136719,-0.00976562,0.00585938,4,0,41.46448619127923,-91.7630427618047,10943.576810214216,1.7664048356003257,1.6763979071151005,0.4157457107235517,193.644,8582.48906893005,10960.61793957396,150,True,16.55410287058987,False,142.79378253717135,171.46795131749124,False,45.73121098789087,False,False
11,1970-07-23 11:25:48.885344164,2025-09-16,2025-09-26 15:01:28.534,AH,C,4043768304,JASSM,3,125,76,2,2,1,225,9,2,0,1,26,0,0,0,0,-169898.93640311187,-4772426.946260299,4218379.729948521,-2.51419,-0.702851,0.608032,54.375,-45.875,-49.5,0.0,0.0,0.0,0.0,0.0,0.0,2,0,41.64661434924907,-92.03887515491708,10000.00783687646,139.8544378383632,-0.0036659931285259,0.0040365078595283,,8582.48906893005,10960.61793957396,150,11,2025-09-16,2025-09-26 15:01:28.426,AH,C,3394864134,HAWK11,1,1,73,2,1,1,225,2,1,0,0,12,1,225,2,1,-147345.15661795562,-4786733.038057174,4203527.403776646,-3.08781,1.4871,-0.870534,-3.375,82.625,92.75,-0.15625,-6.60938,6.46875,0.0,0.0,-0.00195312,4,0,41.46570607589513,-91.76312123977188,10942.477201767631,1.9541734418423216,1.3823894973514728,0.8091164319570433,194.647,8582.48906893005,10960.61793957396,150,True,16.452281304180918,False,142.68419152155087,171.25891948062483,False,46.046533388654055,False,False
11,1970-07-23 11:25:48.896348901,2025-09-16,2025-09-26 15:01:29.634,AH,C,4045080702,JASSM,3,125,76,2,2,1,225,9,2,0,1,26,0,0,0,0,-169839.1503923697,-4772477.606416549,4218325.186979771,-2.51419,-0.702851,0.608032,54.375,-45.875,-49.5,0.0,0.0,0.0,0.0,0.0,0.0,2,0,41.645957502793976,-92.03813668012484,10000.000665182137,139.8549285771834,-0.0028081090843786,0.0040348484807393,,8582.48906893005,10960.61793957396,150,11,2025-09-16,2025-09-26 15:01:29.724,AH,C,3396375266,HAWK11,1,1,73,2,1,1,225,2,1,0,0,12,1,225,2,1,-147349.20935233062,-4786627.803682174,4203645.036589146,-3.05952,1.4732,-0.869575,-2.875,82.875,93.0,-0.265625,-7.07812,6.89062,0.0195312,0.00390625,0.00585938,4,0,41.46712539248243,-91.76320844283302,10939.74830775028,2.469786930798633,1.3519649244060483,1.8332025045920228,195.453,8582.48906893005,10960.61793957396,150,True,16.34251733946325,False,142.45026034638155,171.01668814670245,False,46.52272753484651,False,False
11,1970-07-23 11:25:48.907372739,2025-09-16,2025-09-26 15:01:30.737,AH,C,4046392742,JASSM,3,125,76,2,2,1,225,9,2,0,1,26,0,0,0,0,-169779.38061697906,-4772528.250947799,4218270.659636021,-2.51419,-0.702851,0.608032,54.375,-45.875,-49.5,0.0,0.0,0.0,0.0,0.0,0.0,2,0,41.64530084652616,-92.037398421662,9999.995380641349,139.85541916589733,-0.0019504710052724,0.0040331997935356,,8582.48906893005,10960.61793957396,150,11,2025-09-16,2025-09-26 15:01:30.926,AH,C,3397767098,HAWK11,1,1,73,2,1,1,225,2,1,0,0,12,1,225,2,1,-147352.29724295562,-4786530.057588424,4203754.501432896,-3.0973,1.45987,-0.871972,-2.5,83.0,93.5,-0.1875,-7.21875,7.14062,-0.0273438,0.00195312,0.00195312,4,0,41.46844520308877,-91.76328135442697,10937.6140179972,2.9534959250116506,1.5174703466453647,-0.9028685024501406,196.101,8582.48906893005,10960.61793957396,150,True,16.237451346028728,False,142.27085712828188,170.78559923866248,False,46.934543757241606,False,False
11,1970-07-23 11:25:48.918249630,2025-09-16,2025-09-26 15:01:31.824,AH,C,4047704148,JASSM,3,125,76,2,2,1,225,9,2,0,1,26,0,0,0,0,-169719.63952811187,-4772578.872041549,4218216.159636021,-2.51419,-0.702851,0.608032,54.375,-45.875,-49.5,0.0,0.0,0.0,0.0,0.0,0.0,2,0,41.64464450330253,-92.03666053213652,9999.99947084645,139.8559095031017,-0.0010932463330175,0.0040315538191886,,8582.48906893005,10960.61793957396,150,11,2025-09-16,2025-09-26 15:01:31.816,AH,C,3398761264,HAWK11,1,1,73,2,1,1,225,2,1,0,0,12,1,225,2,1,-147354.25036795562,-4786461.338838424,4203832.145964146,-3.11456,1.45834,-0.871397,-2.5,82.75,94.0,-0.078125,-7.09375,6.92188,-0.00390625,0.00585938,-0.00195312,4,0,41.46937774697039,-91.7633300112198,10937.59655702752,3.0119401708309,1.488928098156722,-1.9572880263814945,196.37,8582.48906893005,10960.61793957396,150,True,16.148626167355587,False,142.2618491853224,170.61138706948876,False,47.120196339220605,False,False
11,1970-07-23 11:25:48.929290825,2025-09-16,2025-09-26 15:01:32.929,AH,C,4049016410,JASSM,3,125,76,2,2,1,225,9,2,0,1,26,0,0,0,0,-169659.859498815,-4772629.524385299,4218161.624479771,-2.51419,-0.702851,0.608032,54.375,-45.875,-49.5,0.0,0.0,0.0,0.0,0.0,0.0,2,0,41.64398774035323,-92.03592217737574,10000.00477575839,139.85640014311358,-0.000235473032681,0.0040299146409649,,8582.48906893005,10960.61793957396,150,11,2025-09-16,2025-09-26 15:01:32.727,AH,C,3399994028,HAWK11,1,1,73,2,1,1,225,2,1,0,0,12,1,225,2,1,-147356.90661795562,-4786375.497041549,4203930.091276646,-3.12644,1.46217,-0.887408,-2.75,82.0,94.875,-0.1875,-8.0625,7.8125,-0.00976562,0.0117188,0.00390625,4,0,41.47054904873518,-91.76339338269072,10939.670879070876,2.8171358390577548,2.3974457891114853,-2.4756587615855463,196.785,8582.48906893005,10960.61793957396,150,True,16.050125971416588,False,142.3544269004583,170.39790047659395,False,47.245106010612865,False,False
11,1970-07-23 11:25:48.940318205,2025-09-16,2025-09-26 15:01:34.031,AH,C,4050270934,JASSM,3,125,76,2,2,1,225,9,2,0,1,26,0,0,0,0,-169602.70959647125,-4772677.946260299,4218109.483854771,-2.51419,-0.702851,0.608128,54.375,-45.875,-49.5,0.0,0.0,0.0,0.0,0.0,0.0,2,0,41.64335984733182,-92.03521632266732,9999.99895367213,139.860094588836,-0.0038640778422552,0.0040282412369213,,8582.48906893005,10960.61793957396,150,11,2025-09-16,2025-09-26 15:01:34.131,AH,C,3401664226,HAWK11,1,1,73,2,1,1,225,2,1,0,0,12,1,225,2,1,-147361.03161795562,-4786261.331025924,4204063.882292271,-3.1136,1.44865,-0.901214,-3.25,80.625,96.25,-0.140625,-8.01562,7.8125,0.00585938,0.0136719,-0.00195312,4,0,41.47213050963942,-91.76348475124082,10950.153100160354,3.2513827032122524,3.2191781432490707,-2.322136108101386,196.748,8582.48906893005,10960.61793957396,150,True,15.937244447918637,False,142.53264895448547,170.11847400118933,False,47.348875722267756,False,False
11,1970-07-23 11:25:48.951608397,2025-09-16,2025-09-26 15:01:35.160,AH,C,4051581460,JASSM,3,125,76,2,2,1,225,9,2,0,1,26,0,0,0,0,-169543.00854666656,-4772728.530244674,4218055.015104771,-2.51419,-0.702851,0.608128,54.375,-45.875,-49.5,0.0,0.0,0.0,0.0,0.0,0.0,2,0,41.64270391331383,-92.03447897329328,9999.99757790881,139.86058454849083,-0.0030074153763716,0.0040266331192563,,8582.48906893005,10960.61793957396,150,11,2025-09-16,2025-09-26 15:01:35.399,AH,C,3402817458,HAWK11,1,1,73,2,1,1,225,2,1,0,0,12,1,225,2,1,-147364.07068045562,-4786184.387666549,4204156.224089146,-3.1252,1.4593,-0.906774,-3.5,79.875,96.625,-0.21875,-7.5,7.23438,-0.0136719,0.0136719,0.0,4,0,41.47321094785266,-91.76354942975745,10961.96553855645,2.8537839957134143,3.5138653334278485,-2.530906258371976,196.101,8582.48906893005,10960.61793957396,150,True,15.842788133113654,False,142.6233361205773,169.91406810165788,False,47.462056051139214,False,False
