Subject_cm,Timestamp,SampleDate_cm,SampleTime_cm,Configuration_cm,Scenario_cm,DisTime_cm,MarkingTxt_cm,Application_cm,EntId_cm,Site_cm,ExerciseId_cm,ForceId_cm,Category_cm,Country_cm,Domain_cm,Kind_cm,Extra_cm,Specific_cm,Subcategory_cm,AltCategory_cm,AltCountry_cm,AltDomain_cm,AltKind_cm,ECEF_X_cm,ECEF_Y_cm,ECEF_Z_cm,OriPhi_cm,OriPsi_cm,OriTheta_cm,LinVelX_cm,LinVelY_cm,LinVelZ_cm,LinAccX_cm,LinAccY_cm,LinAccZ_cm,AngVelX_cm,AngVelY_cm,AngVelZ_cm,DrAlg_cm,Appearance_cm,Latitude_cm,Longitude_cm,Altitude_cm,Heading_cm,Pitch_cm,Roll_cm,CalibratedAirspeed_cm,CM_Altitude_Lead_cm,CM_Altitude_Wing_cm,CM_Airspeed_cm,Subject_ac,SampleDate_ac,SampleTime_ac,Configuration_ac,Scenario_ac,DisTime_ac,MarkingTxt_ac,Application_ac,EntId_ac,Site_ac,ExerciseId_ac,ForceId_ac,Category_ac,Country_ac,Domain_ac,Kind_ac,Extra_ac,Specific_ac,Subcategory_ac,AltCategory_ac,AltCountry_ac,AltDomain_ac,AltKind_ac,ECEF_X_ac,ECEF_Y_ac,ECEF_Z_ac,OriPhi_ac,OriPsi_ac,OriTheta_ac,LinVelX_ac,LinVelY_ac,LinVelZ_ac,LinAccX_ac,LinAccY_ac,LinAccZ_ac,AngVelX_ac,AngVelY_ac,AngVelZ_ac,DrAlg_ac,Appearance_ac,Latitude_ac,Longitude_ac,Altitude_ac,Heading_ac,Pitch_ac,Roll_ac,CalibratedAirspeed_ac,CM_Altitude_Lead_ac,CM_Altitude_Wing_ac,CM_Airspeed_ac,Bank_Angle_Condition,distance_nm,Distance_Condition,angle_between_vel,angle_between_pos,Cone_Condition,angle_between_pos_nose,Nose_Cone_Condition,Intercept_Criteria
11,1970-07-23 11:25:48.320801859,2025-09-16,2025-09-26 15:00:32.080,AH,C,3976301986,JASSM,3,124,76,2,2,1,225,9,2,0,1,26,0,0,0,0,-163151.71667654935,-4785368.079072799,4204057.394011021,-2.36559,-0.397301,0.382249,76.125,-31.875,-33.0,0.0,0.0,0.0,0.0,0.0,0.0,2,0,41.47435625361833,-91.95267849390191,9999.999305301411,119.85427034600733,-0.0028929622114211,0.0050439216404976,,8582.48906893005,10960.61793957396,150,11,2025-09-16,2025-09-26 15:00:32.023,AH,C,4011368112,AMBUSH51,1,1,48,2,1,1,225,2,1,0,0,9,1,225,2,1,-146515.31013307712,-4791883.164708879,4196635.890496703,2.32072,2.84146,-0.318654,-96.5638,29.8414,31.5287,-0.107078,-7.51364,6.50613,0.0273442,-0.0023646,0.00376692,4,0,41.38869991913056,-91.75131447935536,8582.766510875006,-66.27704628820563,0.9967540542748612,-0.7084689335580716,170.047,8582.48906893005,10960.61793957396,150,True,10.40952428483991,False,173.1244308332739,178.5482904078616,False,6.56071922992949,True,False
11,1970-07-23 11:25:48.330316405,2025-09-16,2025-09-26 15:00:33.031,AH,C,3977494814,JASSM,3,124,76,2,2,1,225,9,2,0,1,26,0,0,0,0,-163075.60339529935,-4785400.024385299,4204024.208464146,-2.36559,-0.397301,0.382249,76.125,-31.875,-33.0,0.0,0.0,0.0,0.0,0.0,0.0,2,0,41.47395764654252,-91.95175521903494,10000.000476555697,119.85488181454566,-0.002094570974919,0.0050425752990591,,8582.48906893005,10960.61793957396,150,11,2025-09-16,2025-09-26 15:00:33.190,AH,C,4012759944,AMBUSH51,1,1,48,2,1,1,225,2,1,0,0,9,1,225,2,1,-146628.3710008374,-4791847.852884423,4196672.435721427,2.36039,2.83655,-0.32562,-96.4098,29.95,31.482,-0.183171,-7.27123,6.65238,0.0442095,-0.00293676,-0.00422465,4,0,41.389136149797295,-91.7526779740265,8583.67162269721,-65.80500829151372,1.0808641486265833,1.4841196749605063,170.01,8582.48906893005,10960.61793957396,150,True,10.295445271110896,False,173.18110925033287,178.5442667755085,False,6.559076089184186,True,False
11,1970-07-23 11:25:48.339380245,2025-09-16,2025-09-26 15:00:33.938,AH,C,3978626670,JASSM,3,124,76,2,2,1,225,9,2,0,1,26,0,0,0,0,-163003.38025076812,-4785430.334932174,4203992.718229771,-2.36559,-0.397301,0.382249,76.125,-31.875,-33.0,0.0,0.0,0.0,0.0,0.0,0.0,2,0,41.4735794121556,-91.9508791438814,9999.99859407405,119.85546201908508,-0.00133698926654,0.0050413033493707,,8582.48906893005,10960.61793957396,150,11,2025-09-16,2025-09-26 15:00:33.989,AH,C,4013714344,AMBUSH51,1,1,48,2,1,1,225,2,1,0,0,9,1,225,2,1,-146705.5066561571,-4791823.688701329,4196697.48875434,2.38568,2.83343,-0.325176,-96.269,30.1964,31.5983,-0.270075,-7.08189,6.67377,0.0307127,-0.00179659,0.000845762,4,0,41.38943500188506,-91.75360825378978,8584.375238956767,-65.70679920517841,0.9417300286670284,2.877582341138692,169.876,8582.48906893005,10960.61793957396,150,True,10.204819312966691,False,173.33950285573727,178.53897111803877,False,6.443284957742996,True,False
11,1970-07-23 11:25:48.348256287,2025-09-16,2025-09-26 15:00:34.825,AH,C,3979702030,JASSM,3,124,76,2,2,1,225,9,2,0,1,26,0,0,0,0,-162934.76257498687,-4785459.131807174,4203962.800261021,-2.36559,-0.397205,0.382249,76.125,-31.875,-33.0,0.0,0.0,0.0,0.0,0.0,0.0,2,0,41.473220058240486,-91.9500468131356,9999.999400101986,119.85237536695274,-0.004186884787623,0.0029912517096147,,8582.48906893005,10960.61793957396,150,11,2025-09-16,2025-09-26 15:00:34.756,AH,C,4014628976,AMBUSH51,1,1,48,2,1,1,225,2,1,0,0,9,1,225,2,1,-146779.0556576788,-4791800.201367707,4196721.747724479,2.39528,2.83042,-0.329648,-96.0066,30.3468,32.0186,-0.253672,-7.4892,6.77956,-0.00498615,-0.00310529,0.0124659,4,0,41.38972511222496,-91.75449544874864,8584.754950876064,-65.4094205792701,1.002092834288409,3.377484458512403,169.473,8582.48906893005,10960.61793957396,150,True,10.118404626958416,False,173.5964073099592,178.5327796549384,False,6.1950274966939105,True,False
11,1970-07-23 11:25:48.358797023,2025-09-16,2025-09-26 15:00:35.879,AH,C,3980835098,JASSM,3,124,76,2,2,1,225,9,2,0,1,26,0,0,0,0,-162862.46228201812,-4785489.473604049,4203931.274870396,-2.36559,-0.397205,0.382249,76.125,-31.75,-33.0,0.0,0.0,0.0,0.0,0.0,0.0,2,0,41.472841403225246,-91.9491698225105,9999.998596888185,119.8529561693765,-0.0034284923635201,0.0029899269653261,,8582.48906893005,10960.61793957396,150,11,2025-09-16,2025-09-26 15:00:35.956,AH,C,4016060574,AMBUSH51,1,1,48,2,1,1,225,2,1,0,0,9,1,225,2,1,-146893.22363021632,-4791763.393512379,4196759.9920213055,2.35839,2.81883,-0.335949,-95.6518,30.799,32.3613,-0.0819612,-7.12172,6.48268,-0.0400483,-0.0131442,-0.0068462,4,0,41.39018147423918,-91.75587275906156,8585.767131813433,-64.71448321485794,0.8019642279682669,1.0575570200649471,169.473,8582.48906893005,10960.61793957396,150,True,10.005594494702187,False,174.00404125361672,178.59092345628,False,5.8952020544674575,True,False
11,1970-07-23 11:25:48.367341864,2025-09-16,2025-09-26 15:00:36.734,AH,C,3981968674,JASSM,3,124,76,2,2,1,225,9,2,0,1,26,0,0,0,0,-162790.12927420562,-4785519.829072799,4203899.735807896,-2.36559,-0.397205,0.382249,76.125,-31.75,-33.0,0.0,0.0,0.0,0.0,0.0,0.0,2,0,41.4724625744982,-91.94829244529716,10000.002613113027,119.8535372234618,-0.0026697589031095,0.0029886053476025,,8582.48906893005,10960.61793957396,150,11,2025-09-16,2025-09-26 15:00:36.823,AH,C,4017094506,AMBUSH51,1,1,48,2,1,1,225,2,1,0,0,9,1,225,2,1,-146975.91594539038,-4791736.662998842,4196787.706391295,2.28133,2.81732,-0.3357,-95.5967,30.7825,32.245,-0.0168589,-7.06289,6.33734,-0.117257,0.000132118,-0.00824644,4,0,41.39051252136453,-91.75687038813756,8586.362149113782,-64.66854956313728,0.734108019085364,-3.3855143709215505,169.253,8582.48906893005,10960.61793957396,150,True,9.911318034106849,False,173.97053257072852,178.58192064342833,False,5.965953063722622,True,False
11,1970-07-23 11:25:48.377216721,2025-09-16,2025-09-26 15:00:37.721,AH,C,3983160246,JASSM,3,124,76,2,2,1,225,9,2,0,1,26,0,0,0,0,-162714.09558279935,-4785551.735322799,4203866.581511021,-2.36559,-0.397205,0.382345,76.125,-31.75,-33.0,0.0,0.0,0.0,0.0,0.0,0.0,2,0,41.47206435937356,-91.94737019185828,10000.001683107352,119.8579953869399,-0.0057929972357765,0.0029869604508169,,8582.48906893005,10960.61793957396,150,11,2025-09-16,2025-09-26 15:00:37.857,AH,C,4018327272,AMBUSH51,1,1,48,2,1,1,225,2,1,0,0,9,1,225,2,1,-147075.3592928244,-4791704.898540039,4196820.4721740205,2.18802,2.82179,-0.332109,-95.9691,30.2325,31.4799,-0.0886106,-7.23033,6.58298,-0.0328682,-0.00785945,-0.0116087,4,0,41.39090455244352,-91.7580699812147,8586.799716354637,-64.98557824262517,0.7660291138585014,-8.651722565547361,169.436,8582.48906893005,10960.61793957396,150,True,9.805018446710486,False,173.4263116536674,178.5709859477482,False,6.551514659361427,True,False
11,1970-07-23 11:25:48.386793553,2025-09-16,2025-09-26 15:00:38.679,AH,C,3984233988,JASSM,3,124,76,2,2,1,225,9,2,0,1,26,0,0,0,0,-162645.58093436187,-4785580.487275924,4203836.704557896,-2.36559,-0.397205,0.382345,76.125,-31.75,-33.0,0.0,0.0,0.0,0.0,0.0,0.0,2,0,41.47170550327486,-91.94653915021188,10000.003777400723,119.85854574642602,-0.005074310234807,0.0029857459403789,,8582.48906893005,10960.61793957396,150,11,2025-09-16,2025-09-26 15:00:38.690,AH,C,4019321438,AMBUSH51,1,1,48,2,1,1,225,2,1,0,0,9,1,225,2,1,-147154.51711326808,-4791680.232125153,4196845.8390049385,2.15801,2.83538,-0.316122,-96.3813,29.7764,30.27,-0.167621,-7.11037,6.66591,-0.0102188,-0.00150115,-0.0224507,4,0,41.391208097529095,-91.75902465175214,8587.122645901405,-66.15793766950806,0.6633080855826268,-10.137787571598963,169.301,8582.48906893005,10960.61793957396,150,False,9.715642588966626,False,172.74063668198662,178.56079128531997,False,7.3106994414048225,True,False
11,1970-07-23 11:25:48.397595963,2025-09-16,2025-09-26 15:00:39.759,AH,C,3985427034,JASSM,3,124,76,2,2,1,225,9,2,0,1,26,0,0,0,0,-162569.45446951812,-4785612.430635299,4203803.507292271,-2.36559,-0.397205,0.382345,76.125,-31.75,-33.0,0.0,0.0,0.0,0.0,0.0,0.0,2,0,41.4713067820215,-91.94561579370765,10000.000634562764,119.85915723707376,-0.0042757844716478,0.0029844046922375,,8582.48906893005,10960.61793957396,150,11,2025-09-16,2025-09-26 15:00:39.790,AH,C,4020633736,AMBUSH51,1,1,48,2,1,1,225,2,1,0,0,9,1,225,2,1,-147261.29264439468,-4791647.653890246,4196878.68751711,2.18664,2.84903,-0.300692,-97.0219,28.903,29.1329,-0.249805,-7.03746,6.74997,0.0547477,-0.00526911,-0.0140991,4,0,41.39160416485645,-91.76031216055092,8586.303044509117,-67.31316344871377,0.5932350579846515,-8.272876128803972,169.167,8582.48906893005,10960.61793957396,150,True,9.60574187417301,False,171.88817776425265,178.54602865857876,False,8.208162093070923,True,False
11,1970-07-23 11:25:48.406354505,2025-09-16,2025-09-26 15:00:40.635,AH,C,3986620080,JASSM,3,124,76,2,2,1,225,9,2,0,1,26,0,0,0,0,-162493.32556326812,-4785644.373994674,4203770.310026646,-2.36559,-0.397205,0.382345,76.125,-31.75,-33.0,0.0,0.0,0.0,0.0,0.0,0.0,2,0,41.47090805382244,-91.94469241932302,10000.001356695278,119.85976873472852,-0.0034772399266139,0.0029830747317325,,8582.48906893005,10960.61793957396,150,11,2025-09-16,2025-09-26 15:00:40.657,AH,C,4021667668,AMBUSH51,1,1,48,2,1,1,225,2,1,0,0,9,1,225,2,1,-147344.6021979573,-4791623.205171233,4196903.154379597,2.22981,2.86546,-0.289571,-97.3276,28.1743,28.4458,-0.225682,-7.40683,6.80552,0.0418834,0.002375,-0.0133293,4,0,41.39189956034078,-91.76131636917552,8585.532345522357,-68.39559705030308,0.8099156806253299,-5.538584120537784,168.861,8582.48906893005,10960.61793957396,150,True,9.50989819727112,False,171.32318350489933,178.53137327637853,False,8.800389223187045,True,False
11,1970-07-23 11:25:48.416234866,2025-09-16,2025-09-26 15:00:41.623,AH,C,3987755296,JASSM,3,124,76,2,2,1,225,9,2,0,1,26,0,0,0,0,-162420.88806326812,-4785674.768525924,4203738.720182896,-2.36559,-0.397205,0.382345,76.125,-31.75,-33.125,0.0,0.0,0.0,0.0,0.0,0.0,2,0,41.47052863683499,-91.9438138288164,10000.001046767738,119.86035057011424,-0.0027174079999214,0.002981795564262,,8582.48906893005,10960.61793957396,150,11,2025-09-16,2025-09-26 15:00:41.689,AH,C,4022900434,AMBUSH51,1,1,48,2,1,1,225,2,1,0,0,9,1,225,2,1,-147445.40561090002,-4791594.197834218,4196932.312123597,2.28127,2.87578,-0.287011,-97.3823,27.5861,28.0624,-0.209773,-7.31481,6.68018,0.0578228,-0.000854084,-0.0094511,4,0,41.39225053422371,-91.76253124856608,8585.051345504908,-68.89155165837029,1.1235588796483562,-2.4306546762349583,168.813,8582.48906893005,10960.61793957396,150,True,9.40650832818339,False,170.91816420435555,178.5689538397532,False,9.189361515662705,True,False
11,1970-07-23 11:25:48.425274483,2025-09-16,2025-09-26 15:00:42.527,AH,C,3988829146,JASSM,3,124,76,2,2,1,225,9,2,0,1,26,0,0,0,0,-162352.36609061187,-4785703.518525924,4203708.837370396,-2.36559,-0.397205,0.382345,76.125,-31.75,-33.125,0.0,0.0,0.0,0.0,0.0,0.0,2,0,41.47016972855029,-91.94298273960298,9999.99910536038,119.86090094434468,-0.0019986512634719,0.0029805904287996,,8582.48906893005,10960.61793957396,150,11,2025-09-16,2025-09-26 15:00:42.557,AH,C,4023934366,AMBUSH51,1,1,48,2,1,1,225,2,1,0,0,9,1,225,2,1,-147529.64694989627,-4791570.330274953,4196956.374616476,2.3217,2.87796,-0.285238,-97.3568,27.3078,28.0764,-0.263414,-7.24981,6.72493,0.0334632,0.00350268,-0.00620329,4,0,41.39253955246497,-91.76354639494755,8584.912952090323,-69.0482962366,1.1424336784118787,-0.0818974610747487,168.544,8582.48906893005,10960.61793957396,150,True,9.315223738873458,False,170.83370222454056,178.55351232618264,False,9.303618569228304,True,False
11,1970-07-23 11:25:48.435214502,2025-09-16,2025-09-26 15:00:43.521,AH,C,3989962436,JASSM,3,124,76,2,2,1,225,9,2,0,1,26,0,0,0,0,-162280.05114920562,-4785733.860322799,4203677.300261021,-2.36559,-0.397205,0.382345,76.125,-31.75,-33.125,0.0,0.0,0.0,0.0,0.0,0.0,2,0,41.46979094341673,-91.94210565602864,10000.001183248669,119.86148177328548,-0.0012401066488471,0.0029793157627175,,8582.48906893005,10960.61793957396,150,11,2025-09-16,2025-09-26 15:00:43.389,AH,C,4024928532,AMBUSH51,1,1,48,2,1,1,225,2,1,0,0,9,1,225,2,1,-147610.61947987054,-4791547.5767100565,4196979.26809025,2.33488,2.88297,-0.294071,-97.251,27.1857,28.0846,-0.157439,-7.98195,7.2252,0.0157886,0.0310331,0.0100836,4,0,41.39281464112117,-91.76452209004609,8584.735583063073,-68.86705950561823,1.6898583258867437,0.7596976277802324,168.324,8582.48906893005,10960.61793957396,150,True,9.223513715591096,False,170.81616557063538,178.536132570674,False,9.361863879081321,True,False
11,1970-07-23 11:25:48.444352613,2025-09-16,2025-09-26 15:00:44.435,AH,C,3991094004,JASSM,3,124,76,2,2,1,225,9,2,0,1,26,0,0,0,0,-162207.84655936187,-4785764.155244674,4203645.810026646,-2.36559,-0.397109,0.382345,76.125,-31.75,-33.125,0.0,0.0,0.0,0.0,0.0,0.0,2,0,41.46941272459443,-91.9412299212914,10000.002794885932,119.8584240916342,-0.004052365854751,0.0009286941962511,,8582.48906893005,10960.61793957396,150,11,2025-09-16,2025-09-26 15:00:44.390,AH,C,4026121530,AMBUSH51,1,1,48,2,1,1,225,2,1,0,0,9,1,225,2,1,-147707.798833452,-4791520.872132005,4197007.76779496,2.33184,2.89091,-0.310681,-97.2105,26.1876,29.2491,-0.227986,-7.86783,7.80335,-0.0200018,0.00557287,-0.00201089,4,0,41.39314810494613,-91.76569286134422,8588.233239065888,-68.46695531171999,2.657229803821103,0.7361295047265242,168.544,8582.48906893005,10960.61793957396,150,True,9.122534587646035,False,170.87220511872914,178.5182755738564,False,9.231347135327495,True,False
11,1970-07-23 11:25:48.453276662,2025-09-16,2025-09-26 15:00:45.327,AH,C,3992167748,JASSM,3,124,76,2,2,1,225,9,2,0,1,26,0,0,0,0,-162139.33142264312,-4785792.899385299,4203615.927214146,-2.36559,-0.397109,0.382345,76.125,-31.75,-33.125,0.0,0.0,0.0,0.0,0.0,0.0,2,0,41.46905383109272,-91.94039894470164,9999.997274975356,119.85897437918582,-0.0033336804108322,0.0009274410357424,,8582.48906893005,10960.61793957396,150,11,2025-09-16,2025-09-26 15:00:45.256,AH,C,4027155462,AMBUSH51,1,1,48,2,1,1,225,2,1,0,0,9,1,225,2,1,-147792.04952641332,-4791498.357436704,4197033.355929445,2.30731,2.88908,-0.31282,-97.243,25.612,29.9409,-0.213577,-7.39243,7.34426,-0.0341186,0.00269957,-0.00187566,4,0,41.39343934710793,-91.76670764879628,8594.74657647141,-68.30945960616202,2.667997659056798,-0.6943123418961691,168.458,8582.48906893005,10960.61793957396,150,True,9.031220457590855,False,170.8649806207379,178.50379839294436,False,9.209006761913361,True,False
11,1970-07-23 11:25:48.462312217,2025-09-16,2025-09-26 15:00:46.231,AH,C,3993241506,JASSM,3,124,76,2,2,1,225,9,2,0,1,26,0,0,0,0,-162070.81530936187,-4785821.645479049,4203586.046354771,-2.36559,-0.397109,0.382345,76.125,-31.75,-33.125,0.0,0.0,0.0,0.0,0.0,0.0,2,0,41.468694933300384,-91.9395679648082,10000.004011691915,119.85952466500886,-0.0026149876824809,0.0009261940052835,,8582.48906893005,10960.61793957396,150,11,2025-09-16,2025-09-26 15:00:46.156,AH,C,4028229162,AMBUSH51,1,1,48,2,1,1,225,2,1,0,0,9,1,225,2,1,-147878.7262650056,-4791475.732239027,4197059.888951634,2.26786,2.89389,-0.317682,-97.3036,25.1241,30.0763,-0.0845708,-7.43544,7.36639,-0.0430881,0.00934915,-0.00565818,4,0,41.39373717182741,-91.76775146811777,8603.226336311634,-68.28419438162754,3.05055528745761,-2.867732211093729,168.507,8582.48906893005,10960.61793957396,150,True,8.938585532763764,False,170.6973986258169,178.48887300302695,False,9.39103428505112,True,False
11,1970-07-23 11:25:48.471355788,2025-09-16,2025-09-26 15:00:47.135,AH,C,3994374882,JASSM,3,124,76,2,2,1,225,9,2,0,1,26,0,0,0,0,-161998.49450858062,-4785851.985322799,4203554.503386021,-2.36559,-0.397109,0.382441,76.125,-31.75,-33.125,0.0,0.0,0.0,0.0,0.0,0.0,2,0,41.468316095335744,-91.93869085171217,10000.002367718076,119.86395303197595,-0.0057770343540218,0.0009246174579691,,8582.48906893005,10960.61793957396,150,11,2025-09-16,2025-09-26 15:00:46.956,AH,C,4029183560,AMBUSH51,1,1,48,2,1,1,225,2,1,0,0,9,1,225,2,1,-147956.35702298247,-4791456.012004546,4197083.634142635,2.24121,2.89845,-0.317459,-97.4277,24.5158,29.9955,-0.0364823,-7.16755,7.1942,-0.0192882,-0.00396457,-0.00369618,4,0,41.3940005453751,-91.76868615648752,8612.12180790949,-68.46285730861136,3.2246295127083098,-4.322563092310892,168.593,8582.48906893005,10960.61793957396,150,True,8.84884477063201,False,170.39821998166494,178.47366439111605,False,9.709526497910181,True,False
11,1970-07-23 11:25:48.480255260,2025-09-16,2025-09-26 15:00:48.025,AH,C,3995449504,JASSM,3,124,76,2,2,1,225,9,2,0,1,26,0,0,0,0,-161929.92321951812,-4785880.750947799,4203524.595182896,-2.36559,-0.397109,0.382441,76.125,-31.75,-33.125,0.0,0.0,0.0,0.0,0.0,0.0,2,0,41.46795689555147,-91.93785922295754,9999.999874275967,119.86450373950684,-0.0050577633556801,0.0009234166244365,,8582.48906893005,10960.61793957396,150,11,2025-09-16,2025-09-26 15:00:48.056,AH,C,4030495858,AMBUSH51,1,1,48,2,1,1,225,2,1,0,0,9,1,225,2,1,-148063.51599671924,-4791429.330331717,4197116.054982757,2.23732,2.90476,-0.30975,-97.7043,23.9402,29.5536,-0.07422,-6.96606,6.91893,0.00368785,0.000150843,-0.00281192,4,0,41.39435847026419,-91.7699761818436,8624.961040168222,-69.02262487354753,3.1791643864745653,-4.465392923994842,168.238,8582.48906893005,10960.61793957396,150,True,8.744813470401503,False,169.9740305656665,178.45334331648655,False,10.201571733131859,True,False
11,1970-07-23 11:25:48.490277151,2025-09-16,2025-09-26 15:00:49.027,AH,C,3996583264,JASSM,3,124,76,2,2,1,225,9,2,0,1,26,0,0,0,0,-161857.57849295562,-4785911.100557174,4203493.040495396,-2.36559,-0.397109,0.382441,76.125,-31.75,-33.125,0.0,0.0,0.0,0.0,0.0,0.0,2,0,41.467577912136505,-91.93698183969988,10000.00193050367,119.8650847415822,-0.0042989057332241,0.0009221406989983,,8582.48906893005,10960.61793957396,150,11,2025-09-16,2025-09-26 15:00:49.056,AH,C,4031688858,AMBUSH51,1,1,48,2,1,1,225,2,1,0,0,9,1,225,2,1,-148161.03257539685,-4791405.39280445,4197145.1398355495,2.28214,2.90831,-0.306343,-97.8504,23.6629,29.2241,-0.2107,-6.99668,7.00291,0.0550349,-0.0025789,-0.00423713,4,0,41.3946793064692,-91.77115001205846,8636.587011593821,-69.29855987316895,3.190362620298738,-1.851087510146944,168.373,8582.48906893005,10960.61793957396,150,True,8.644054073984572,False,169.73218828332517,178.4300495342894,False,10.51703438205034,True,False
11,1970-07-23 11:25:48.500313464,2025-09-16,2025-09-26 15:00:50.031,AH,C,3997775066,JASSM,3,124,76,2,2,1,225,9,2,0,1,26,0,0,0,0,-161781.52966483062,-4785943.000947799,4203459.868620396,-2.36549,-0.397109,0.382441,76.125,-31.75,-33.125,0.0,0.0,0.0,0.0,0.0,0.0,2,0,41.46717952540939,-91.93605954608064,9999.996937370912,119.8656954785348,-0.0035011988893618,0.0064122781007105,,8582.48906893005,10960.61793957396,150,11,2025-09-16,2025-09-26 15:00:49.922,AH,C,4032722790,AMBUSH51,1,1,48,2,1,1,225,2,1,0,0,9,1,225,2,1,-148246.0481530862,-4791384.56311872,4197170.335277546,2.35637,2.9082,-0.305743,-97.8472,23.7036,29.3173,-0.0583777,-6.84096,6.93591,0.133731,-0.00202962,0.0017321,4,0,41.394957683761945,-91.7721733586212,8646.474520262771,-69.32049761274115,3.163492796084077,2.3992523521901976,168.189,8582.48906893005,10960.61793957396,150,True,8.54810088475984,False,169.77771716469357,178.40516187389994,False,10.52925635038993,True,False
11,1970-07-23 11:25:48.509352453,2025-09-16,2025-09-26 15:00:50.935,AH,C,3998848806,JASSM,3,124,76,2,2,1,225,9,2,0,1,26,0,0,0,0,-161713.01452811187,-4785971.743135299,4203429.983854771,-2.36549,-0.397109,0.382441,76.125,-31.75,-33.125,0.0,0.0,0.0,0.0,0.0,0.0,2,0,41.46682059288159,-91.93522862731037,10000.002881962151,119.86624570351456,-0.0027825128308681,0.0064110714100434,,8582.48906893005,10960.61793957396,150,11,2025-09-16,2025-09-26 15:00:50.889,AH,C,4033876022,AMBUSH51,1,1,48,2,1,1,225,2,1,0,0,9,1,225,2,1,-148340.34163999255,-4791361.38078513,4197198.305763572,2.44187,2.90026,-0.312012,-97.5582,24.1384,29.8167,-0.148443,-6.87449,6.79506,0.051837,-0.00302623,0.0202036,4,0,41.39526707424321,-91.77330842338692,8657.305709826547,-68.76258236577074,3.089067132807884,7.190066832948667,168.275,8582.48906893005,10960.61793957396,150,True,8.451622486850065,False,170.16286447079904,178.37634146291427,False,10.204383067723931,True,False
11,1970-07-23 11:25:48.519239193,2025-09-16,2025-09-26 15:00:51.923,AH,C,4000101506,JASSM,3,124,76,2,2,1,225,9,2,0,1,26,0,0,0,0,-161633.07995779935,-4786005.272432174,4203395.116667271,-2.36549,-0.397109,0.382441,76.125,-31.75,-33.125,0.0,0.0,0.0,0.0,0.0,0.0,2,0,41.46640183911285,-91.93425923205812,10000.002428208214,119.86688762109983,-0.0019440488769848,0.0064096715071386,,8582.48906893005,10960.61793957396,150,11,2025-09-16,2025-09-26 15:00:52.056,AH,C,4035267854,AMBUSH51,1,1,48,2,1,1,225,2,1,0,0,9,1,225,2,1,-148453.34856961487,-4791332.362484148,4197232.905086185,2.46671,2.88246,-0.335178,-96.7907,25.3561,30.6836,-0.168267,-7.02693,6.91901,-0.0301551,-0.000331855,0.0167977,4,0,41.39565247595277,-91.77466922244696,8669.593073184244,-67.13025737621957,3.2835939038090807,8.379941613525961,168.458,8582.48906893005,10960.61793957396,150,True,8.336918266962805,False,171.0769923641828,178.3392025137448,False,9.380399136585847,True,False
11,1970-07-23 11:25:48.530273539,2025-09-16,2025-09-26 15:00:53.027,AH,C,4001413856,JASSM,3,124,76,2,2,1,225,9,2,0,1,26,0,0,0,0,-161549.33923514312,-4786040.397432174,4203358.587370396,-2.36549,-0.397013,0.382441,76.125,-31.75,-33.125,0.0,0.0,0.0,0.0,0.0,0.0,2,0,41.46596312946475,-91.9332436919409,10000.000661093847,119.86392274503208,-0.0046352989537625,0.004358402045278,,8582.48906893005,10960.61793957396,150,11,2025-09-16,2025-09-26 15:00:53.222,AH,C,4036659686,AMBUSH51,1,1,48,2,1,1,225,2,1,0,0,9,1,225,2,1,-148566.71809095654,-4791301.8060944695,4197269.24856518,2.41103,2.86547,-0.336262,-96.349,26.3146,31.669,-0.18828,-6.62838,6.60844,-0.0574525,-0.00709587,0.0109575,4,0,41.39605871964861,-91.7760349375702,8681.91598229634,-66.45685946084892,2.6558177197211807,4.903780036619751,168.507,8582.48906893005,10960.61793957396,150,True,8.21900789276576,False,171.851759178754,178.3003081752458,False,8.668492887668904,True,False
11,1970-07-23 11:25:48.541293770,2025-09-16,2025-09-26 15:00:54.129,AH,C,4002726206,JASSM,3,124,76,2,2,1,225,9,2,0,1,26,0,0,0,0,-161465.59851248687,-4786075.522432174,4203322.058073521,-2.36549,-0.397013,0.382441,76.125,-31.75,-33.125,0.0,0.0,0.0,0.0,0.0,0.0,2,0,41.46552441081786,-91.93222816551464,10000.0038171836,119.86459519845218,-0.0037569071372513,0.0043568727828936,,8582.48906893005,10960.61793957396,150,11,2025-09-16,2025-09-26 15:00:53.957,AH,C,4037534552,AMBUSH51,1,1,48,2,1,1,225,2,1,0,0,9,1,225,2,1,-148637.54374376897,-4791282.270626363,4197291.985511281,2.32948,2.86372,-0.336506,-96.3426,26.8414,31.6355,-0.00920106,-6.84213,6.75299,-0.136661,0.000435885,0.000668911,4,0,41.3963153733166,-91.7768883176072,8688.59096320027,-66.38251478967541,2.597363333397193,0.2018595012426063,168.593,8582.48906893005,10960.61793957396,150,True,8.125497097567623,False,172.06194360160052,178.26934282079043,False,8.547362068804869,True,False
11,1970-07-23 11:25:48.552310366,2025-09-16,2025-09-26 15:00:55.231,AH,C,4004038550,JASSM,3,124,76,2,2,1,225,9,2,0,1,26,0,0,0,0,-161381.85778983062,-4786110.643525924,4203285.526823521,-2.36549,-0.397013,0.382441,76.125,-31.75,-33.125,0.0,0.0,0.0,0.0,0.0,0.0,2,0,41.46508569326585,-91.93121265435474,9999.998055239146,119.86526763591256,-0.0028785213035372,0.004355351646521,,8582.48906893005,10960.61793957396,150,11,2025-09-16,2025-09-26 15:00:55.156,AH,C,4038966150,AMBUSH51,1,1,48,2,1,1,225,2,1,0,0,9,1,225,2,1,-148752.67202861936,-4791250.004279335,4197329.440017404,2.22275,2.86294,-0.328444,-96.6993,27.0203,31.1037,0.0690312,-6.57843,6.52383,-0.0528461,-0.0112758,-0.012185,4,0,41.3967389382577,-91.7782757038962,8699.264811148023,-66.6907778859076,2.2508606630584653,-5.940941914204105,169.081,8582.48906893005,10960.61793957396,150,True,8.006240545869423,False,171.8993108556523,178.22377586256113,False,8.842122061591382,True,False
11,1970-07-23 11:25:48.563333353,2025-09-16,2025-09-26 15:00:56.333,AH,C,4005352686,JASSM,3,124,76,2,2,1,225,9,2,0,1,26,0,0,0,0,-161298.00280936187,-4786145.813447799,4203248.944792271,-2.36549,-0.397013,0.382536,76.125,-31.75,-33.125,0.0,0.0,0.0,0.0,0.0,0.0,2,0,41.464646356372,-91.93019577095956,9999.997414047366,119.86978865267108,-0.0059194420368475,0.0043535524835746,,8582.48906893005,10960.61793957396,150,11,2025-09-16,2025-09-26 15:00:56.422,AH,C,4040477282,AMBUSH51,1,1,48,2,1,1,225,2,1,0,0,9,1,225,2,1,-148876.19360453222,-4791215.644275174,4197368.016744492,2.18844,2.8702,-0.304483,-97.4523,26.7652,29.9737,-0.012687,-6.67007,6.58762,-0.00844409,-0.00548133,-0.0143967,4,0,41.39718096594751,-91.7797641583677,8707.872734282351,-67.96360170402791,1.5995568520788226,-7.82001966369541,169.436,8582.48906893005,10960.61793957396,150,True,7.882457309184299,False,171.28318772253755,178.16646367250252,False,9.610191831151603,True,False
11,1970-07-23 11:25:48.574354040,2025-09-16,2025-09-26 15:00:57.435,AH,C,4006663842,JASSM,3,124,76,2,2,1,225,9,2,0,1,26,0,0,0,0,-161214.33777029935,-4786180.903291549,4203212.446745396,-2.36549,-0.397013,0.382536,76.125,-31.75,-33.125,0.0,0.0,0.0,0.0,0.0,0.0,2,0,41.46420801566764,-91.92918120477344,10000.003113610315,119.87046045280468,-0.0050418488797449,0.0043520902037398,,8582.48906893005,10960.61793957396,150,11,2025-09-16,2025-09-26 15:00:57.422,AH,C,4041670280,AMBUSH51,1,1,48,2,1,1,225,2,1,0,0,9,1,225,2,1,-148973.06817407443,-4791188.795624532,4197397.025916711,2.25045,2.87644,-0.295078,-97.9891,26.7307,29.0655,-0.0520248,-6.90999,6.869,0.068386,-0.00261219,-0.0171659,4,0,41.39751862480183,-91.7809314887072,8712.17138887204,-68.59113423417158,1.480872723549661,-4.17866182455263,170.047,8582.48906893005,10960.61793957396,150,True,7.77441439791957,False,170.85481295402215,178.11134342927582,False,10.170706787294897,True,False
11,1970-07-23 11:25:48.585237187,2025-09-16,2025-09-26 15:00:58.523,AH,C,4007976728,JASSM,3,124,76,2,2,1,225,9,2,0,1,26,0,0,0,0,-161130.56286795562,-4786216.036104049,4203175.897917271,-2.36549,-0.397013,0.382536,76.125,-31.75,-33.125,0.0,0.0,0.0,0.0,0.0,0.0,2,0,41.463769089629565,-91.92816532127208,9999.999904482842,119.87113311935488,-0.004163103707003,0.0043506248598645,,8582.48906893005,10960.61793957396,150,11,2025-09-16,2025-09-26 15:00:58.556,AH,C,4043022346,AMBUSH51,1,1,48,2,1,1,225,2,1,0,0,9,1,225,2,1,-149084.91245803988,-4791158.277234317,4197429.398193299,2.34201,2.88682,-0.290853,-98.3674,26.6108,28.8578,-0.224339,-6.96785,6.97168,0.070115,0.00384598,-0.000504544,4,0,41.39789803719007,-91.7822790391614,8715.890787207589,-69.15768252143359,1.7326944160804951,1.2232709436744398,169.656,8582.48906893005,10960.61793957396,150,True,7.658082055226326,False,170.66312497759014,178.04225826306148,False,10.461666875490492,True,False
11,1970-07-23 11:25:48.602794224,2025-09-16,2025-09-26 15:01:00.279,AH,C,4009347614,JASSM,3,124,76,2,2,1,225,9,2,0,1,26,0,0,0,0,-161043.08630545562,-4786252.721650924,4203137.733854771,-2.36549,-0.397013,0.382536,76.125,-31.75,-33.125,0.0,0.0,0.0,0.0,0.0,0.0,2,0,41.4633107555305,-91.92710456463314,10000.002062810756,119.87183549237378,-0.0032455282481025,0.0043490911765299,,8582.48906893005,10960.61793957396,150,11,2025-09-16,2025-09-26 15:01:00.388,AH,C,4045209510,AMBUSH51,1,1,48,2,1,1,225,2,1,0,0,9,1,225,2,1,-149264.44360976602,-4791108.847336456,4197482.329327812,2.46072,2.87003,-0.308345,-98.1718,27.291,30.2408,-0.224439,-7.00215,6.69,0.0521116,-0.000325613,0.00956554,4,0,41.39851619456113,-91.78444230790797,8722.888252065643,-67.79888421576412,1.7479299227382363,7.782380808767041,170.89,8582.48906893005,10960.61793957396,150,True,7.50064881314259,False,171.42155051736876,177.93334197970967,False,9.813958587379249,True,False
11,1970-07-23 11:25:48.607296032,2025-09-16,2025-09-26 15:01:00.729,AH,C,4010601376,JASSM,3,124,76,2,2,1,225,9,2,0,1,26,0,0,0,0,-160963.08386404935,-4786286.270479049,4203102.827604771,-2.36549,-0.397013,0.382536,76.125,-31.75,-33.125,0.0,0.0,0.0,0.0,0.0,0.0,2,0,41.462891566881495,-91.9261344545256,9999.99673070774,119.87247783880098,-0.0024063489369525,0.0043476823758969,,8582.48906893005,10960.61793957396,150,11,2025-09-16,2025-09-26 15:01:00.756,AH,C,4045646942,AMBUSH51,1,1,48,2,1,1,225,2,1,0,0,9,1,225,2,1,-149301.05956400657,-4791098.393147885,4197493.530746877,2.47618,2.86697,-0.310218,-98.0401,27.8259,30.4926,-0.228895,-6.99112,6.85405,0.0275918,0.000433804,0.0134562,4,0,41.39864722312397,-91.78488365715774,8724.281469221496,-67.60638438395789,1.700039135943921,8.620926142222705,171.061,8582.48906893005,10960.61793957396,150,True,7.429301163666324,False,171.73068750131134,177.90021503203852,False,9.563521499850266,True,False
11,1970-07-23 11:25:48.618312984,2025-09-16,2025-09-26 15:01:01.831,AH,C,4011854388,JASSM,3,124,76,2,2,1,225,9,2,0,1,26,0,0,0,0,-160883.12878592435,-4786319.799775924,4203067.942839146,-2.36549,-0.397013,0.382536,76.125,-31.75,-33.125,0.0,0.0,0.0,0.0,0.0,0.0,2,0,41.46247262175347,-91.92516493109648,9999.998482480334,119.8731197914315,-0.0015676680626377,0.0043462775068688,,8582.48906893005,10960.61793957396,150,11,2025-09-16,2025-09-26 15:01:01.856,AH,C,4046959242,AMBUSH51,1,1,48,2,1,1,225,2,1,0,0,9,1,225,2,1,-149408.00883182487,-4791067.126498264,4197527.049274177,2.49118,2.85457,-0.325569,-97.5759,29.0327,31.6805,-0.0823036,-7.27095,7.14499,-0.00232298,0.00678378,0.0197209,4,0,41.39903968688711,-91.78617304919554,8728.293561522964,-66.50401006814012,1.8141423751335557,9.291819593686826,171.281,8582.48906893005,10960.61793957396,150,True,7.317257217931915,False,172.66559899749325,177.82976691059432,False,8.727732791190332,True,False
11,1970-07-23 11:25:48.629352206,2025-09-16,2025-09-26 15:01:02.935,AH,C,4013225016,JASSM,3,124,76,2,2,1,225,9,2,0,1,26,0,0,0,0,-160795.66882498687,-4786356.473604049,4203029.782682896,-2.36549,-0.396918,0.382536,76.125,-31.75,-33.125,0.0,0.0,0.0,0.0,0.0,0.0,2,0,41.46201435269939,-91.9241044199293,9999.99689672027,119.870184908416,-0.0042199059268934,0.002294437350111,,8582.48906893005,10960.61793957396,150,11,2025-09-16,2025-09-26 15:01:03.021,AH,C,4048351074,AMBUSH51,1,1,48,2,1,1,225,2,1,0,0,9,1,225,2,1,-149522.31828911102,-4791032.175754682,4197564.873939194,2.52283,2.83857,-0.333917,-97.0781,30.1341,33.3429,-0.106012,-6.99313,6.81823,0.0485871,0.00659028,0.0216205,4,0,41.39948175802718,-91.78755176443664,8733.158169526432,-65.56020999663492,1.5166837828850157,10.835978736617582,171.721,8582.48906893005,10960.61793957396,150,False,7.195532235880312,False,173.71363608099057,177.75666359063166,False,7.730873729674343,True,False
11,1970-07-23 11:25:48.641589689,2025-09-16,2025-09-26 15:01:04.158,AH,C,4014597884,JASSM,3,124,76,2,2,1,225,9,2,0,1,26,0,0,0,0,-160708.06579764312,-4786393.207979049,4202991.560026646,-2.36549,-0.396918,0.382536,76.125,-31.75,-33.125,0.0,0.0,0.0,0.0,0.0,0.0,2,0,41.46155532033767,-91.92304218873124,10000.00188896387,119.87088823342604,-0.0033010058420027,0.0022928440554589,,8582.48906893005,10960.61793957396,150,11,2025-09-16,2025-09-26 15:01:04.057,AH,C,4049583838,AMBUSH51,1,1,48,2,1,1,225,2,1,0,0,9,1,225,2,1,-149621.5113168045,-4791000.36179844,4197598.931792102,2.53135,2.82158,-0.346085,-96.4114,31.7697,34.2422,-0.282602,-6.94618,6.9839,-0.00442438,0.00101221,0.0263934,4,0,41.39988252960143,-91.788748725352,8736.412752343083,-64.42205750126746,1.3389822964078906,11.027695772090883,172.112,8582.48906893005,10960.61793957396,150,False,7.081995672268152,False,174.75180357088163,177.6915788794458,False,6.854915130121593,True,False
11,1970-07-23 11:25:48.652371996,2025-09-16,2025-09-26 15:01:05.237,AH,C,4015909370,JASSM,3,124,76,2,2,1,225,9,2,0,1,26,0,0,0,0,-160624.37976248687,-4786428.297822799,4202955.044401646,-2.36549,-0.396918,0.382536,76.125,-31.75,-33.125,0.0,0.0,0.0,0.0,0.0,0.0,2,0,41.461116801955725,-91.92202746785884,10000.002323846917,119.8715600948974,-0.0024231922148704,0.0022913203318148,,8582.48906893005,10960.61793957396,150,11,2025-09-16,2025-09-26 15:01:05.155,AH,C,4050896138,AMBUSH51,1,1,48,2,1,1,225,2,1,0,0,9,1,225,2,1,-149728.03950392728,-4790964.250708462,4197637.354532582,2.51993,2.80493,-0.360215,-95.8587,33.0406,35.759,-0.174717,-7.24239,7.01194,-0.00730393,0.012418,0.0221198,4,0,41.40033695690552,-91.7900349415623,8739.13773281941,-63.2181759364467,1.2618364896821952,10.070885297665972,172.454,8582.48906893005,10960.61793957396,150,False,6.965827576666597,False,175.81595765510775,177.62678413333774,False,5.861158096073084,True,False
11,1970-07-23 11:25:48.662250496,2025-09-16,2025-09-26 15:01:06.225,AH,C,4017163238,JASSM,3,124,76,2,2,1,225,9,2,0,1,26,0,0,0,0,-160544.36999686187,-4786461.844697799,4202920.132292271,-2.36549,-0.396918,0.382632,76.125,-31.75,-33.125,0.0,0.0,0.0,0.0,0.0,0.0,2,0,41.46069754390987,-91.9210573363554,10000.002377740184,119.87605024536803,-0.0055043157117475,0.0022896295438103,,8582.48906893005,10960.61793957396,150,11,2025-09-16,2025-09-26 15:01:06.222,AH,C,4052168670,AMBUSH51,1,1,48,2,1,1,225,2,1,0,0,9,1,225,2,1,-149829.4478857313,-4790928.953416039,4197675.462710895,2.4672,2.79507,-0.370582,-95.3941,33.8608,36.9802,0.00843744,-7.13703,6.96714,-0.0674477,-0.000356822,0.0148294,4,0,41.40078535719695,-91.79125970222064,8742.795366420383,-62.42500499679105,1.3012504899013346,6.8656483147921605,173.016,8582.48906893005,10960.61793957396,150,True,6.854522712970587,False,176.58724914287885,177.5681547550472,False,5.117300805688102,True,False
11,1970-07-23 11:25:48.673293444,2025-09-16,2025-09-26 15:01:07.329,AH,C,4018415954,JASSM,3,124,76,2,2,1,225,9,2,0,1,26,0,0,0,0,-160464.43396170562,-4786495.360322799,4202885.251432896,-2.36549,-0.396918,0.382632,76.125,-31.75,-33.125,0.0,0.0,0.0,0.0,0.0,0.0,2,0,41.4602786597988,-91.92008811146006,10000.004090939892,119.87669197259204,-0.0046658378237031,0.0022882306735899,,8582.48906893005,10960.61793957396,150,11,2025-09-16,2025-09-26 15:01:07.356,AH,C,4053520734,AMBUSH51,1,1,48,2,1,1,225,2,1,0,0,9,1,225,2,1,-149937.91298811618,-4790889.541649994,4197717.857967027,2.42345,2.78134,-0.378206,-95.1058,34.7418,37.7754,-0.029279,-6.99159,6.85995,-0.0355584,-0.000450449,0.00356718,4,0,41.40128585048633,-91.79257032869256,8746.184072589422,-61.60068924923628,1.088388913703113,4.088790040225047,173.835,8582.48906893005,10960.61793957396,150,True,6.738343990267533,False,177.21152193215107,177.50989006745436,False,4.5858325602456365,True,False
11,1970-07-23 11:25:48.684798148,2025-09-16,2025-09-26 15:01:08.479,AH,C,4019727120,JASSM,3,124,76,2,2,1,225,9,2,0,1,26,0,0,0,0,-160380.76794608062,-4786530.436494674,4202848.741667271,-2.36549,-0.396918,0.382632,76.125,-31.75,-33.125,0.0,0.0,0.0,0.0,0.0,0.0,2,0,41.459840232206254,-91.9190736752369,9999.999619381404,119.87736362868549,-0.0037882412624287,0.002286775782299,,8582.48906893005,10960.61793957396,150,11,2025-09-16,2025-09-26 15:01:08.588,AH,C,4054992100,AMBUSH51,1,1,48,2,1,1,225,2,1,0,0,9,1,225,2,1,-150054.63247285126,-4790846.363109183,4197764.372430598,2.34517,2.77675,-0.380055,-95.198,35.1292,38.3533,-0.047272,-6.996,6.87201,-0.0676724,0.00471359,-0.00433076,4,0,41.401835008810565,-91.79398100530224,8749.888837549104,-61.3542136576572,0.990890754355419,-0.4891885975890862,174.104,8582.48906893005,10960.61793957396,150,True,6.61446484247402,False,177.485729993718,177.44848934746872,False,4.3493735220798015,True,False
11,1970-07-23 11:25:48.694335354,2025-09-16,2025-09-26 15:01:09.433,AH,C,4020980106,JASSM,3,124,76,2,2,1,225,9,2,0,1,26,0,0,0,0,-160300.81433279935,-4786563.957979049,4202813.851042271,-2.36549,-0.396918,0.382632,76.125,-31.75,-33.125,0.0,0.0,0.0,0.0,0.0,0.0,2,0,41.45942123406759,-91.91810426334813,10000.00225279079,119.8780054688057,-0.0029495767017331,0.0022853718538201,,8582.48906893005,10960.61793957396,150,11,2025-09-16,2025-09-26 15:01:09.321,AH,C,4055866966,AMBUSH51,1,1,48,2,1,1,225,2,1,0,0,9,1,225,2,1,-150124.38621769272,-4790820.408083708,4197792.244585436,2.30383,2.77904,-0.378053,-95.4064,35.3045,38.1941,-0.206379,-6.93092,6.72931,-0.0369649,-0.00340905,-0.0122724,4,0,41.40216458561136,-91.79482411953096,8751.8975576957,-61.52220515019685,0.9973330686228168,-2.81234817060708,174.226,8582.48906893005,10960.61793957396,150,True,6.521557863593199,False,177.46513071613958,177.4034562508925,False,4.48013940319355,True,False
11,1970-07-23 11:25:48.706011319,2025-09-16,2025-09-26 15:01:10.601,AH,C,4022294022,JASSM,3,124,76,2,2,1,225,9,2,0,1,26,0,0,0,0,-160216.97302420562,-4786599.106416549,4202777.263151646,-2.36549,-0.396918,0.382632,76.125,-31.75,-33.125,0.0,0.0,0.0,0.0,0.0,0.0,2,0,41.45898186658411,-91.91708772901036,10000.000855302722,119.87867850260618,-0.002070139780038,0.0022839104353075,,8582.48906893005,10960.61793957396,150,11,2025-09-16,2025-09-26 15:01:10.555,AH,C,4057338330,AMBUSH51,1,1,48,2,1,1,225,2,1,0,0,9,1,225,2,1,-150242.8481427193,-4790776.657664387,4197839.131862756,2.25889,2.7915,-0.367862,-96.0058,35.1014,37.7397,-0.0981221,-7.00449,6.80065,0.0071458,-0.00379813,-0.00568314,4,0,41.4027193099483,-91.79625586602768,8755.153506583558,-62.40563918713242,1.060233115559041,-5.143200926747593,174.568,8582.48906893005,10960.61793957396,150,True,6.396598081962881,False,177.1181634063335,177.33551097706476,False,4.9279374864291,True,False
11,1970-07-23 11:25:48.717368970,2025-09-16,2025-09-26 15:01:11.736,AH,C,4023664790,JASSM,3,124,76,2,2,1,225,9,2,0,1,26,0,0,0,0,-160129.50378592435,-4786635.776338424,4202739.089323521,-2.36549,-0.396822,0.382632,76.125,-31.75,-33.125,0.0,0.0,0.0,0.0,0.0,0.0,2,0,41.45852345569505,-91.9160272222221,10000.000112805164,119.8757438371028,-0.0047222658013456,0.0002315992747751,,8582.48906893005,10960.61793957396,150,11,2025-09-16,2025-09-26 15:01:11.822,AH,C,4058849462,AMBUSH51,1,1,48,2,1,1,225,2,1,0,0,9,1,225,2,1,-150364.0388577478,-4790732.501177478,4197885.992134449,2.29442,2.80088,-0.357475,-96.6339,34.8731,37.1943,-0.199662,-7.06395,6.80822,0.0521595,-0.000410917,-0.00878947,4,0,41.40327574025174,-91.79772039212892,8757.572054618902,-63.18349110017217,1.003085759005862,-2.9304189275341685,175.509,8582.48906893005,10960.61793957396,150,True,6.268059393795764,False,176.72307157006406,177.25794869092442,False,5.434453230574249,True,False
11,1970-07-23 11:25:48.727282573,2025-09-16,2025-09-26 15:01:12.728,AH,C,4024918034,JASSM,3,124,76,2,2,1,225,9,2,0,1,26,0,0,0,0,-160049.53357108062,-4786669.299775924,4202704.188932896,-2.36549,-0.396822,0.382632,76.125,-31.75,-33.125,0.0,0.0,0.0,0.0,0.0,0.0,2,0,41.45810435759817,-91.91505765027394,9999.999073249915,119.8763857665232,-0.0038834346849488,0.0002301520634081,,8582.48906893005,10960.61793957396,150,11,2025-09-16,2025-09-26 15:01:12.856,AH,C,4060082228,AMBUSH51,1,1,48,2,1,1,225,2,1,0,0,9,1,225,2,1,-150464.6575371106,-4790696.266876715,4197924.1787053365,2.33642,2.80367,-0.355327,-96.9871,34.7779,37.0754,-0.157161,-7.13235,6.90177,0.0320651,-0.00380021,0.012882,4,0,41.40373030906082,-91.7989361746111,8759.076282758677,-63.3770142379124,1.0251021767223252,-0.4718002939244435,175.888,8582.48906893005,10960.61793957396,150,True,6.156969610829529,False,176.56788052963662,177.18579251927795,False,5.660970751586098,True,False
11,1970-07-23 11:25:48.738292029,2025-09-16,2025-09-26 15:01:13.829,AH,C,4026231128,JASSM,3,124,76,2,2,1,225,9,2,0,1,26,0,0,0,0,-159965.74450858062,-4786704.424775924,4202667.620573521,-2.3654,-0.396822,0.382632,76.125,-31.75,-33.125,0.0,0.0,0.0,0.0,0.0,0.0,2,0,41.4576652239993,-91.91404179110312,10000.001585272646,119.87705833583598,-0.0030045396506587,0.0057200963230834,,8582.48906893005,10960.61793957396,150,11,2025-09-16,2025-09-26 15:01:13.988,AH,C,4061434294,AMBUSH51,1,1,48,2,1,1,225,2,1,0,0,9,1,225,2,1,-150574.08544034944,-4790656.805747238,4197965.795422894,2.36207,2.80047,-0.356608,-97.2398,34.8276,37.3867,-0.0658983,-7.04626,6.76807,0.0202868,0.00306992,0.00720198,4,0,41.40422557172416,-91.80025843905857,8760.774229740127,-63.20521764186849,0.95463406203176,0.9371179354897382,176.145,8582.48906893005,10960.61793957396,150,True,6.038133573053363,False,176.61707419797912,177.1053778514053,False,5.6609432008664,True,False
11,1970-07-23 11:25:48.749290576,2025-09-16,2025-09-26 15:01:14.929,AH,C,4027541574,JASSM,3,124,76,2,2,1,225,9,2,0,1,26,0,0,0,0,-159882.12439139312,-4786739.475557174,4202631.126432896,-2.3654,-0.396822,0.382632,76.125,-31.75,-33.125,0.0,0.0,0.0,0.0,0.0,0.0,2,0,41.45722699035049,-91.913027995246,10000.00171582892,119.87772953325036,-0.002127429265644,0.0057185913970672,,8582.48906893005,10960.61793957396,150,11,2025-09-16,2025-09-26 15:01:14.788,AH,C,4062388692,AMBUSH51,1,1,48,2,1,1,225,2,1,0,0,9,1,225,2,1,-150651.8198890664,-4790628.762400597,4197995.416770887,2.35583,2.802,-0.357802,-97.3369,34.9398,37.5747,-0.109389,-7.06244,6.98979,-0.0158281,-0.00828805,0.00245406,4,0,41.40457784170327,-91.80119775416598,8762.083300034805,-63.214558691682726,1.0621975276279445,0.6098212034472694,176.438,8582.48906893005,10960.61793957396,150,True,5.938560159158268,False,176.6884823049268,177.0390089233112,False,5.6496711620927,True,False
11,1970-07-23 11:25:48.760311274,2025-09-16,2025-09-26 15:01:16.031,AH,C,4028795656,JASSM,3,124,76,2,2,1,225,9,2,0,1,26,0,0,0,0,-159802.10095389312,-4786773.018525924,4202596.198698521,-2.3654,-0.396822,0.382728,76.125,-31.75,-33.125,0.0,0.0,0.0,0.0,0.0,0.0,2,0,41.4568075767272,-91.91205781777404,9999.998802610258,119.88221980602304,-0.0052082687977348,0.0057169148316858,,8582.48906893005,10960.61793957396,150,11,2025-09-16,2025-09-26 15:01:15.889,AH,C,4063700990,AMBUSH51,1,1,48,2,1,1,225,2,1,0,0,9,1,225,2,1,-150759.49946178758,-4790590.218251901,4198036.232977444,2.32284,2.80182,-0.35889,-97.5389,35.1743,37.2887,-0.0682434,-6.83647,6.62135,-0.0277603,-0.00355262,0.00159894,4,0,41.40506254587611,-91.8024988183331,8764.177717511382,-63.164134770726335,1.1000256635767849,-1.2826829230248022,176.866,8582.48906893005,10960.61793957396,150,True,5.823254305844833,False,176.63717975689195,176.95385859713844,False,5.864007727884369,True,False
11,1970-07-23 11:25:48.771371388,2025-09-16,2025-09-26 15:01:17.137,AH,C,4030106620,JASSM,3,124,76,2,2,1,225,9,2,0,1,26,0,0,0,0,-159718.44714529935,-4786808.082979049,4202559.686979771,-2.3654,-0.396822,0.382728,76.125,-31.75,-33.125,0.0,0.0,0.0,0.0,0.0,0.0,2,0,41.45636913224751,-91.91104364035176,10000.001194624369,119.8828912447332,-0.0043307965803571,0.0057154536028414,,8582.48906893005,10960.61793957396,150,11,2025-09-16,2025-09-26 15:01:17.121,AH,C,4065172356,AMBUSH51,1,1,48,2,1,1,225,2,1,0,0,9,1,225,2,1,-150880.02962606022,-4790546.696793421,4198081.861055166,2.3007,2.79982,-0.351929,-97.9586,35.2035,37.1451,-0.0445808,-6.73985,6.45302,-0.0137933,-0.00425378,-0.00696271,4,0,41.40560692352133,-91.80395531749706,8765.474396873526,-63.37482200582728,0.7452666829111002,-2.5946158106735524,177.294,8582.48906893005,10960.61793957396,150,True,5.697857431854612,False,176.50118873615162,176.8556909215544,False,6.118283726365343,True,False
11,1970-07-23 11:25:48.781409736,2025-09-16,2025-09-26 15:01:18.140,AH,C,4031360580,JASSM,3,124,76,2,2,1,225,9,2,0,1,26,0,0,0,0,-159638.43152029935,-4786841.620088424,4202524.761198521,-2.3654,-0.396822,0.382728,76.125,-31.75,-33.125,0.0,0.0,0.0,0.0,0.0,0.0,2,0,41.455949748340586,-91.91007358419073,9999.997960001632,119.88353346738816,-0.0034914873120787,0.0057140560596721,,8582.48906893005,10960.61793957396,150,11,2025-09-16,2025-09-26 15:01:18.156,AH,C,4066405122,AMBUSH51,1,1,48,2,1,1,225,2,1,0,0,9,1,225,2,1,-150980.78130277002,-4790510.364721726,4198119.361594965,2.28252,2.8044,-0.346417,-98.4409,35.4132,36.5451,-0.121283,-7.01164,6.74489,-0.0127551,0.0016239,0.00815073,4,0,41.40605735161466,-91.80517281189444,8765.293808485863,-63.77387603316085,0.7017631199727793,-3.5513843965247243,178.21,8582.48906893005,10960.61793957396,150,True,5.586856840777841,False,176.25415637842116,176.76326965456585,False,6.5467006021256315,True,False
11,1970-07-23 11:25:48.792264791,2025-09-16,2025-09-26 15:01:19.226,AH,C,4032613466,JASSM,3,124,76,2,2,1,225,9,2,0,1,26,0,0,0,0,-159558.48376639312,-4786875.127900924,4202489.866667271,-2.3654,-0.396822,0.382728,76.125,-31.75,-33.125,0.0,0.0,0.0,0.0,0.0,0.0,2,0,41.45553072798732,-91.90910436367358,10000.00065842638,119.88417513147184,-0.002652898107218,0.0057126734320205,,8582.48906893005,10960.61793957396,150,11,2025-09-16,2025-09-26 15:01:19.221,AH,C,4067677654,AMBUSH51,1,1,48,2,1,1,225,2,1,0,0,9,1,225,2,1,-151087.03474488886,-4790472.457763281,4198158.4624289805,2.27102,2.80698,-0.344412,-99.0052,35.0095,36.3596,-0.140053,-7.08754,6.84916,-0.00153652,-0.00729144,-0.00504648,4,0,41.40652690737686,-91.80645665430522,8765.145673580446,-63.95396705802627,0.7219502374137196,-4.162655329920406,178.674,8582.48906893005,10960.61793957396,150,True,5.472778879330791,False,175.93359964235088,176.66108005051905,False,6.925704526644868,True,False
11,1970-07-23 11:25:48.803334081,2025-09-16,2025-09-26 15:01:20.333,AH,C,4033924374,JASSM,3,124,76,2,2,1,225,9,2,0,1,26,0,0,0,0,-159474.83435233062,-4786910.186494674,4202453.352995396,-2.3654,-0.396726,0.382728,76.125,-31.75,-33.125,0.0,0.0,0.0,0.0,0.0,0.0,2,0,41.45509227821938,-91.908090280907,9999.999075657668,119.88120995274922,-0.005345093370874,0.0036599929460642,,8582.48906893005,10960.61793957396,150,11,2025-09-16,2025-09-26 15:01:20.421,AH,C,4069109252,AMBUSH51,1,1,48,2,1,1,225,2,1,0,0,9,1,225,2,1,-151205.4606180543,-4790430.891680903,4198201.2661296185,2.2642,2.81326,-0.337028,-99.7332,34.6947,35.9316,-0.187237,-7.15375,6.90349,0.00764931,0.0087437,-0.00639263,4,0,41.40704092995917,-91.80788733816829,8764.98523673758,-64.49473294487308,0.6711865967666818,-4.439561992326206,179.298,8582.48906893005,10960.61793957396,150,True,5.349389403452024,False,175.52209673618665,176.54016978753813,False,7.450660231373739,True,False
11,1970-07-23 11:25:48.813310444,2025-09-16,2025-09-26 15:01:21.331,AH,C,4035181424,JASSM,3,124,76,2,2,1,225,9,2,0,1,26,0,0,0,0,-159394.62048514312,-4786943.805635299,4202418.339323521,-2.3654,-0.396726,0.382728,76.125,-31.75,-33.125,0.0,0.0,0.0,0.0,0.0,0.0,2,0,41.45467182732806,-91.90711785996956,10000.004001278705,119.88185372477828,-0.0045037034231864,0.0036585357796258,,8582.48906893005,10960.61793957396,150,11,2025-09-16,2025-09-26 15:01:21.288,AH,C,4070143184,AMBUSH51,1,1,48,2,1,1,225,2,1,0,0,9,1,225,2,1,-151292.08905785438,-4790400.809978142,4198232.235567205,2.32054,2.81836,-0.334225,-100.15,34.3575,35.9811,-0.141564,-7.10906,6.9532,0.0885179,0.00258722,-0.00959882,4,0,41.40741269407269,-91.8089337744532,8764.92920602917,-64.80306662946826,0.7585332937039619,-1.119366441809435,179.799,8582.48906893005,10960.61793957396,150,True,5.247331612190544,False,175.33669117727,176.43823646654312,False,7.68760887350651,True,False
11,1970-07-23 11:25:48.824348327,2025-09-16,2025-09-26 15:01:22.434,AH,C,4036490344,JASSM,3,124,76,2,2,1,225,9,2,0,1,26,0,0,0,0,-159311.09802420562,-4786978.807588424,4202381.878386021,-2.3654,-0.396726,0.382728,76.125,-31.75,-33.125,0.0,0.0,0.0,0.0,0.0,0.0,2,0,41.45423402779724,-91.9061053443276,9999.997764384165,119.88252403500626,-0.0036276107342352,0.00365702008891,,8582.48906893005,10960.61793957396,150,11,2025-09-16,2025-09-26 15:01:22.355,AH,C,4071415716,AMBUSH51,1,1,48,2,1,1,225,2,1,0,0,9,1,225,2,1,-151399.62404371146,-4790363.612914003,4198270.627205572,2.37572,2.82356,-0.3377,-100.201,34.5796,36.0874,-0.215951,-7.29696,6.98553,0.0526047,0.00142417,0.010662,4,0,41.40787295566568,-91.81023271536358,8765.109093303243,-64.85603198474782,1.1000227642318778,2.139636044980302,179.505,8582.48906893005,10960.61793957396,150,True,5.130789666873742,False,175.4309226366814,176.31266940995587,False,7.741275309451304,True,False
11,1970-07-23 11:25:48.835368366,2025-09-16,2025-09-26 15:01:23.536,AH,C,4037743786,JASSM,3,124,76,2,2,1,225,9,2,0,1,26,0,0,0,0,-159231.11462576812,-4787012.327119674,4202346.964323521,-2.3654,-0.396726,0.382728,76.125,-31.75,-33.125,0.0,0.0,0.0,0.0,0.0,0.0,2,0,41.45381477942706,-91.90513574407346,10000.002299689972,119.88316592873592,-0.0027886445204298,0.0036555763610517,,8582.48906893005,10960.61793957396,150,11,2025-09-16,2025-09-26 15:01:23.456,AH,C,4072728014,AMBUSH51,1,1,48,2,1,1,225,2,1,0,0,9,1,225,2,1,-151509.2841875111,-4790325.766126188,4198310.039903703,2.43111,2.81553,-0.347556,-100.146,34.6104,36.9396,-0.0844,-7.30401,6.83031,0.0317842,-0.00199009,0.0105497,4,0,41.40834356091013,-91.81155731315692,8766.079454699318,-64.14967403049968,1.1823592354653572,5.172575736146092,180.373,8582.48906893005,10960.61793957396,150,True,5.015188497725672,False,175.72425207667044,176.1821349736223,False,7.499505973763233,True,False
11,1970-07-23 11:25:48.846228110,2025-09-16,2025-09-26 15:01:24.622,AH,C,4039114640,JASSM,3,124,76,2,2,1,225,9,2,0,1,26,0,0,0,0,-159143.63903983062,-4787048.985322799,4202308.776823521,-2.3654,-0.396726,0.382728,76.125,-31.75,-33.125,0.0,0.0,0.0,0.0,0.0,0.0,2,0,41.453356236778106,-91.90407533439354,10000.003083476777,119.8838679339134,-0.0018710845268237,0.0036539857854679,,8582.48906893005,10960.61793957396,150,11,2025-09-16,2025-09-26 15:01:24.588,AH,C,4074080080,AMBUSH51,1,1,48,2,1,1,225,2,1,0,0,9,1,225,2,1,-151623.34295494764,-4790285.586761642,4198352.296711127,2.4387,2.80801,-0.351175,-99.8828,35.3404,37.8211,-0.0989206,-7.09671,6.80067,-0.00886437,0.00168216,0.0140014,4,0,41.4088463997208,-91.812935370641,8767.834959599364,-63.71948907125025,1.0375292250473562,5.468564826213891,180.336,8582.48906893005,10960.61793957396,150,True,4.891835230989325,False,176.29850549554297,176.04422106038697,False,7.0756642967797605,True,False
11,1970-07-23 11:25:48.858254751,2025-09-16,2025-09-26 15:01:25.825,AH,C,4040486128,JASSM,3,124,76,2,2,1,225,9,2,0,1,26,0,0,0,0,-159056.12341483062,-4787085.657197799,4202270.571745396,-2.3654,-0.396726,0.382824,76.125,-31.75,-33.125,0.0,0.0,0.0,0.0,0.0,0.0,2,0,41.45289749226237,-91.90301445552645,10000.001391845986,119.88841834354398,-0.0048732094671611,0.0036522137867847,,8582.48906893005,10960.61793957396,150,11,2025-09-16,2025-09-26 15:01:25.755,AH,C,4075471912,AMBUSH51,1,1,48,2,1,1,225,2,1,0,0,9,1,225,2,1,-151739.21185743032,-4790244.087701719,4198396.150327737,2.42581,2.79919,-0.360362,-99.6769,35.9308,38.6413,-0.0396939,-7.13678,6.82181,-0.0149376,0.0099442,0.0093117,4,0,41.409367511763534,-91.81433557784509,8769.959419767903,-63.013063008414505,1.0681336497035625,4.566935519285707,180.96,8582.48906893005,10960.61793957396,150,True,4.767049556277027,False,176.78745970539907,175.90240116874682,False,6.7241259984009645,True,False
11,1970-07-23 11:25:48.869269279,2025-09-16,2025-09-26 15:01:26.926,AH,C,4041799424,JASSM,3,124,76,2,2,1,225,9,2,0,1,26,0,0,0,0,-158972.32068045562,-4787120.774385299,4202233.985807896,-2.3654,-0.396726,0.382824,76.125,-31.75,-33.125,0.0,0.0,0.0,0.0,0.0,0.0,2,0,41.45245818258806,-91.90199859849356,10000.00384592077,119.88909084227198,-0.0039941747893923,0.0036507475300044,,8582.48906893005,10960.61793957396,150,11,2025-09-16,2025-09-26 15:01:26.887,AH,C,4076823976,AMBUSH51,1,1,48,2,1,1,225,2,1,0,0,9,1,225,2,1,-151852.72406208763,-4790202.439025586,4198440.261537703,2.43068,2.79168,-0.363053,-99.4598,36.71,39.278,-0.161645,-6.99183,6.61968,-0.00232923,-0.00323637,0.00234587,4,0,41.40989168016742,-91.81570770357072,8772.099946580518,-62.62183646882306,0.8902814625899425,4.7005816048554605,181.363,8582.48906893005,10960.61793957396,150,True,4.64557531812818,False,177.29024676048272,175.76354234848975,False,6.417926811451219,True,False
11,1970-07-23 11:25:48.880229338,2025-09-16,2025-09-26 15:01:28.022,AH,C,4043112382,JASSM,3,124,76,2,2,1,225,9,2,0,1,26,0,0,0,0,-158888.54040701812,-4787155.879854049,4202197.407682896,-2.3654,-0.396726,0.382824,76.125,-31.75,-33.125,0.0,0.0,0.0,0.0,0.0,0.0,2,0,41.45201898194684,-91.90098302834988,10000.00122966813,119.889763145221,-0.0031153763836355,0.003649281535637,,8582.48906893005,10960.61793957396,150,11,2025-09-16,2025-09-26 15:01:28.055,AH,C,4078215808,AMBUSH51,1,1,48,2,1,1,225,2,1,0,0,9,1,225,2,1,-151967.92534986034,-4790159.210739882,4198485.710473923,2.39493,2.78014,-0.371691,-99.2912,37.3376,39.8186,-0.0674375,-7.13654,6.80232,-0.011024,-0.00567482,0.00501527,4,0,41.4104339419192,-91.81710063292547,8773.398947740916,-61.83665253343569,0.8004237640707982,2.4263096121460586,181.864,8582.48906893005,10960.61793957396,150,True,4.522759833300354,False,177.6994384213901,175.6195809170574,False,6.200884864137011,True,False
11,1970-07-23 11:25:48.891256093,2025-09-16,2025-09-26 15:01:29.125,AH,C,4044424268,JASSM,3,124,76,2,2,1,225,9,2,0,1,26,0,0,0,0,-158804.82751639312,-4787190.956025924,4202160.858854771,-2.3654,-0.396726,0.382824,76.125,-31.75,-33.125,0.0,0.0,0.0,0.0,0.0,0.0,2,0,41.45158013105873,-91.89996828911372,10000.000661295511,119.89043489226248,-0.0022372877258187,0.0036478212930174,,8582.48906893005,10960.61793957396,150,11,2025-09-16,2025-09-26 15:01:29.221,AH,C,4079607640,AMBUSH51,1,1,48,2,1,1,225,2,1,0,0,9,1,225,2,1,-152084.49565092678,-4790114.9472799,4198532.096517149,2.38999,2.77371,-0.368405,-99.3266,38.1558,39.8236,-0.16175,-6.74818,6.46281,-0.0076285,-0.00150531,0.00148242,4,0,41.41098841308078,-91.81851033662171,8774.301485375827,-61.7290397868437,0.4256319944972463,2.0114903938430544,182.389,8582.48906893005,10960.61793957396,150,True,4.398977034490462,False,177.96257877887405,175.4686869991334,False,6.256951683292884,True,False
11,1970-07-23 11:25:48.902789369,2025-09-16,2025-09-26 15:01:30.278,AH,C,4045735532,JASSM,3,124,76,2,2,1,225,9,2,0,1,26,0,0,0,0,-158721.15564139312,-4787226.012666549,4202124.327604771,-2.3654,-0.39663,0.382824,76.125,-31.75,-33.125,0.0,0.0,0.0,0.0,0.0,0.0,2,0,41.45114149795588,-91.89895406165245,9999.998529953957,119.88747002594076,-0.0049292505833876,0.0015946398889543,,8582.48906893005,10960.61793957396,150,11,2025-09-16,2025-09-26 15:01:30.388,AH,C,4080999472,AMBUSH51,1,1,48,2,1,1,225,2,1,0,0,9,1,225,2,1,-152199.73287681525,-4790070.089920591,4198578.295935984,2.37292,2.76686,-0.371573,-99.4547,38.7092,40.1089,-0.139029,-7.14483,6.7876,-0.0163712,-0.00174666,0.00911613,4,0,41.41154539308123,-91.81990436034332,8773.243357735548,-61.34268022348537,0.2962205237109246,0.8935340717042444,182.756,8582.48906893005,10960.61793957396,150,True,4.275748140386426,False,178.18752060353242,175.31233739390976,False,6.258880411509915,True,False
11,1970-07-23 11:25:48.911595565,2025-09-16,2025-09-26 15:01:31.159,AH,C,4046869978,JASSM,3,124,76,2,2,1,225,9,2,0,1,26,0,0,0,0,-158648.76403983062,-4787256.342744674,4202092.720182896,-2.3654,-0.39663,0.382824,76.125,-31.75,-33.125,0.0,0.0,0.0,0.0,0.0,0.0,2,0,41.45076198667578,-91.89807657904323,9999.997209639165,119.88805090080577,-0.0041699170968176,0.001593332542318,,8582.48906893005,10960.61793957396,150,11,2025-09-16,2025-09-26 15:01:31.191,AH,C,4081953872,AMBUSH51,1,1,48,2,1,1,225,2,1,0,0,9,1,225,2,1,-152279.35849695574,-4790039.001988817,4198610.4361078255,2.36457,2.76353,-0.371633,-99.6037,38.9285,40.3129,-0.0864457,-6.97357,6.66209,0.0205552,-0.000625219,0.00495494,4,0,41.411932261958,-91.82086764001944,8772.761714766337,-61.21480856244125,0.173806726880804,0.3465002555214633,183.086,8582.48906893005,10960.61793957396,150,True,4.18139599513061,False,178.2811414514275,175.18996103620967,False,6.302816537520188,True,False
11,1970-07-23 11:25:48.921388812,2025-09-16,2025-09-26 15:01:32.138,AH,C,4048003496,JASSM,3,124,76,2,2,1,225,9,2,0,1,26,0,0,0,0,-158576.43298514312,-4787286.647432174,4202061.140104771,-2.3654,-0.39663,0.382824,76.125,-31.75,-33.125,0.0,0.0,0.0,0.0,0.0,0.0,2,0,41.45038279236401,-91.89719984056713,10000.001479817473,119.88863127870188,-0.0034112217779186,0.0015920316860142,,8582.48906893005,10960.61793957396,150,11,2025-09-16,2025-09-26 15:01:32.055,AH,C,4082987804,AMBUSH51,1,1,48,2,1,1,225,2,1,0,0,9,1,225,2,1,-152365.62110897404,-4790005.156963475,4198645.280195557,2.37847,2.76678,-0.368837,-99.7249,39.0952,40.5499,-0.193332,-6.99029,6.69522,0.0105767,0.00488004,-0.000816634,4,0,41.41235252343041,-91.8219112874164,8771.891073072871,-61.45160502703262,0.1837921588731832,1.209493282222508,183.893,8582.48906893005,10960.61793957396,150,True,4.082979549565786,False,178.37738315347147,175.05570761025646,False,6.343343908644007,True,False
11,1970-07-23 11:25:48.931269830,2025-09-16,2025-09-26 15:01:33.126,AH,C,4049196710,JASSM,3,124,76,2,2,1,225,9,2,0,1,26,0,0,0,0,-158500.29333670562,-4787318.545869674,4202027.894011021,-2.3654,-0.39663,0.382824,76.125,-31.75,-33.125,0.0,0.0,0.0,0.0,0.0,0.0,2,0,41.449983614541175,-91.8962769492028,9999.998289270616,119.88924220388378,-0.002612572908933,0.0015906535364505,,8582.48906893005,10960.61793957396,150,11,2025-09-16,2025-09-26 15:01:33.220,AH,C,4084379636,AMBUSH51,1,1,48,2,1,1,225,2,1,0,0,9,1,225,2,1,-152482.68085525464,-4789958.843800839,4198692.886165942,2.38315,2.76787,-0.375064,-99.8661,39.3819,41.0014,-0.0929736,-7.29984,6.91844,0.00487379,0.0051942,-0.00633021,4,0,41.41292727364174,-91.8233277017274,8770.469808290405,-61.24192044326792,0.4789261902891004,1.5015120582570516,184.137,8582.48906893005,10960.61793957396,150,True,3.9631117879533093,False,178.57218364214546,174.8826855778312,False,6.322598155729084,True,False
11,1970-07-23 11:25:48.941314580,2025-09-16,2025-09-26 15:01:34.131,AH,C,4050390164,JASSM,3,124,76,2,2,1,225,9,2,0,1,26,0,0,0,0,-158424.13806326812,-4787350.452119674,4201994.640104771,-2.3654,-0.39663,0.382824,76.125,-31.75,-33.125,0.0,0.0,0.0,0.0,0.0,0.0,2,0,41.44958433314925,-91.89535387926404,10000.000132024388,119.88985324243674,-0.0018137526785488,0.0015892629320054,,8582.48906893005,10960.61793957396,150,11,2025-09-16,2025-09-26 15:01:34.087,AH,C,4085413568,AMBUSH51,1,1,48,2,1,1,225,2,1,0,0,9,1,225,2,1,-152568.58575352264,-4789925.314957143,4198727.815139179,2.38839,2.76734,-0.377822,-99.9285,39.3473,41.2931,-0.168713,-7.28156,6.85889,0.0383173,0.00199841,0.00428082,4,0,41.41334627213261,-91.82436698623768,8770.54481730324,-61.111026069767455,0.5717248287587012,1.7917347058677984,184.662,8582.48906893005,10960.61793957396,150,True,3.86253948058229,False,178.63534578244523,174.73179095885615,False,6.361005202860388,True,False
11,1970-07-23 11:25:48.951608120,2025-09-16,2025-09-26 15:01:35.160,AH,C,4051581460,JASSM,3,124,76,2,2,1,225,9,2,0,1,26,0,0,0,0,-158348.11950858062,-4787382.297822799,4201961.446745396,-2.3654,-0.39663,0.38292,76.125,-31.75,-33.125,0.0,0.0,0.0,0.0,0.0,0.0,2,0,41.44918578632501,-91.89443247905956,9999.999843427437,119.89431141234304,-0.0049363365089618,0.0015876962227184,,8582.48906893005,10960.61793957396,150,11,2025-09-16,2025-09-26 15:01:35.321,AH,C,4086884932,AMBUSH51,1,1,48,2,1,1,225,2,1,0,0,9,1,225,2,1,-152692.1971828398,-4789876.448436762,4198779.060882416,2.42438,2.76897,-0.382277,-99.7757,39.6419,41.9464,-0.240401,-7.21343,6.94935,0.00916398,0.00399786,0.0129299,4,0,41.41395951064803,-91.82586270734257,8771.273271078058,-60.99270792209197,0.8146219173337661,3.889899548563603,185.102,8582.48906893005,10960.61793957396,150,True,3.7385533218641473,False,178.94756153061135,174.53796709796703,False,6.210389484697552,True,False
