Subject_cm,Timestamp,SampleDate_cm,SampleTime_cm,Configuration_cm,Scenario_cm,DisTime_cm,MarkingTxt_cm,Application_cm,EntId_cm,Site_cm,ExerciseId_cm,ForceId_cm,Category_cm,Country_cm,Domain_cm,Kind_cm,Extra_cm,Specific_cm,Subcategory_cm,AltCategory_cm,AltCountry_cm,AltDomain_cm,AltKind_cm,ECEF_X_cm,ECEF_Y_cm,ECEF_Z_cm,OriPhi_cm,OriPsi_cm,OriTheta_cm,LinVelX_cm,LinVelY_cm,LinVelZ_cm,LinAccX_cm,LinAccY_cm,LinAccZ_cm,AngVelX_cm,AngVelY_cm,AngVelZ_cm,DrAlg_cm,Appearance_cm,Latitude_cm,Longitude_cm,Altitude_cm,Heading_cm,Pitch_cm,Roll_cm,CalibratedAirspeed_cm,CM_Altitude_Lead_cm,CM_Altitude_Wing_cm,CM_Airspeed_cm,Subject_ac,SampleDate_ac,SampleTime_ac,Configuration_ac,Scenario_ac,DisTime_ac,MarkingTxt_ac,Application_ac,EntId_ac,Site_ac,ExerciseId_ac,ForceId_ac,Category_ac,Country_ac,Domain_ac,Kind_ac,Extra_ac,Specific_ac,Subcategory_ac,AltCategory_ac,AltCountry_ac,AltDomain_ac,AltKind_ac,ECEF_X_ac,ECEF_Y_ac,ECEF_Z_ac,OriPhi_ac,OriPsi_ac,OriTheta_ac,LinVelX_ac,LinVelY_ac,LinVelZ_ac,LinAccX_ac,LinAccY_ac,LinAccZ_ac,AngVelX_ac,AngVelY_ac,AngVelZ_ac,DrAlg_ac,Appearance_ac,Latitude_ac,Longitude_ac,Altitude_ac,Heading_ac,Pitch_ac,Roll_ac,CalibratedAirspeed_ac,CM_Altitude_Lead_ac,CM_Altitude_Wing_ac,CM_Airspeed_ac,Bank_Angle_Condition,distance_nm,Distance_Condition,angle_between_vel,angle_between_pos,Cone_Condition,angle_between_pos_nose,Nose_Cone_Condition,Intercept_Criteria
11,1970-07-23 11:25:31.868451834,2025-09-16,2025-09-26 14:33:06.845,HH,C,2013620246,JASSM,3,102,76,2,2,1,225,9,2,0,1,26,0,0,0,0,-162835.85095389312,-4785500.641572799,4203919.671354771,-2.36559,-0.397205,0.382249,76.125,-31.75,-33.0,0.0,0.0,0.0,0.0,0.0,0.0,2,0,41.472702029792,-91.94884703399372,9999.999477391371,119.8531699406357,-0.0031493526095784,0.0029894381287392,,8561.873061902648,11079.41924856223,150,11,2025-09-16,2025-09-26 14:33:06.956,HH,C,2048765870,AMBUSH51,1,1,48,2,1,1,225,2,1,0,0,9,1,225,2,1,-146896.58856646944,-4792271.33769105,4196171.0462976415,2.50373,2.441,-0.581329,-78.9184,66.8837,68.3243,-0.202991,-7.25366,6.57593,-0.00157189,0.00163015,-0.0106787,4,0,41.38318284476325,-91.75572695941776,8558.263682680225,-40.94390880132477,-1.5092700245755688,-0.5081340201148767,198.618,8561.873061902648,11079.41924856223,150,True,10.20909870140613,False,160.56321960651937,177.674600401878,False,17.74473714565752,True,False
11,1970-07-23 11:25:31.880035292,2025-09-16,2025-09-26 14:33:08.003,HH,C,2014933688,JASSM,3,102,76,2,2,1,225,9,2,0,1,26,0,0,0,0,-162752.04138358062,-4785535.811494674,4203883.126432896,-2.36559,-0.397205,0.382345,76.125,-31.75,-33.0,0.0,0.0,0.0,0.0,0.0,0.0,2,0,41.47226309043672,-91.9478304556346,9999.99766161479,119.85769057437666,-0.0061910244781987,0.0029876214908988,,8561.873061902648,11079.41924856223,150,11,2025-09-16,2025-09-26 14:33:08.023,HH,C,2050038402,AMBUSH51,1,1,48,2,1,1,225,2,1,0,0,9,1,225,2,1,-146981.40535883643,-4792199.250936291,4196244.590277193,2.47781,2.44231,-0.580886,-79.1918,66.7689,68.8188,-0.0996202,-7.38652,6.57411,-0.0533121,0.000333935,0.00564361,4,0,41.384092739919296,-91.7567664748544,8546.809675099978,-41.01012159703191,-1.4917508955862762,-1.9505643387514944,199.107,8561.873061902648,11079.41924856223,150,True,10.087982536690731,False,160.58195940341213,177.74816562803403,False,17.825860805256582,True,False
11,1970-07-23 11:25:31.890472410,2025-09-16,2025-09-26 14:33:09.047,HH,C,2016244870,JASSM,3,102,76,2,2,1,225,9,2,0,1,26,0,0,0,0,-162668.37536795562,-4785570.920869674,4203846.644011021,-2.36559,-0.397205,0.382345,76.125,-31.75,-33.0,0.0,0.0,0.0,0.0,0.0,0.0,2,0,41.4718248951002,-91.9468156323436,9999.99980725924,119.85836264585156,-0.0053134144082875,0.0029861514225901,,8561.873061902648,11079.41924856223,150,11,2025-09-16,2025-09-26 14:33:09.022,HH,C,2051231400,AMBUSH51,1,1,48,2,1,1,225,2,1,0,0,9,1,225,2,1,-147060.45233991998,-4792132.780034775,4196312.471855685,2.42582,2.44406,-0.579419,-79.7805,66.7868,68.6361,-0.119023,-7.34102,6.5474,-0.041615,-0.00183612,-0.00914525,4,0,41.384932042325936,-91.75773504153722,8536.464618580352,-41.12828788072236,-1.5089882467625562,-4.870825977669962,199.657,8561.873061902648,11079.41924856223,150,True,9.971930590945124,False,160.82481150497625,177.8123878242203,False,17.69836097078908,True,False
11,1970-07-23 11:25:31.902231408,2025-09-16,2025-09-26 14:33:10.223,HH,C,2017556532,JASSM,3,102,76,2,2,1,225,9,2,0,1,26,0,0,0,0,-162584.67907889312,-4785606.041963424,4203810.145964146,-2.36559,-0.397205,0.382345,76.125,-31.75,-33.0,0.0,0.0,0.0,0.0,0.0,0.0,2,0,41.47138652173749,-91.94580045592836,9999.99918313254,119.85903494534428,-0.0044354817625214,0.0029846715451746,,8561.873061902648,11079.41924856223,150,11,2025-09-16,2025-09-26 14:33:10.155,HH,C,2052583466,AMBUSH51,1,1,48,2,1,1,225,2,1,0,0,9,1,225,2,1,-147151.94075349256,-4792056.790544369,4196390.016287496,2.36407,2.45545,-0.572338,-80.8144,66.5091,68.1252,-0.130191,-7.3606,6.63998,-0.0593646,0.00720614,0.00238748,4,0,41.38589092832459,-91.75885573995222,8524.607295366333,-41.81058844120712,-1.5103603208868095,-8.035671790443553,200.024,8561.873061902648,11079.41924856223,150,True,9.846317498719676,False,161.35286116949027,177.88303301863945,False,17.30577920828049,True,False
11,1970-07-23 11:25:31.912272048,2025-09-16,2025-09-26 14:33:11.227,HH,C,2018809786,JASSM,3,102,76,2,2,1,225,9,2,0,1,26,0,0,0,0,-162504.70935233062,-4785639.598604049,4203775.272917271,-2.36559,-0.397205,0.382345,76.125,-31.75,-33.0,0.0,0.0,0.0,0.0,0.0,0.0,2,0,41.47096766213024,-91.94483049312343,10000.001329458371,119.85967729671376,-0.0035966408551475,0.0029832605914905,,8561.873061902648,11079.41924856223,150,11,2025-09-16,2025-09-26 14:33:11.323,HH,C,2053975298,AMBUSH51,1,1,48,2,1,1,225,2,1,0,0,9,1,225,2,1,-147247.04763873547,-4791979.3310258575,4196468.73924292,2.29225,2.47014,-0.564595,-82.3429,65.9404,67.3759,-0.104893,-7.45679,6.66455,-0.0609292,0.00850027,-0.0120206,4,0,41.386865844442696,-91.76002023593696,8511.973465149964,-42.64513106915856,-1.4402773675577285,-11.67626769610947,200.659,8561.873061902648,11079.41924856223,150,False,9.720911301929123,False,162.16199458988237,177.94878842760957,False,16.63521495338979,True,False
11,1970-07-23 11:25:31.923296932,2025-09-16,2025-09-26 14:33:12.329,HH,C,2020121582,JASSM,3,102,76,2,2,1,225,9,2,0,1,26,0,0,0,0,-162421.00427420562,-4785674.719697799,4203738.770964146,-2.36559,-0.397205,0.382345,76.125,-31.75,-33.125,0.0,0.0,0.0,0.0,0.0,0.0,2,0,41.47052924661891,-91.94381523835128,10000.001102555429,119.86034963667112,-0.0027186275491874,0.0029817985453417,,8561.873061902648,11079.41924856223,150,11,2025-09-16,2025-09-26 14:33:12.322,HH,C,2055168296,AMBUSH51,1,1,48,2,1,1,225,2,1,0,0,9,1,225,2,1,-147329.82903132768,-4791914.133878559,4196534.70214912,2.18805,2.4962,-0.54997,-84.2604,65.1696,66.1069,-0.176086,-7.54907,6.69038,-0.117946,0.0110136,-0.0317967,4,0,41.387683906983945,-91.76103303033204,8500.908990264488,-44.16213328648306,-1.3348994243629353,-16.819597400857067,200.989,8561.873061902648,11079.41924856223,150,False,9.603910507782295,False,163.30157752276907,178.0691566801811,False,15.672058539891635,True,False
11,1970-07-23 11:25:31.934310563,2025-09-16,2025-09-26 14:33:13.431,HH,C,2021434598,JASSM,3,102,76,2,2,1,225,9,2,0,1,26,0,0,0,0,-162337.22155936187,-4785709.873994674,4203702.231901646,-2.36559,-0.397205,0.382345,76.125,-31.75,-33.125,0.0,0.0,0.0,0.0,0.0,0.0,2,0,41.47009038978669,-91.94279905537176,10000.000275502456,119.86102258547167,-0.0018397868631457,0.0029803129260613,,8561.873061902648,11079.41924856223,150,11,2025-09-16,2025-09-26 14:33:13.322,HH,C,2056361296,AMBUSH51,1,1,48,2,1,1,225,2,1,0,0,9,1,225,2,1,-147416.07168475786,-4791849.077974658,4196600.330277741,2.07651,2.51686,-0.536219,-86.8638,63.7794,64.5921,-0.0492369,-7.66046,6.85725,-0.0382798,0.0115255,-0.0348135,4,0,41.38849822735228,-91.76208714618645,8489.735739978782,-45.44688464796537,-1.327606673899011,-22.569078868589145,201.722,8561.873061902648,11079.41924856223,150,False,9.485415245880988,False,164.8091352383863,178.1064717503266,False,14.282489687700167,True,False
11,1970-07-23 11:25:31.945431290,2025-09-16,2025-09-26 14:33:14.543,HH,C,2022806256,JASSM,3,102,76,2,2,1,225,9,2,0,1,26,0,0,0,0,-162249.69665701812,-4785746.596650924,4203664.061979771,-2.36559,-0.397205,0.382345,76.125,-31.75,-33.125,0.0,0.0,0.0,0.0,0.0,0.0,2,0,41.46963194037044,-91.94173749956126,10000.002747320648,119.86172557535568,-0.0009217021602478,0.0029787768941731,,8561.873061902648,11079.41924856223,150,11,2025-09-16,2025-09-26 14:33:14.655,HH,C,2057951960,AMBUSH51,1,1,48,2,1,1,225,2,1,0,0,9,1,225,2,1,-147534.60100734603,-4791765.033546791,4196684.126153128,2.02595,2.5586,-0.49856,-90.7779,62.0767,61.4405,-0.109041,-7.64317,6.78881,-0.0277645,0.0105143,-0.0228293,4,0,41.389542245669794,-91.76353396243672,8473.709530259022,-48.42227936278208,-1.6902923201633844,-24.20433072347333,202.162,8561.873061902648,11079.41924856223,150,False,9.342365421205132,False,167.15257892189334,178.1414727540616,False,12.15126645771183,True,False
11,1970-07-23 11:25:31.956470876,2025-09-16,2025-09-26 14:33:15.647,HH,C,2024060350,JASSM,3,102,76,2,2,1,225,9,2,0,1,26,0,0,0,0,-162169.67321951812,-4785780.170869674,4203629.161589146,-2.36559,-0.397109,0.382345,76.125,-31.75,-33.125,0.0,0.0,0.0,0.0,0.0,0.0,2,0,41.46921276812618,-91.94076693964703,10000.003010125954,119.85873068683804,-0.003651949177004,0.0009279969750956,,8561.873061902648,11079.41924856223,150,11,2025-09-16,2025-09-26 14:33:15.656,HH,C,2059144958,AMBUSH51,1,1,48,2,1,1,225,2,1,0,0,9,1,225,2,1,-147626.5212297014,-4791704.119302218,4196743.724473458,1.99557,2.5802,-0.478876,-93.9146,60.5962,58.7976,-0.0577947,-7.71025,6.71117,-0.00695231,-0.00195472,-0.0291273,4,0,41.390290154534334,-91.76465444191884,8460.094875970442,-49.98579619569657,-1.8498538312409931,-25.31564415352137,202.993,8561.873061902648,11079.41924856223,150,False,9.225778319382341,False,169.05349151084445,178.15180338079546,False,10.433322542923353,True,False
11,1970-07-23 11:25:31.967230501,2025-09-16,2025-09-26 14:33:16.723,HH,C,2025370986,JASSM,3,102,76,2,2,1,225,9,2,0,1,26,0,0,0,0,-162086.04187186187,-4785815.256807174,4203592.686979771,-2.36559,-0.397109,0.382345,76.125,-31.75,-33.125,0.0,0.0,0.0,0.0,0.0,0.0,2,0,41.46877469553745,-91.93975263556116,10000.00163640678,119.85940237394388,-0.0027747065668939,0.0009264734069818,,8561.873061902648,11079.41924856223,150,11,2025-09-16,2025-09-26 14:33:16.722,HH,C,2060417490,AMBUSH51,1,1,48,2,1,1,225,2,1,0,0,9,1,225,2,1,-147729.27312986628,-4791640.034855233,4196805.213683254,1.98272,2.60734,-0.446299,-97.0905,58.7533,56.2335,-0.0927043,-7.55326,6.83974,-0.000119634,0.0111114,-0.0364427,4,0,41.39106769168328,-91.76590551227852,8443.61246703336,-52.26067314879315,-2.3547317873230265,-25.27444696484401,203.873,8561.873061902648,11079.41924856223,150,False,9.100984340411276,False,171.01446188574528,178.15049751615757,False,8.67248400772208,True,False
11,1970-07-23 11:25:31.978251053,2025-09-16,2025-09-26 14:33:17.825,HH,C,2026623686,JASSM,3,102,76,2,2,1,225,9,2,0,1,26,0,0,0,0,-162006.10730154935,-4785848.791963424,4203557.823698521,-2.36559,-0.397109,0.382441,76.125,-31.75,-33.125,0.0,0.0,0.0,0.0,0.0,0.0,2,0,41.46835597148,-91.9387831797227,10000.003131967884,119.863891891796,-0.005856886912485,0.0009247491666066,,8561.873061902648,11079.41924856223,150,11,2025-09-16,2025-09-26 14:33:17.889,HH,C,2061809322,AMBUSH51,1,1,48,2,1,1,225,2,1,0,0,9,1,225,2,1,-147845.32343272283,-4791572.286569046,4196868.636110146,1.96958,2.63348,-0.420986,-100.663,56.6864,53.0706,0.126259,-7.77281,6.82398,0.00612215,0.0042621,-0.0197064,4,0,41.39187762259747,-91.76731683075734,8423.32915780686,-54.24218391250877,-2.5397082472924093,-25.313269550277965,204.484,8561.873061902648,11079.41924856223,150,False,8.97134046080397,False,173.20502958346796,178.1360583247832,False,6.80751034375368,True,False
11,1970-07-23 11:25:31.989641175,2025-09-16,2025-09-26 14:33:18.964,HH,C,2027936036,JASSM,3,102,76,2,2,1,225,9,2,0,1,26,0,0,0,0,-161922.36657889312,-4785883.920869674,4203521.298307896,-2.36559,-0.397109,0.382441,76.125,-31.75,-33.125,0.0,0.0,0.0,0.0,0.0,0.0,2,0,41.46791730499789,-91.93776757703928,9999.997518497274,119.86456442752166,-0.0049784958738261,0.0009232791382483,,8561.873061902648,11079.41924856223,150,11,2025-09-16,2025-09-26 14:33:18.989,HH,C,2063121622,AMBUSH51,1,1,48,2,1,1,225,2,1,0,0,9,1,225,2,1,-147956.95417324975,-4791511.431414708,4196924.589608818,1.96434,2.66874,-0.393786,-103.866,54.4481,50.2862,-0.116571,-8.53628,7.36541,-0.00275159,0.0286425,-0.0345327,4,0,41.39259691591199,-91.76867284634729,8403.476576084733,-56.66607721074475,-2.4429238117677823,-24.707609119930524,205.352,8561.873061902648,11079.41924856223,150,False,8.844226309441696,False,175.17353100172454,178.11020412667645,False,5.264056438436174,True,False
11,1970-07-23 11:25:31.999310754,2025-09-16,2025-09-26 14:33:19.931,HH,C,2029188736,JASSM,3,102,76,2,2,1,225,9,2,0,1,26,0,0,0,0,-161842.43249686187,-4785917.454072799,4203486.433073521,-2.36559,-0.397109,0.382441,76.125,-31.75,-33.125,0.0,0.0,0.0,0.0,0.0,0.0,2,0,41.467498562512446,-91.93679815337454,9999.999197786818,119.86520637788048,-0.0041400297725202,0.0009218688998653,,8561.873061902648,11079.41924856223,150,11,2025-09-16,2025-09-26 14:33:19.922,HH,C,2064235086,AMBUSH51,1,1,48,2,1,1,225,2,1,0,0,9,1,225,2,1,-148056.5068643739,-4791461.408506755,4196970.694208233,1.97371,2.71338,-0.377368,-106.851,51.214,48.2542,-0.311435,-9.52269,8.62828,0.029945,0.0301572,-0.0371417,4,0,41.39318747988853,-91.76988060513884,8387.99797833644,-59.03867324901533,-1.5022012854200513,-23.1270413974567,206.036,8561.873061902648,11079.41924856223,150,False,8.729182656509643,False,177.23401649522503,178.08029521252087,False,3.7321903996170054,True,False
11,1970-07-23 11:25:32.009453483,2025-09-16,2025-09-26 14:33:20.945,HH,C,2030442546,JASSM,3,102,76,2,2,1,225,9,2,0,1,26,0,0,0,0,-161762.42712576812,-4785951.014619674,4203451.536589146,-2.36549,-0.397109,0.382441,76.125,-31.75,-33.125,0.0,0.0,0.0,0.0,0.0,0.0,2,0,41.46707945257663,-91.93582787865898,9999.998735706584,119.86584888646593,-0.0033008235776861,0.0064119414017203,,8561.873061902648,11079.41924856223,150,11,2025-09-16,2025-09-26 14:33:20.956,HH,C,2065467852,AMBUSH51,1,1,48,2,1,1,225,2,1,0,0,9,1,225,2,1,-148167.97941662266,-4791411.21456539,4197019.094374849,1.96671,2.76626,-0.367316,-109.844,46.2816,46.9146,-0.244352,-10.3137,9.22072,0.0020421,0.0423703,-0.0254634,4,0,41.39379235638853,-91.77123085250037,8377.99282814023,-61.46015024790048,0.0604527303660048,-22.39487582943443,206.17,8561.873061902648,11079.41924856223,150,False,8.608147832434385,False,179.55890816522742,178.046837466185,False,2.3927753662522493,True,False
11,1970-07-23 11:25:32.022412871,2025-09-16,2025-09-26 14:33:22.241,HH,C,2031695656,JASSM,3,102,76,2,2,1,225,9,2,0,1,26,0,0,0,0,-161682.46618826812,-4785984.555635299,4203416.657682896,-2.36549,-0.397109,0.382441,76.125,-31.75,-33.125,0.0,0.0,0.0,0.0,0.0,0.0,2,0,41.46666056035665,-91.93485815566416,9999.99665487278,119.866491024372,-0.0024620802288428,0.0064105364839279,,8561.873061902648,11079.41924856223,150,11,2025-09-16,2025-09-26 14:33:22.222,HH,C,2066978984,AMBUSH51,1,1,48,2,1,1,225,2,1,0,0,9,1,225,2,1,-148310.2303374716,-4791356.113166268,4197076.636359944,1.92826,2.81018,-0.346313,-113.041,40.5456,44.2686,-0.04477,-9.37806,8.11509,0.00530656,0.0305088,-0.0338232,4,0,41.39448246777307,-91.77295064083214,8378.099954503627,-63.97447237931075,0.8939769852153177,-23.74013373943339,206.097,8561.873061902648,11079.41924856223,150,False,8.4702451960693,False,176.82625834857097,178.00825854450068,False,4.039726006997636,True,False
11,1970-07-23 11:25:32.031256049,2025-09-16,2025-09-26 14:33:23.125,HH,C,2033007642,JASSM,3,102,76,2,2,1,225,9,2,0,1,26,0,0,0,0,-161598.74841483062,-4786019.672822799,4203380.140104771,-2.36549,-0.397109,0.382441,76.125,-31.75,-33.125,0.0,0.0,0.0,0.0,0.0,0.0,2,0,41.46622197696036,-91.93384288505024,10000.000151246666,119.86716331760188,-0.0015839290284432,0.0064090643452827,,8561.873061902648,11079.41924856223,150,11,2025-09-16,2025-09-26 14:33:23.088,HH,C,2068012916,AMBUSH51,1,1,48,2,1,1,225,2,1,0,0,9,1,225,2,1,-148408.48734222483,-4791322.892207087,4197113.33689877,1.90796,2.84962,-0.329765,-114.933,36.5617,42.312,-0.0631569,-9.54759,8.53979,-0.0256797,0.0236595,-0.0341498,4,0,41.39490978431928,-91.77413678103846,8383.479571077209,-66.13654280898606,1.7747121377615378,-24.20426123936108,205.779,8561.873061902648,11079.41924856223,150,False,8.358664239589348,False,174.6769461662306,177.97496892660195,False,5.95972073160237,True,False
11,1970-07-23 11:25:32.042822235,2025-09-16,2025-09-26 14:33:24.282,HH,C,2034319908,JASSM,3,102,76,2,2,1,225,9,2,0,1,26,0,0,0,0,-161515.01306326812,-4786054.795869674,4203343.612761021,-2.36549,-0.397013,0.382441,76.125,-31.75,-33.125,0.0,0.0,0.0,0.0,0.0,0.0,2,0,41.46578328734756,-91.93282741556048,10000.0002919931,119.8641983924082,-0.0042752331797565,0.0043577683205918,,8561.873061902648,11079.41924856223,150,11,2025-09-16,2025-09-26 14:33:24.289,HH,C,2069444514,AMBUSH51,1,1,48,2,1,1,225,2,1,0,0,9,1,225,2,1,-148547.38202272909,-4791281.837485703,4197161.341770267,1.89153,2.88347,-0.302897,-116.818,32.1853,38.8372,-0.101499,-8.33304,7.29442,0.00922848,0.0125304,-0.0421851,4,0,41.39545251936683,-91.77581132959466,8397.217710862948,-68.52321926809093,2.0636894891453923,-24.621670209056507,204.875,8561.873061902648,11079.41924856223,150,False,8.224671995373223,False,172.05078368291106,177.9280997338866,False,8.626893978219345,True,False
11,1970-07-23 11:25:32.054273786,2025-09-16,2025-09-26 14:33:25.427,HH,C,2035690840,JASSM,3,102,76,2,2,1,225,9,2,0,1,26,0,0,0,0,-161427.53405936187,-4786091.487275924,4203305.452604771,-2.36549,-0.397013,0.382441,76.125,-31.75,-33.125,0.0,0.0,0.0,0.0,0.0,0.0,2,0,41.46532498833752,-91.93176656171062,10000.001520990609,119.86490085774832,-0.0033576336271412,0.0043561779876712,,8561.873061902648,11079.41924856223,150,11,2025-09-16,2025-09-26 14:33:25.521,HH,C,2070915880,AMBUSH51,1,1,48,2,1,1,225,2,1,0,0,9,1,225,2,1,-148691.98684308655,-4791243.932616924,4197205.941365393,1.89021,2.91171,-0.269499,-118.337,29.0483,34.8328,-0.155392,-7.78012,6.77656,0.00206915,0.0249994,-0.0241151,4,0,41.39595244608688,-91.77755295464772,8411.764543628587,-70.98438017363503,1.9033401120936084,-24.32589682272853,204.264,8561.873061902648,11079.41924856223,150,False,8.087076486861346,False,169.74837623098003,177.86468220844654,False,11.115959322012923,True,False
11,1970-07-23 11:25:32.064830444,2025-09-16,2025-09-26 14:33:26.483,HH,C,2036945292,JASSM,3,102,76,2,2,1,225,9,2,0,1,26,0,0,0,0,-161347.48767264312,-4786125.059541549,4203270.532682896,-2.36549,-0.397013,0.382441,76.125,-31.75,-33.125,0.0,0.0,0.0,0.0,0.0,0.0,2,0,41.464905616185305,-91.93079585663062,9999.998843508398,119.86554362370563,-0.002517996058444,0.0043547192591474,,8561.873061902648,11079.41924856223,150,11,2025-09-16,2025-09-26 14:33:26.324,HH,C,2071870278,AMBUSH51,1,1,48,2,1,1,225,2,1,0,0,9,1,225,2,1,-148787.46716411848,-4791221.1767317215,4197232.254874468,1.89097,2.92805,-0.252225,-119.253,27.1294,32.0061,-0.0808204,-7.74779,6.9002,0.0164044,0.000928986,-0.0316739,4,0,41.396247842952135,-91.77870209301152,8420.164534670255,-72.32686459622518,1.9020389560906832,-24.0851483048831,203.91,8561.873061902648,11079.41924856223,150,False,7.983333285577517,False,168.2143296614512,177.80822896401085,False,12.790038145410055,True,False
11,1970-07-23 11:25:32.076009869,2025-09-16,2025-09-26 14:33:27.600,HH,C,2038255888,JASSM,3,102,76,2,2,1,225,9,2,0,1,26,0,0,0,0,-161263.85827811187,-4786160.133760299,4203234.050261021,-2.36549,-0.397013,0.382536,76.125,-31.75,-33.125,0.0,0.0,0.0,0.0,0.0,0.0,2,0,41.46446747207395,-91.92978171487862,10000.000138572368,119.87006282270484,-0.0055612905253433,0.0043529607176248,,8561.873061902648,11079.41924856223,150,11,2025-09-16,2025-09-26 14:33:27.588,HH,C,2073381410,AMBUSH51,1,1,48,2,1,1,225,2,1,0,0,9,1,225,2,1,-148940.21387106908,-4791188.108124323,4197269.920224782,1.9033,2.9512,-0.217808,-120.475,24.1997,28.1894,-0.122697,-7.61022,6.74668,0.0240631,0.00933043,-0.0238155,4,0,41.396670631790776,-91.78053923285552,8432.207490266883,-74.65540907124775,1.5297755714855057,-23.139598573017324,203.433,8561.873061902648,11079.41924856223,150,False,7.846935047983747,False,166.00522024044116,177.70693535582947,False,15.196071834555788,True,False
11,1970-07-23 11:25:32.086270054,2025-09-16,2025-09-26 14:33:28.627,HH,C,2039508688,JASSM,3,102,76,2,2,1,225,9,2,0,1,26,0,0,0,0,-161183.91736014312,-4786193.661104049,4203199.175261021,-2.36549,-0.397013,0.382536,76.125,-31.75,-33.125,0.0,0.0,0.0,0.0,0.0,0.0,2,0,41.46404863245324,-91.92881231460832,10000.002594449908,119.87070471384664,-0.0047227576005578,0.0043515572299147,,8561.873061902648,11079.41924856223,150,11,2025-09-16,2025-09-26 14:33:28.621,HH,C,2074614176,AMBUSH51,1,1,48,2,1,1,225,2,1,0,0,9,1,225,2,1,-149065.0176424487,-4791163.96478072,4197296.6397371385,1.91863,2.97357,-0.194291,-121.276,21.987,24.8177,-0.156697,-7.80625,6.97464,0.0166437,0.0213667,-0.0366403,4,0,41.39697156640222,-91.78203924007384,8440.332989251556,-76.49788314751083,1.5590081625269288,-22.048835419888004,202.92,8561.873061902648,11079.41924856223,150,False,7.729665426460612,False,164.18955866519443,177.60278997381047,False,17.2040043403979,True,False
11,1970-07-23 11:25:32.097295620,2025-09-16,2025-09-26 14:33:29.729,HH,C,2040821244,JASSM,3,102,76,2,2,1,225,9,2,0,1,26,0,0,0,0,-161100.16296561187,-4786228.786104049,4203162.634245396,-2.36549,-0.397013,0.382536,76.125,-31.75,-33.125,0.0,0.0,0.0,0.0,0.0,0.0,2,0,41.46360979825102,-91.927796684447,10000.00064560236,119.87137721052396,-0.0038442211632892,0.0043500816450622,,8561.873061902648,11079.41924856223,150,11,2025-09-16,2025-09-26 14:33:29.588,HH,C,2075767408,AMBUSH51,1,1,48,2,1,1,225,2,1,0,0,9,1,225,2,1,-149182.51341178306,-4791143.839728083,4197318.732494744,1.92806,2.99826,-0.177085,-121.942,19.1966,22.2604,-0.112449,-8.13005,7.16936,0.0137454,0.00657988,-0.028938,4,0,41.39721869288827,-91.783450455652,8447.754073813641,-78.1618617383072,1.9376433485453397,-21.29770088524337,202.309,8561.873061902648,11079.41924856223,150,False,7.615145118660619,False,162.44178059565186,177.48644595809913,False,19.097948377058138,True,False
11,1970-07-23 11:25:32.107329122,2025-09-16,2025-09-26 14:33:30.732,HH,C,2042075368,JASSM,3,102,76,2,2,1,225,9,2,0,1,26,0,0,0,0,-161020.13708670562,-4786262.344697799,4203127.720182896,-2.36549,-0.397013,0.382536,76.125,-31.75,-33.125,0.0,0.0,0.0,0.0,0.0,0.0,2,0,41.463190509307765,-91.92682628124648,9999.997194798503,119.8720197548277,-0.0030048043603692,0.0043486868873382,,8561.873061902648,11079.41924856223,150,11,2025-09-16,2025-09-26 14:33:30.588,HH,C,2076960406,AMBUSH51,1,1,48,2,1,1,225,2,1,0,0,9,1,225,2,1,-149304.8981156831,-4791125.691842815,4197339.007538782,1.93837,3.02414,-0.157913,-122.585,16.2702,19.6733,-0.226496,-8.54903,7.67366,0.0126469,0.0237261,-0.0307127,4,0,41.39744086130885,-91.78491935356308,8456.477478949551,-79.95646727734025,2.3002182105391946,-20.526175109091344,201.832,8561.873061902648,11079.41924856223,150,False,7.50161280335364,False,160.63628860500228,177.34943559557152,False,21.07272534995367,True,False
11,1970-07-23 11:25:32.118011796,2025-09-16,2025-09-26 14:33:31.801,HH,C,2043328198,JASSM,3,102,76,2,2,1,225,9,2,0,1,26,0,0,0,0,-160940.19421561187,-4786295.870088424,4203092.841276646,-2.36549,-0.397013,0.382536,76.125,-31.75,-33.125,0.0,0.0,0.0,0.0,0.0,0.0,2,0,41.46277163036833,-91.92585689644524,9999.999882675593,119.87266161947376,-0.0021662494514968,0.0043472792963747,,8561.873061902648,11079.41924856223,150,11,2025-09-16,2025-09-26 14:33:31.955,HH,C,2078590838,AMBUSH51,1,1,48,2,1,1,225,2,1,0,0,9,1,225,2,1,-149471.81117755244,-4791106.0037217615,4197362.634129622,1.94664,3.05154,-0.132175,-123.011,12.3697,16.2542,-0.136884,-7.63797,6.94903,0.0134542,0.0131941,-0.0316302,4,0,41.3976865386051,-91.78692082134582,8472.1082525381,-82.09340944531921,2.487457488814911,-19.91489812544483,201.062,8561.873061902648,11079.41924856223,150,False,7.3671521707928065,False,158.2639870651847,177.14028771521401,False,23.705502231712014,True,False
11,1970-07-23 11:25:32.128586386,2025-09-16,2025-09-26 14:33:32.858,HH,C,2044640062,JASSM,3,102,76,2,2,1,225,9,2,0,1,26,0,0,0,0,-160856.48376639312,-4786330.973604049,4203056.317839146,-2.36549,-0.396918,0.382536,76.125,-31.75,-33.125,0.0,0.0,0.0,0.0,0.0,0.0,2,0,41.46233300768226,-91.92484184023256,10000.00128716997,119.86969664358004,-0.0048578134605514,0.0022955398753135,,8561.873061902648,11079.41924856223,150,11,2025-09-16,2025-09-26 14:33:32.821,HH,C,2079624770,AMBUSH51,1,1,48,2,1,1,225,2,1,0,0,9,1,225,2,1,-149579.07067920058,-4791095.738119336,4197375.192802271,1.95741,3.0661,-0.114578,-123.086,10.5678,13.7393,-0.10977,-7.51231,6.65946,0.0357061,0.00254353,-0.0274815,4,0,41.39781248370306,-91.78820609492196,8482.337257696592,-83.39939473990113,2.442260023709345,-19.25104405393344,200.769,8561.873061902648,11079.41924856223,150,False,7.261574644701016,False,156.87478768396562,176.97774820563876,False,25.3175835766134,True,False
11,1970-07-23 11:25:32.140508914,2025-09-16,2025-09-26 14:33:34.050,HH,C,2045951972,JASSM,3,102,76,2,2,1,225,9,2,0,1,26,0,0,0,0,-160772.77087576812,-4786366.075166549,4203019.792448521,-2.36549,-0.396918,0.382536,76.125,-31.75,-33.125,0.0,0.0,0.0,0.0,0.0,0.0,2,0,41.46189437495402,-91.9238267692924,9999.998367617214,119.87036874720138,-0.0039797233354355,0.0022940248533996,,8561.873061902648,11079.41924856223,150,11,2025-09-16,2025-09-26 14:33:33.889,HH,C,2080897302,AMBUSH51,1,1,48,2,1,1,225,2,1,0,0,9,1,225,2,1,-149709.47247206562,-4791085.377151411,4197387.721045806,1.9836,3.08338,-0.0938967,-123.139,8.54832,10.9867,-0.251125,-7.58229,6.82577,0.0360369,0.00501527,-0.025428,4,0,41.39793447465356,-91.78976789262764,8494.050386780073,-84.94197385416507,2.399102226943904,-17.71255436026583,199.987,8561.873061902648,11079.41924856223,150,False,7.145727228639021,False,155.32834416667274,176.76148966826153,False,27.14634751301293,True,False
11,1970-07-23 11:25:32.151271397,2025-09-16,2025-09-26 14:33:35.127,HH,C,2047264658,JASSM,3,102,76,2,2,1,225,9,2,0,1,26,0,0,0,0,-160689.00818045562,-4786401.198213424,4202983.243620396,-2.36549,-0.396918,0.382536,76.125,-31.75,-33.125,0.0,0.0,0.0,0.0,0.0,0.0,2,0,41.46145545717468,-91.9228111078906,9999.998139171234,119.87104123593072,-0.0031011030543295,0.0022924958960732,,8561.873061902648,11079.41924856223,150,11,2025-09-16,2025-09-26 14:33:35.088,HH,C,2082328902,AMBUSH51,1,1,48,2,1,1,225,2,1,0,0,9,1,225,2,1,-149857.2953769144,-4791076.151786525,4197399.044331986,2.00744,3.09746,-0.0708836,-123.21,5.38821,9.99123,-0.191687,-7.44871,6.74009,0.0141741,0.00412686,-0.0134001,4,0,41.39803831206663,-91.79153740304628,8507.291876845315,-86.46506073294283,2.132350979022527,-16.340497558010348,199.547,8561.873061902648,11079.41924856223,150,False,7.02274480925003,False,153.96047877235694,176.49093220772357,False,28.775835390564612,True,False
11,1970-07-23 11:25:32.162274125,2025-09-16,2025-09-26 14:33:36.227,HH,C,2048577088,JASSM,3,102,76,2,2,1,225,9,2,0,1,26,0,0,0,0,-160605.26159842435,-4786436.313447799,4202946.702604771,-2.36549,-0.396918,0.382536,76.125,-31.75,-33.125,0.0,0.0,0.0,0.0,0.0,0.0,2,0,41.46101662639147,-91.92179565598654,10000.001938341078,119.8717135800948,-0.0022226577578999,0.0022909770601668,,8561.873061902648,11079.41924856223,150,11,2025-09-16,2025-09-26 14:33:36.288,HH,C,2083760500,AMBUSH51,1,1,48,2,1,1,225,2,1,0,0,9,1,225,2,1,-150005.5330618056,-4791069.102562375,4197406.662690602,2.06604,3.11643,-0.0532934,-122.941,4.4333,5.94473,-0.103363,-7.64362,6.66572,0.0814584,0.00452633,-0.0235492,4,0,41.398104085619565,-91.7933110583022,8517.891505668913,-87.94054664879467,2.2821158310800502,-12.972379739115382,199.351,8561.873061902648,11079.41924856223,150,False,6.901097767054238,False,152.34349042776145,176.18598057912257,False,30.82143834096963,False,False
11,1970-07-23 11:25:32.174010048,2025-09-16,2025-09-26 14:33:37.401,HH,C,2049949254,JASSM,3,102,76,2,2,1,225,9,2,0,1,26,0,0,0,0,-160517.70300467435,-4786473.024385299,4202908.495573521,-2.36549,-0.396918,0.382632,76.125,-31.75,-33.125,0.0,0.0,0.0,0.0,0.0,0.0,2,0,41.46055780871752,-91.92073399803884,9999.998650812007,119.87626432940074,-0.0052245990287119,0.0022891673458528,,8561.873061902648,11079.41924856223,150,11,2025-09-16,2025-09-26 14:33:37.422,HH,C,2085112566,AMBUSH51,1,1,48,2,1,1,225,2,1,0,0,9,1,225,2,1,-150144.0248689457,-4791064.781459853,4197411.924906464,2.1395,3.14132,-0.0450039,-122.738,2.47421,4.52931,-0.2633,-8.66628,7.77044,0.0612329,0.0198811,-0.0156055,4,0,41.39813951207664,-91.79496725840669,8529.350103419893,-89.24056342859689,3.0391385460401503,-8.753494348711515,198.911,8561.873061902648,11079.41924856223,150,True,6.782735806443353,False,151.23886482512125,175.87229350750866,False,32.26308907283167,False,False
11,1970-07-23 11:25:32.184331252,2025-09-16,2025-09-26 14:33:38.433,HH,C,2051260096,JASSM,3,102,76,2,2,1,225,9,2,0,1,26,0,0,0,0,-160434.05944998687,-4786508.094697799,4202871.995573521,-2.36549,-0.396918,0.382632,76.125,-31.75,-33.125,0.0,0.0,0.0,0.0,0.0,0.0,2,0,41.46011948311652,-91.91971982402536,9999.999715168911,119.87693581560508,-0.0043472265100971,0.0022876948245088,,8561.873061902648,11079.41924856223,150,11,2025-09-16,2025-09-26 14:33:38.521,HH,C,2086424864,AMBUSH51,1,1,48,2,1,1,225,2,1,0,0,9,1,225,2,1,-150279.58462098415,-4791062.586188584,4197416.377509869,2.21785,3.13054,-0.0343697,-122.365,1.55311,3.73196,-0.0897238,-6.61971,5.77478,0.0881933,-0.00215029,-0.00154276,4,0,41.39815734940631,-91.79658763219228,8544.065050154679,-89.29134888072063,2.174561266740333,-4.291202602692349,198.581,8561.873061902648,11079.41924856223,150,True,6.669023934599342,False,150.67771974298822,175.54518699911722,False,33.18444184238926,False,False
11,1970-07-23 11:25:32.194471003,2025-09-16,2025-09-26 14:33:39.447,HH,C,2052454260,JASSM,3,102,76,2,2,1,225,9,2,0,1,26,0,0,0,0,-160357.85827811187,-4786540.041963424,4202838.743620396,-2.36549,-0.396918,0.382632,76.125,-31.75,-33.125,0.0,0.0,0.0,0.0,0.0,0.0,2,0,41.45972016865822,-91.9187959014637,9999.999423776158,119.87754754109964,-0.0035479298140595,0.002286368424322,,8561.873061902648,11079.41924856223,150,11,2025-09-16,2025-09-26 14:33:39.488,HH,C,2087578096,AMBUSH51,1,1,48,2,1,1,225,2,1,0,0,9,1,225,2,1,-150396.83929114137,-4791060.704575771,4197419.225406866,2.27431,3.13935,-0.0296822,-122.065,1.51013,3.24733,-0.14491,-7.30738,6.64496,0.0415297,-0.0062241,0.00621786,4,0,41.39816588244687,-91.79798919396345,8554.665889269889,-89.82780242225813,2.3768906852509644,-1.0614805249927517,198.203,8561.873061902648,11079.41924856223,150,True,6.568709339445252,False,150.5067419108213,175.24270528199918,False,33.696154546810206,False,False
11,1970-07-23 11:25:32.204228890,2025-09-16,2025-09-26 14:33:40.422,HH,C,2053646512,JASSM,3,102,76,2,2,1,225,9,2,0,1,26,0,0,0,0,-160281.78015311187,-4786571.938447799,4202805.544401646,-2.36549,-0.396918,0.382632,76.125,-31.75,-33.125,0.0,0.0,0.0,0.0,0.0,0.0,2,0,41.459321480295664,-91.91787348180328,10000.00309560108,119.87815826669728,-0.0027499179125893,0.0022850344798735,,8561.873061902648,11079.41924856223,150,11,2025-09-16,2025-09-26 14:33:40.288,HH,C,2088532494,AMBUSH51,1,1,48,2,1,1,225,2,1,0,0,9,1,225,2,1,-150495.48047466946,-4791059.408765081,4197421.361131739,2.19999,3.13647,-0.0287119,-121.975,1.10798,3.06309,-0.0335498,-7.46372,6.83448,-0.140033,8.63447e-05,0.0266451,4,0,41.39816958377892,-91.79916815751832,8563.73134021068,-89.76120382391566,2.217215533531949,-5.32201708814912,197.787,8561.873061902648,11079.41924856223,150,True,6.477107100034093,False,150.31352010966648,174.97110654394632,False,34.17594256589419,False,False
11,1970-07-23 11:25:32.214269847,2025-09-16,2025-09-26 14:33:41.426,HH,C,2054840604,JASSM,3,102,76,2,2,1,225,9,2,0,1,26,0,0,0,0,-160205.58435233062,-4786603.881807174,4202772.292448521,-2.36549,-0.396918,0.382632,76.125,-31.75,-33.125,0.0,0.0,0.0,0.0,0.0,0.0,2,0,41.4589221731452,-91.916949647677,10000.001793261918,119.87876992395962,-0.0019506749083129,0.0022837026974656,,8561.873061902648,11079.41924856223,150,11,2025-09-16,2025-09-26 14:33:41.354,HH,C,2089805026,AMBUSH51,1,1,48,2,1,1,225,2,1,0,0,9,1,225,2,1,-150624.6387723284,-4791058.244092167,4197423.855343608,2.16935,3.13736,-0.0209277,-121.722,0.64917,2.15636,-0.123433,-6.95972,6.26171,0.00641343,-0.0011204,-0.0292376,4,0,41.39816920633794,-91.8007116617279,8576.261916171825,-90.1307499302391,1.961715051971656,-7.089657528053287,198.239,8561.873061902648,11079.41924856223,150,True,6.372292702080454,False,149.86144489898865,174.6106960973661,False,35.02450942902524,False,False
11,1970-07-23 11:25:32.224307667,2025-09-16,2025-09-26 14:33:42.430,HH,C,2056032282,JASSM,3,102,76,2,2,1,225,9,2,0,1,26,0,0,0,0,-160129.54284842435,-4786635.758760299,4202739.106901646,-2.36549,-0.396822,0.382632,76.125,-31.75,-33.125,0.0,0.0,0.0,0.0,0.0,0.0,2,0,41.45852367115047,-91.91602769630651,9999.99831024982,119.87574352322126,-0.0047226812036675,0.0002316091177619,,8561.873061902648,11079.41924856223,150,11,2025-09-16,2025-09-26 14:33:42.389,HH,C,2091037792,AMBUSH51,1,1,48,2,1,1,225,2,1,0,0,9,1,225,2,1,-150751.15168088954,-4791057.4394368045,4197424.909144401,2.16075,-3.13554,-0.000137717,-121.532,0.216677,0.890686,-0.168557,-7.17269,6.46474,0.0117002,0.00454714,0.000841601,4,0,41.3981574368505,-91.80222342408038,8586.356801794273,-91.41549105063342,1.6170077253947313,-7.615998702847251,197.347,8561.873061902648,11079.41924856223,150,True,6.269435368060606,False,149.29393428386743,174.23578508450453,False,36.00767062378721,False,False
11,1970-07-23 11:25:32.234429646,2025-09-16,2025-09-26 14:33:43.442,HH,C,2057225328,JASSM,3,102,76,2,2,1,225,9,2,0,1,26,0,0,0,0,-160053.41443045562,-4786667.672822799,4202705.882292271,-2.36549,-0.396822,0.382632,76.125,-31.75,-33.125,0.0,0.0,0.0,0.0,0.0,0.0,2,0,41.45812469459359,-91.91510470219896,9999.998088498483,119.87635461473964,-0.0039241414284013,0.0002302209575289,,8561.873061902648,11079.41924856223,150,11,2025-09-16,2025-09-26 14:33:43.455,HH,C,2092310324,AMBUSH51,1,1,48,2,1,1,225,2,1,0,0,9,1,225,2,1,-150879.90371405365,-4791057.32283893,4197424.866688959,2.19281,-3.13509,0.000296914,-121.359,-0.53467,-0.0499802,-0.122843,-7.30672,6.42222,0.0468976,0.0020858,-0.0102854,4,0,41.39813373360386,-91.8037616765014,8595.94745559357,-91.45235848793544,1.6211406239191992,-5.780531268019727,197.188,8561.873061902648,11079.41924856223,150,True,6.166285550823385,False,148.72869787287874,173.83387296967575,False,36.99795697018354,False,False
11,1970-07-23 11:25:32.244469823,2025-09-16,2025-09-26 14:33:44.446,HH,C,2058420284,JASSM,3,102,76,2,2,1,225,9,2,0,1,26,0,0,0,0,-159977.16345389312,-4786699.637666549,4202672.604948521,-2.3654,-0.396822,0.382632,76.125,-31.75,-33.125,0.0,0.0,0.0,0.0,0.0,0.0,2,0,41.45772507691448,-91.914180233749,10000.002115093765,119.8769666775354,-0.0031243204922533,0.0057203100240802,,8561.873061902648,11079.41924856223,150,11,2025-09-16,2025-09-26 14:33:44.521,HH,C,2093582856,AMBUSH51,1,1,48,2,1,1,225,2,1,0,0,9,1,225,2,1,-151010.01167960773,-4791057.650142983,4197424.033726002,2.21533,-3.12735,0.0135288,-121.173,-0.750103,-0.953176,-0.231348,-7.08454,6.3909,0.00807583,-0.000238228,-0.0158552,4,0,41.398101777829424,-91.8053159586086,8605.028606800159,-92.31539528172306,1.4529346915084216,-4.516364675841079,196.773,8561.873061902648,11079.41924856223,150,True,6.063116366680351,False,148.34997054970768,173.4077905640292,False,37.83636896076646,False,False
11,1970-07-23 11:25:32.256806561,2025-09-16,2025-09-26 14:33:45.680,HH,C,2059613212,JASSM,3,102,76,2,2,1,225,9,2,0,1,26,0,0,0,0,-159901.04236014312,-4786731.545869674,4202639.382292271,-2.3654,-0.396822,0.382632,76.125,-31.75,-33.125,0.0,0.0,0.0,0.0,0.0,0.0,2,0,41.4573261320885,-91.91325735219772,10000.000481991468,119.87757768485402,-0.0023258622525557,0.0057189286461384,,8561.873061902648,11079.41924856223,150,11,2025-09-16,2025-09-26 14:33:45.688,HH,C,2094974688,AMBUSH51,1,1,48,2,1,1,225,2,1,0,0,9,1,225,2,1,-151151.54447890102,-4791058.710399918,4197422.097516763,2.23832,-3.12612,0.0108968,-120.934,-1.23173,-1.62034,-0.0912985,-7.24401,6.51268,0.024783,0.00744957,-0.00447848,4,0,41.398055848302185,-91.80700645417846,8614.41440840715,-92.25004474139833,1.6067929002991592,-3.1982662207393826,196.7,8561.873061902648,11079.41924856223,150,True,5.9559920908878485,False,147.96270009957644,172.9247028263158,False,38.72828616827263,False,False
11,1970-07-23 11:25:32.264811235,2025-09-16,2025-09-26 14:33:46.481,HH,C,2060805440,JASSM,3,102,76,2,2,1,225,9,2,0,1,26,0,0,0,0,-159824.96569998687,-4786763.434541549,4202606.179167271,-2.3654,-0.396822,0.382728,76.125,-31.75,-33.125,0.0,0.0,0.0,0.0,0.0,0.0,2,0,41.456927419037925,-91.91233502101542,10000.000989158958,119.8820362819042,-0.0054481074197537,0.0057173191416465,,8561.873061902648,11079.41924856223,150,11,2025-09-16,2025-09-26 14:33:46.488,HH,C,2095929086,AMBUSH51,1,1,48,2,1,1,225,2,1,0,0,9,1,225,2,1,-151248.15321581083,-4791059.463462678,4197420.768324874,2.25275,-3.11953,0.0162963,-120.766,-1.39578,-1.77155,-0.214812,-7.31201,6.55659,0.00224184,0.00422673,-0.00438485,4,0,41.39802425749765,-91.80816035461488,8620.882743176939,-92.73313817115144,1.6861819032189216,-2.390312930235963,196.443,8561.873061902648,11079.41924856223,150,True,5.868093512391115,False,147.85577289323408,172.56436159383432,False,39.20572325265457,False,False
11,1970-07-23 11:25:32.274807170,2025-09-16,2025-09-26 14:33:47.480,HH,C,2061997514,JASSM,3,102,76,2,2,1,225,9,2,0,1,26,0,0,0,0,-159748.89880545562,-4786795.319307174,4202572.977995396,-2.3654,-0.396822,0.382728,76.125,-31.75,-33.125,0.0,0.0,0.0,0.0,0.0,0.0,2,0,41.45652873305901,-91.91141281944915,10000.001003217409,119.8826468294604,-0.0046502125148977,0.0057159831772709,,8561.873061902648,11079.41924856223,150,11,2025-09-16,2025-09-26 14:33:47.488,HH,C,2097122086,AMBUSH51,1,1,48,2,1,1,225,2,1,0,0,9,1,225,2,1,-151368.89809555444,-4791060.675503116,4197418.734132333,2.25816,-3.12157,0.0178723,-120.625,-1.51927,-2.04259,-0.0756185,-7.1451,6.27471,0.0240111,0.00332999,-0.00101429,4,0,41.39798062907696,-91.80960243375984,8628.830956378959,-92.7243809939033,1.539900224049694,-2.0782607511206668,195.991,8561.873061902648,11079.41924856223,150,True,5.770606577168569,False,147.72088630322705,172.11126512343733,False,39.809854395929456,False,False
11,1970-07-23 11:25:32.284467423,2025-09-16,2025-09-26 14:33:48.446,HH,C,2063190560,JASSM,3,102,76,2,2,1,225,9,2,0,1,26,0,0,0,0,-159672.76989920562,-4786827.227510299,4202539.749479771,-2.3654,-0.396822,0.382728,76.125,-31.75,-33.125,0.0,0.0,0.0,0.0,0.0,0.0,2,0,41.456129727980525,-91.91048987840794,9999.998201314407,119.88325786175469,-0.003851674403239,0.0057146572851241,,8561.873061902648,11079.41924856223,150,11,2025-09-16,2025-09-26 14:33:48.488,HH,C,2098315084,AMBUSH51,1,1,48,2,1,1,225,2,1,0,0,9,1,225,2,1,-151489.69492468837,-4791062.149971403,4197416.290597476,2.27648,-3.11914,0.0212637,-120.58,-1.69407,-2.21066,-0.202335,-7.57621,6.82663,0.0156762,0.0137538,-0.0151811,4,0,41.39793264807288,-91.81104503138526,8636.548130082017,-92.96323154247736,1.5166546221175887,-1.037372322807674,195.991,8561.873061902648,11079.41924856223,150,True,5.673619058340827,False,147.60538586794104,171.63876249642578,False,40.40934239937703,False,False
11,1970-07-23 11:25:32.294268373,2025-09-16,2025-09-26 14:33:49.426,HH,C,2064323954,JASSM,3,102,76,2,2,1,225,9,2,0,1,26,0,0,0,0,-159600.44861014312,-4786857.540010299,4202508.183073521,-2.3654,-0.396822,0.382728,76.125,-31.75,-33.125,0.0,0.0,0.0,0.0,0.0,0.0,2,0,41.45575067239446,-91.9096131090248,10000.000169045072,119.88383832166508,-0.0030930753767446,0.0057133976907047,,8561.873061902648,11079.41924856223,150,11,2025-09-16,2025-09-26 14:33:49.455,HH,C,2099468316,AMBUSH51,1,1,48,2,1,1,225,2,1,0,0,9,1,225,2,1,-151604.92583879607,-4791063.8255137885,4197413.832158262,2.28066,-3.12095,0.0261743,-120.436,-1.88464,-2.28039,-0.153545,-6.64492,6.05259,0.00590785,-0.0161569,0.00360255,4,0,41.39788439998775,-91.81242105425764,8644.301826960715,-93.10603077515168,1.2533308944119803,-0.7988165516941974,195.526,8561.873061902648,11079.41924856223,150,True,5.581774048818275,False,147.51732534709672,171.17077428917943,False,40.97300609113275,False,False
11,1970-07-23 11:25:32.303289354,2025-09-16,2025-09-26 14:33:50.328,HH,C,2065457348,JASSM,3,102,76,2,2,1,225,9,2,0,1,26,0,0,0,0,-159528.12439139312,-4786887.852510299,4202476.614714146,-2.3654,-0.396822,0.382728,76.125,-31.75,-33.125,0.0,0.0,0.0,0.0,0.0,0.0,2,0,41.45537159750892,-91.90873631482366,10000.00132651896,119.8844187936418,-0.0023344472648283,0.0057121402293449,,8561.873061902648,11079.41924856223,150,11,2025-09-16,2025-09-26 14:33:50.354,HH,C,2100542016,AMBUSH51,1,1,48,2,1,1,225,2,1,0,0,9,1,225,2,1,-151714.548929329,-4791065.163595796,4197411.0527004,2.2724,-3.12774,0.0255349,-120.373,-1.51321,-2.83938,-0.051703,-6.93404,6.24776,-0.000714684,-0.00305535,0.0029222,4,0,41.3978370320044,-91.81373020563235,8650.098949817368,-92.82197206663535,0.9872350039528498,-1.2564731040754982,195.526,8561.873061902648,11079.41924856223,150,True,5.492635524312181,False,147.44467762682208,170.70487254583875,False,41.54210884116305,False,False
11,1970-07-23 11:25:32.312325568,2025-09-16,2025-09-26 14:33:51.232,HH,C,2066531090,JASSM,3,102,76,2,2,1,225,9,2,0,1,26,0,0,0,0,-159459.60876639312,-4786916.569307174,4202446.706511021,-2.3654,-0.396726,0.382728,76.125,-31.75,-33.125,0.0,0.0,0.0,0.0,0.0,0.0,2,0,41.45501246016073,-91.90790570180728,10000.00231831948,119.88133215010156,-0.0051853808232344,0.0036597062596425,,8561.873061902648,11079.41924856223,150,11,2025-09-16,2025-09-26 14:33:51.254,HH,C,2101615714,AMBUSH51,1,1,48,2,1,1,225,2,1,0,0,9,1,225,2,1,-151821.64790528652,-4791066.11112574,4197408.133241677,2.28226,-3.12548,0.0305769,-120.317,-1.24269,-3.14683,-0.131568,-7.06921,6.24485,0.0177215,-0.0013992,-0.0147108,4,0,41.397791503056666,-91.81500934693916,8654.441055150111,-93.12492848451744,0.8937841359402672,-0.6999471898805438,195.526,8561.873061902648,11079.41924856223,150,True,5.4072214978020074,False,147.4247271666918,170.23615187798532,False,42.051822138840095,False,False
11,1970-07-23 11:25:32.321465536,2025-09-16,2025-09-26 14:33:52.146,HH,C,2067664716,JASSM,3,102,76,2,2,1,225,9,2,0,1,26,0,0,0,0,-159387.27087576812,-4786946.885713424,4202415.130339146,-2.3654,-0.396726,0.382728,76.125,-31.75,-33.125,0.0,0.0,0.0,0.0,0.0,0.0,2,0,41.45463329896821,-91.90702876247413,10000.002139244598,119.8819127097429,-0.0044266089705201,0.003658398700862,,8561.873061902648,11079.41924856223,150,11,2025-09-16,2025-09-26 14:33:52.055,HH,C,2102570114,AMBUSH51,1,1,48,2,1,1,225,2,1,0,0,9,1,225,2,1,-151917.9644083966,-4791066.819422001,4197405.260531333,2.2878,-3.12579,0.0295993,-120.17,-0.903945,-3.48005,-0.0142786,-6.93379,6.23453,0.00600564,0.00255185,0.00876867,4,0,41.39774973259221,-91.81615975982048,8657.460956810033,-93.07202536451314,0.9185177578979712,-0.3814058338758991,195.306,8561.873061902648,11079.41924856223,150,True,5.324121859865653,False,147.41548279733274,169.78762693138887,False,42.53091002416228,False,False
11,1970-07-23 11:25:32.331247106,2025-09-16,2025-09-26 14:33:53.124,HH,C,2068739380,JASSM,3,102,76,2,2,1,225,9,2,0,1,26,0,0,0,0,-159318.69568045562,-4786975.623994674,4202385.194792271,-2.3654,-0.396726,0.382728,76.125,-31.75,-33.125,0.0,0.0,0.0,0.0,0.0,0.0,2,0,41.45427384868367,-91.90619744753268,9999.998443131344,119.8824630606628,-0.0037073027402666,0.0036571544628878,,8561.873061902648,11079.41924856223,150,11,2025-09-16,2025-09-26 14:33:53.054,HH,C,2103763112,AMBUSH51,1,1,48,2,1,1,225,2,1,0,0,9,1,225,2,1,-152039.13264272327,-4791067.63296161,4197401.465467468,2.2994,-3.12727,0.0266592,-120.221,-1.00488,-3.3683,-0.122086,-7.49478,6.85573,0.0201391,0.00267252,0.00723943,4,0,41.39769640632322,-91.8176070308129,8660.683183105268,-92.89072614732012,0.967761685511782,0.2886296800642479,195.221,8561.873061902648,11079.41924856223,150,True,5.233976253204297,False,147.42284648576342,169.23041555447554,False,43.083440131098165,False,False
11,1970-07-23 11:25:32.340291927,2025-09-16,2025-09-26 14:33:54.029,HH,C,2069871620,JASSM,3,102,76,2,2,1,225,9,2,0,1,26,0,0,0,0,-159246.44665701812,-4787005.901338424,4202353.655729771,-2.3654,-0.396726,0.382728,76.125,-31.75,-33.125,0.0,0.0,0.0,0.0,0.0,0.0,2,0,41.45389513972566,-91.90532160610938,9999.99728637856,119.88304288496232,-0.0029494631557511,0.0036558477368954,,8561.873061902648,11079.41924856223,150,11,2025-09-16,2025-09-26 14:33:54.154,HH,C,2105075410,AMBUSH51,1,1,48,2,1,1,225,2,1,0,0,9,1,225,2,1,-152170.63446363184,-4791068.653013584,4197397.525652356,2.3117,-3.12608,0.0276504,-120.226,-0.996477,-3.19669,-0.220226,-7.36626,6.70184,0.00385846,0.000606493,0.0020421,4,0,41.39763890375282,-91.81917767415452,8664.914210217365,-92.97951409938334,0.9824806700444872,0.9897594242128432,195.184,8561.873061902648,11079.41924856223,150,True,5.1380678552977095,False,147.48574733621402,168.60616791460885,False,43.64914223502051,False,False
11,1970-07-23 11:25:32.349446732,2025-09-16,2025-09-26 14:33:54.944,HH,C,2071004992,JASSM,3,102,76,2,2,1,225,9,2,0,1,26,0,0,0,0,-159174.12536795562,-4787036.209932174,4202322.085417271,-2.3654,-0.396726,0.382728,76.125,-31.75,-33.125,0.0,0.0,0.0,0.0,0.0,0.0,2,0,41.45351604151695,-91.9044448984632,10000.002815437363,119.88362327835594,-0.0021908633887411,0.0036545365652892,,8561.873061902648,11079.41924856223,150,11,2025-09-16,2025-09-26 14:33:54.821,HH,C,2105870744,AMBUSH51,1,1,48,2,1,1,225,2,1,0,0,9,1,225,2,1,-152250.89357404775,-4791069.256303603,4197395.2441778295,2.31468,-3.12802,0.0251032,-120.26,-1.11107,-2.92606,-0.098086,-7.33541,6.68262,0.0110178,0.00195472,0.00737675,4,0,41.397604743631305,-91.82013628582138,8667.720547400344,-92.79704303275352,0.9963953204353044,1.1666245394247827,195.221,8561.873061902648,11079.41924856223,150,True,5.062410013443101,False,147.54369344667342,168.17297594447462,False,44.01938282665204,False,False
11,1970-07-23 11:25:32.358488155,2025-09-16,2025-09-26 14:33:55.848,HH,C,2072078758,JASSM,3,102,76,2,2,1,225,9,2,0,1,26,0,0,0,0,-159105.60778983062,-4787064.920869674,4202292.173307896,-2.3654,-0.396726,0.382728,76.125,-31.75,-33.125,0.0,0.0,0.0,0.0,0.0,0.0,2,0,41.453156881997565,-91.90361431176864,9999.997791309408,119.8841731349725,-0.0014721659340267,0.003653299299164,,8561.873061902648,11079.41924856223,150,11,2025-09-16,2025-09-26 14:33:55.787,HH,C,2107023976,AMBUSH51,1,1,48,2,1,1,225,2,1,0,0,9,1,225,2,1,-152367.70745396678,-4791070.017273384,4197392.3070108,2.32216,-3.13134,0.0207179,-120.143,-0.865856,-2.70698,-0.0711913,-7.37526,6.50254,0.00391464,-0.0072207,0.0092472,4,0,41.39755829595291,-91.82153154845692,8672.354802254167,-92.48393762023892,1.021492821935091,1.6051781837895314,195.184,8561.873061902648,11079.41924856223,150,True,4.975303263925124,False,147.69838846106862,167.57726584498417,False,44.468075949582236,False,False
11,1970-07-23 11:25:32.368270336,2025-09-16,2025-09-26 14:33:56.827,HH,C,2073154440,JASSM,3,102,76,2,2,1,225,9,2,0,1,26,0,0,0,0,-159036.96716483062,-4787093.684541549,4202262.208464146,-2.3654,-0.396726,0.382824,76.125,-31.75,-33.125,0.0,0.0,0.0,0.0,0.0,0.0,2,0,41.45279707108877,-91.90278224219108,10000.00108338204,119.88857206960245,-0.0046722725624162,0.0036518774889016,,8561.873061902648,11079.41924856223,150,11,2025-09-16,2025-09-26 14:33:56.921,HH,C,2108376040,AMBUSH51,1,1,48,2,1,1,225,2,1,0,0,9,1,225,2,1,-152502.90609011686,-4791070.688297883,4197389.150599347,2.29818,-3.13289,0.0173052,-120.049,-0.774023,-2.40307,-0.0953108,-7.27659,6.51973,-0.00992132,-0.00327174,0.00800301,4,0,41.39750740526111,-91.8231464810428,8677.738563803056,-92.27957349184804,1.0854997576432566,0.2367666627131568,195.001,8561.873061902648,11079.41924856223,150,True,4.881618007673146,False,147.83345957968587,166.87970401620805,False,45.03307036262007,False,False
11,1970-07-23 11:25:32.377306194,2025-09-16,2025-09-26 14:33:57.730,HH,C,2074285898,JASSM,3,102,76,2,2,1,225,9,2,0,1,26,0,0,0,0,-158964.76794608062,-4787123.938447799,4202230.686979771,-2.3654,-0.396726,0.382824,76.125,-31.75,-33.125,0.0,0.0,0.0,0.0,0.0,0.0,2,0,41.452418584312014,-91.90190704524414,9999.998857792956,119.8891514503592,-0.0039149493945104,0.0036506109321375,,8561.873061902648,11079.41924856223,150,11,2025-09-16,2025-09-26 14:33:57.655,HH,C,2109250906,AMBUSH51,1,1,48,2,1,1,225,2,1,0,0,9,1,225,2,1,-152591.02496700364,-4791071.067314181,4197387.118449362,2.29977,-3.13517,0.0185072,-120.045,-0.501044,-2.54513,-0.155772,-7.01935,6.32433,0.0100316,-0.00944694,5.72164e-05,4,0,41.39747474048151,-91.8241990715651,8681.163592430601,-92.24537024335304,0.9427035512747008,0.3309237195712725,194.964,8561.873061902648,11079.41924856223,150,True,4.804131912743699,False,147.87226895533968,166.36220960952602,False,45.52563462575792,False,False
11,1970-07-23 11:25:32.386466371,2025-09-16,2025-09-26 14:33:58.646,HH,C,2075361010,JASSM,3,102,76,2,2,1,225,9,2,0,1,26,0,0,0,0,-158896.16443045562,-4787152.684541549,4202200.735807896,-2.3654,-0.396726,0.382824,76.125,-31.75,-33.125,0.0,0.0,0.0,0.0,0.0,0.0,2,0,41.45205895056293,-91.9010754451718,9999.998456587857,119.88970196593532,-0.0031953478609541,0.0036494156083935,,8561.873061902648,11079.41924856223,150,11,2025-09-16,2025-09-26 14:33:58.687,HH,C,2110483672,AMBUSH51,1,1,48,2,1,1,225,2,1,0,0,9,1,225,2,1,-152715.64267332296,-4791071.277482522,4197384.231044549,2.29742,-3.13543,0.0177774,-119.956,-0.253993,-2.60014,-0.220444,-7.21267,6.61999,-0.0151977,0.000423401,0.013373,4,0,41.39743037642021,-91.82568776666194,8685.183197141358,-92.20513983767108,0.960321625211754,0.1971881515379447,194.769,8561.873061902648,11079.41924856223,150,True,4.715618971569729,False,147.93206316341895,165.66463926594295,False,46.17639625915332,False,False
11,1970-07-23 11:25:32.396805822,2025-09-16,2025-09-26 14:33:59.680,HH,C,2076493566,JASSM,3,102,76,2,2,1,225,9,2,0,1,26,0,0,0,0,-158823.89489920562,-4787182.965791549,4202169.185026646,-2.3654,-0.396726,0.382824,76.125,-31.75,-33.125,0.0,0.0,0.0,0.0,0.0,0.0,2,0,41.45168010421092,-91.9001994166056,10000.001207827272,119.8902818887301,-0.0024372986076206,0.0036481665818025,,8561.873061902648,11079.41924856223,150,11,2025-09-16,2025-09-26 14:33:59.854,HH,C,2111875504,AMBUSH51,1,1,48,2,1,1,225,2,1,0,0,9,1,225,2,1,-152855.42507448667,-4791071.177672554,4197381.106384775,2.31074,-3.1379,0.0150112,-119.884,-0.121838,-2.39833,0.0277968,-7.28333,6.43485,-0.00472607,0.00457003,-0.000685556,4,0,41.39738335732796,-91.82735774546758,8689.123601884505,-91.99386680489262,0.9604986242336188,0.9659982788274104,194.964,8561.873061902648,11079.41924856223,150,True,4.619939980867353,False,148.04518376119572,164.86046925890489,False,46.871932211208005,False,False
11,1970-07-23 11:25:32.405309254,2025-09-16,2025-09-26 14:34:00.530,HH,C,2077626422,JASSM,3,102,76,2,2,1,225,9,2,0,1,26,0,0,0,0,-158751.60583670562,-4787213.254854049,4202137.622526646,-2.3654,-0.39663,0.382824,76.125,-31.75,-33.125,0.0,0.0,0.0,0.0,0.0,0.0,2,0,41.45130112945419,-91.8993231616328,9999.999783157296,119.88722568828028,-0.0052486497705273,0.0015951889800545,,8561.873061902648,11079.41924856223,150,11,2025-09-16,2025-09-26 14:34:00.654,HH,C,2112829902,AMBUSH51,1,1,48,2,1,1,225,2,1,0,0,9,1,225,2,1,-152951.1295883956,-4791070.982039152,4197379.053737,2.31378,-3.13749,0.0128306,-119.807,0.0275504,-2.23721,-0.172354,-7.31691,6.60427,0.0063094,0.00433908,0.00833382,4,0,41.39735249353775,-91.82850117303876,8691.702241641688,-91.91621907155664,1.0613444407168118,1.1412040874323324,194.769,8561.873061902648,11079.41924856223,150,True,4.541091042495692,False,148.14966159573694,164.24199684420984,False,47.38926231915095,False,False
11,1970-07-23 11:25:32.414473048,2025-09-16,2025-09-26 14:34:01.447,HH,C,2078700164,JASSM,3,102,76,2,2,1,225,9,2,0,1,26,0,0,0,0,-158683.08923514312,-4787241.961885299,4202107.708464146,-2.3654,-0.39663,0.382824,76.125,-31.75,-33.125,0.0,0.0,0.0,0.0,0.0,0.0,2,0,41.4509419427111,-91.8984926446661,10000.001320252088,119.88777547473818,-0.0045299655569048,0.001593957847112,,8561.873061902648,11079.41924856223,150,11,2025-09-16,2025-09-26 14:34:01.354,HH,C,2113665002,AMBUSH51,1,1,48,2,1,1,225,2,1,0,0,9,1,225,2,1,-153034.99588884183,-4791070.8646615725,4197377.186742378,2.31343,-3.13954,0.00921102,-119.794,0.0903359,-2.14614,-0.0230849,-7.26353,6.70066,-0.00118698,0.00325509,0.00924928,4,0,41.39732465577031,-91.82950314206651,8693.950682821122,-91.68378508159236,1.1114244879848076,1.1269344827055567,194.964,8561.873061902648,11079.41924856223,150,True,4.469357809410889,False,148.2019545560926,163.66985796014038,False,47.911101044873874,False,False
11,1970-07-23 11:25:32.423248964,2025-09-16,2025-09-26 14:34:02.324,HH,C,2079774888,JASSM,3,102,76,2,2,1,225,9,2,0,1,26,0,0,0,0,-158614.51013358062,-4787270.694307174,4202077.765104771,-2.3654,-0.39663,0.382824,76.125,-31.75,-33.125,0.0,0.0,0.0,0.0,0.0,0.0,2,0,41.45058241347712,-91.89766137960213,9999.999839067206,119.8883257524996,-0.0038106215337935,0.001592717801321,,8561.873061902648,11079.41924856223,150,11,2025-09-16,2025-09-26 14:34:02.520,HH,C,2115056834,AMBUSH51,1,1,48,2,1,1,225,2,1,0,0,9,1,225,2,1,-153174.13755679893,-4791070.320494581,4197374.757917291,2.3122,-3.14131,0.00695156,-119.844,0.13501,-1.65406,-0.262798,-7.6056,6.9239,-0.0154619,0.0015386,-0.000213261,4,0,41.397285044425416,-91.83116562909552,8698.280222140016,-91.52064822660188,1.1222324675453106,1.0608552879997546,194.732,8561.873061902648,11079.41924856223,150,True,4.378220495188883,False,148.38958645737958,162.79231984037108,False,48.59551847299243,False,False
11,1970-07-23 11:25:32.432826683,2025-09-16,2025-09-26 14:34:03.282,HH,C,2080848630,JASSM,3,102,76,2,2,1,225,9,2,0,1,26,0,0,0,0,-158545.99353201812,-4787299.399385299,4202047.849089146,-2.3654,-0.39663,0.382824,76.125,-31.75,-33.125,0.0,0.0,0.0,0.0,0.0,0.0,2,0,41.45022321314708,-91.89683088174188,9999.998928476309,119.88887551847016,-0.0030919369629448,0.0015914849872967,,8561.873061902648,11079.41924856223,150,11,2025-09-16,2025-09-26 14:34:03.254,HH,C,2115931700,AMBUSH51,1,1,48,2,1,1,225,2,1,0,0,9,1,225,2,1,-153261.9982814617,-4791069.995403514,4197373.451712272,2.30827,-3.14069,0.00352848,-119.795,0.212408,-1.46256,-0.0986944,-7.54213,6.71556,-0.000281921,-0.00172585,0.0132336,4,0,41.39726144514784,-91.83221539469326,8701.558292582755,-91.39781376560155,1.2794931759913193,0.837728077653212,194.61,8561.873061902648,11079.41924856223,150,True,4.306036330267145,False,148.48168065063263,162.155734128374,False,49.13999149898687,False,False
11,1970-07-23 11:25:32.442806035,2025-09-16,2025-09-26 14:34:04.280,HH,C,2082102030,JASSM,3,102,76,2,2,1,225,9,2,0,1,26,0,0,0,0,-158466.01306326812,-4787332.907197799,4202012.925261021,-2.3654,-0.39663,0.382824,76.125,-31.75,-33.125,0.0,0.0,0.0,0.0,0.0,0.0,2,0,41.449803889649786,-91.8958614406006,9999.996652978356,119.8895172559868,-0.0022529975982484,0.0015900320873767,,8561.873061902648,11079.41924856223,150,11,2025-09-16,2025-09-26 14:34:04.354,HH,C,2117243998,AMBUSH51,1,1,48,2,1,1,225,2,1,0,0,9,1,225,2,1,-153394.4498922756,-4791069.752829297,4197371.772387162,2.3129,-3.14062,0.00178793,-119.743,0.0222643,-0.965083,-0.325096,-7.33824,6.88647,-0.00678794,0.00554374,0.000627299,4,0,41.3972263350059,-91.83379783834503,8707.745097332183,-91.32663772888884,1.349580549705492,1.1049391806744888,194.317,8561.873061902648,11079.41924856223,150,True,4.212157000817852,False,148.59326822665602,161.21934265065875,False,49.95119783700246,False,False
11,1970-07-23 11:25:32.453448143,2025-09-16,2025-09-26 14:34:05.344,HH,C,2083412690,JASSM,3,102,76,2,2,1,225,9,2,0,1,26,0,0,0,0,-158382.37829764312,-4787367.946260299,4201976.405729771,-2.3654,-0.39663,0.382824,76.125,-31.75,-33.125,0.0,0.0,0.0,0.0,0.0,0.0,2,0,41.44936539660841,-91.89484771906544,9999.999688540052,119.8901882999282,-0.0013757261019668,0.0015885111268835,,8561.873061902648,11079.41924856223,150,11,2025-09-16,2025-09-26 14:34:05.354,HH,C,2118436996,AMBUSH51,1,1,48,2,1,1,225,2,1,0,0,9,1,225,2,1,-153513.2029855607,-4791069.4147732,4197370.775927015,2.30452,3.14054,-0.00172029,-119.611,0.104567,-0.686571,-0.129191,-7.19306,6.62412,0.000964356,-0.0171826,0.00878115,4,0,41.39719899253797,-91.83521666514012,8714.10781646423,-91.10008005417372,1.3966627772044984,0.6301005343568831,194.194,8561.873061902648,11079.41924856223,150,True,4.121724456246216,False,148.71703197240694,160.31089664804907,False,50.73451295984155,False,False
11,1970-07-23 11:25:32.464485551,2025-09-16,2025-09-26 14:34:06.448,HH,C,2084605744,JASSM,3,102,76,2,2,1,225,9,2,0,1,26,0,0,0,0,-158306.24841483062,-4787399.838838424,4201943.163542271,-2.3654,-0.39663,0.38292,76.125,-31.75,-33.125,0.0,0.0,0.0,0.0,0.0,0.0,2,0,41.44896625916062,-91.89392497560202,10000.001746778284,119.89464735640824,-0.004497140616029,0.0015869694375624,,8561.873061902648,11079.41924856223,150,11,2025-09-16,2025-09-26 14:34:06.454,HH,C,2119749296,AMBUSH51,1,1,48,2,1,1,225,2,1,0,0,9,1,225,2,1,-153645.57821723627,-4791068.797796903,4197369.795226714,2.31085,3.13865,0.00144925,-119.583,0.440565,-0.611162,-0.349386,-7.21991,6.7697,4.26522e-05,0.00282857,-0.00701056,4,0,41.39717079964736,-91.83679833479567,8720.900401648627,-91.16555549986468,1.196332666397953,0.991329461953486,194.231,8561.873061902648,11079.41924856223,150,True,4.032177857627347,False,148.85364362674483,159.30492967344642,False,51.615827064006744,False,False
11,1970-07-23 11:25:32.476824938,2025-09-16,2025-09-26 14:34:07.682,HH,C,2085858444,JASSM,3,102,76,2,2,1,225,9,2,0,1,26,0,0,0,0,-158226.31189139312,-4787433.325166549,4201908.257292271,-2.3654,-0.39663,0.38292,76.125,-31.75,-33.125,0.0,0.0,0.0,0.0,0.0,0.0,2,0,41.44854714893194,-91.89295610573532,10000.001873212665,119.89528869986124,-0.0036586664228049,0.0015855795361184,,8561.873061902648,11079.41924856223,150,11,2025-09-16,2025-09-26 14:34:07.853,HH,C,2121419494,AMBUSH51,1,1,48,2,1,1,225,2,1,0,0,9,1,225,2,1,-153812.62409867207,-4791067.609319501,4197368.497550738,2.30712,3.13611,-0.00313439,-119.4,0.71908,-0.516475,-0.205978,-7.13759,6.4286,-0.00258098,0.00909324,0.0133439,4,0,41.39713722417567,-91.83879441636915,8728.346148733266,-90.87380859580746,1.2626416100752575,0.783936038493721,194.158,8561.873061902648,11079.41924856223,150,True,3.9303848221065767,False,148.97807918703745,158.02571941362598,False,52.78119392861098,False,False
11,1970-07-23 11:25:32.484286954,2025-09-16,2025-09-26 14:34:08.428,HH,C,2087051950,JASSM,3,102,76,2,2,1,225,9,2,0,1,26,0,0,0,0,-158150.15271170562,-4787465.227510299,4201874.999479771,-2.3654,-0.39663,0.38292,76.125,-31.75,-33.125,0.0,0.0,0.0,0.0,0.0,0.0,2,0,41.44814783847156,-91.89203303136456,9999.99996286467,119.89589972402308,-0.0028598154009699,0.0015842573228723,,8561.873061902648,11079.41924856223,150,11,2025-09-16,2025-09-26 14:34:08.420,HH,C,2122095526,AMBUSH51,1,1,48,2,1,1,225,2,1,0,0,9,1,225,2,1,-153880.6012553985,-4791067.143882712,4197367.959066011,2.30721,3.13546,-0.0030442,-119.351,0.814055,-0.509656,-0.0570921,-7.20305,6.4492,0.00911405,-0.00298669,0.00119738,4,0,41.39712337261246,-91.83960668792122,8731.402375894992,-90.85337211550984,1.2316564254295743,0.7892535227395457,193.999,8561.873061902648,11079.41924856223,150,True,3.864161029963055,False,149.0116222866216,157.3305786396155,False,53.44632567830387,False,False
