Subject_cm,Timestamp,SampleDate_cm,SampleTime_cm,Configuration_cm,Scenario_cm,DisTime_cm,MarkingTxt_cm,Application_cm,EntId_cm,Site_cm,ExerciseId_cm,ForceId_cm,Category_cm,Country_cm,Domain_cm,Kind_cm,Extra_cm,Specific_cm,Subcategory_cm,AltCategory_cm,AltCountry_cm,AltDomain_cm,AltKind_cm,ECEF_X_cm,ECEF_Y_cm,ECEF_Z_cm,OriPhi_cm,OriPsi_cm,OriTheta_cm,LinVelX_cm,LinVelY_cm,LinVelZ_cm,LinAccX_cm,LinAccY_cm,LinAccZ_cm,AngVelX_cm,AngVelY_cm,AngVelZ_cm,DrAlg_cm,Appearance_cm,Latitude_cm,Longitude_cm,Altitude_cm,Heading_cm,Pitch_cm,Roll_cm,CalibratedAirspeed_cm,CM_Altitude_Lead_cm,CM_Altitude_Wing_cm,CM_Airspeed_cm,Subject_ac,SampleDate_ac,SampleTime_ac,Configuration_ac,Scenario_ac,DisTime_ac,MarkingTxt_ac,Application_ac,EntId_ac,Site_ac,ExerciseId_ac,ForceId_ac,Category_ac,Country_ac,Domain_ac,Kind_ac,Extra_ac,Specific_ac,Subcategory_ac,AltCategory_ac,AltCountry_ac,AltDomain_ac,AltKind_ac,ECEF_X_ac,ECEF_Y_ac,ECEF_Z_ac,OriPhi_ac,OriPsi_ac,OriTheta_ac,LinVelX_ac,LinVelY_ac,LinVelZ_ac,LinAccX_ac,LinAccY_ac,LinAccZ_ac,AngVelX_ac,AngVelY_ac,AngVelZ_ac,DrAlg_ac,Appearance_ac,Latitude_ac,Longitude_ac,Altitude_ac,Heading_ac,Pitch_ac,Roll_ac,CalibratedAirspeed_ac,CM_Altitude_Lead_ac,CM_Altitude_Wing_ac,CM_Airspeed_ac,Bank_Angle_Condition,distance_nm,Distance_Condition,angle_between_vel,angle_between_pos,Cone_Condition,angle_between_pos_nose,Nose_Cone_Condition,Intercept_Criteria
11,1970-07-23 11:41:38.448397948,2025-09-17,2025-09-26 17:24:04.839,AA,D,305116894,JASSM,3,102,76,2,2,1,225,9,2,0,1,26,0,0,0,0,-188167.3909929556,-4786102.942354049,4202187.792448521,-2.30155,-0.153302,0.128183,88.5,-13.625,-11.375,0.0,0.0,0.0,0.0,0.0,0.0,2,0,41.45190352812676,-92.25144502666234,10000.00150117556,99.81703206516276,-0.0033736455529023,0.0023903118140271,,8951.965087688533,11182.851152867626,150,11,2025-09-17,2025-09-26 17:24:04.991,AA,D,1403988732,AMBUSH51,1,1,48,2,1,1,225,2,1,0,0,9,1,225,2,1,-144729.90170240175,-4792782.280849323,4195847.673095375,2.3043,2.9059,-0.24913,-101.025,26.0809,26.602,-0.191605,-7.18965,6.90211,0.0454121,-0.000396353,0.00371906,4,0,41.37835251641303,-91.72966198913709,8951.934022240577,-71.59270438983485,0.8360306437903081,-0.6954264850659179,175.412,8951.965087688533,11182.851152867626,150,True,23.876325960655027,False,170.97429610808075,179.0306187767884,False,8.29038287309654,True,False
11,1970-07-23 11:41:38.470436470,2025-09-17,2025-09-26 17:24:07.043,AA,D,307681394,JASSM,3,102,76,2,2,1,225,9,2,0,1,26,0,0,0,0,-187977.00622733065,-4786132.373994674,4202162.958464146,-2.30155,-0.153302,0.128183,88.5,-13.5,-11.375,0.0,0.0,0.0,0.0,0.0,0.0,2,0,41.45160534268911,-92.24915557442688,10000.000208213787,99.81854765777771,-0.0016319556274025,0.0023890935800842,,8951.965087688533,11182.851152867626,150,11,2025-09-17,2025-09-26 17:24:06.992,AA,D,1406374730,AMBUSH51,1,1,48,2,1,1,225,2,1,0,0,9,1,225,2,1,-144931.51819978788,-4792729.650788695,4195900.723548909,2.36131,2.89987,-0.260325,-100.958,26.3575,27.0983,-0.170807,-7.18703,6.65274,0.0210442,-0.0117106,0.0145714,4,0,41.37898752917656,-91.7320890428082,8952.47299258326,-70.89616192327964,1.0278395568679544,2.495044766791435,175.754,8951.965087688533,11182.851152867626,150,True,23.657637203326605,False,170.6338510103474,179.057366026066,False,8.618053427780405,True,False
11,1970-07-23 11:41:38.476896322,2025-09-17,2025-09-26 17:24:07.689,AA,D,306427226,JASSM,3,102,76,2,2,1,225,9,2,0,1,26,0,0,0,0,-188070.1136492056,-4786117.979463424,4202175.104948521,-2.30155,-0.153302,0.128183,88.5,-13.625,-11.375,0.0,0.0,0.0,0.0,0.0,0.0,2,0,41.45175119151547,-92.25027522592534,9999.999063545583,99.81780646171669,-0.0024837299026588,0.0023897050142494,,8951.965087688533,11182.851152867626,150,11,2025-09-17,2025-09-26 17:24:07.692,AA,D,1407209830,AMBUSH51,1,1,48,2,1,1,225,2,1,0,0,9,1,225,2,1,-145002.22273239988,-4792711.135663189,4195919.285543271,2.35985,2.89978,-0.263001,-100.905,26.5064,27.2757,-0.264449,-7.51276,6.80537,-0.00225432,-0.000854084,0.00820483,4,0,41.37921027089626,-91.7329402142135,8952.432499177525,-70.78094129600764,1.1291049402809563,2.4122838590887623,175.839,8951.965087688533,11182.851152867626,150,True,23.66860432409632,False,170.55592752364186,179.06771019975224,False,8.758785388163545,True,False
11,1970-07-23 11:41:38.480317206,2025-09-17,2025-09-26 17:24:08.031,AA,D,308874074,JASSM,3,102,76,2,2,1,225,9,2,0,1,26,0,0,0,0,-187888.4613054556,-4786146.059541549,4202151.407682896,-2.30155,-0.153302,0.128183,88.5,-13.5,-11.375,0.0,0.0,0.0,0.0,0.0,0.0,2,0,41.45146665557382,-92.24809079504384,9999.997784516989,99.81925252715618,-0.0008219259266315,0.0023885363489727,,8951.965087688533,11182.851152867626,150,11,2025-09-17,2025-09-26 17:24:08.058,AA,D,1407647262,AMBUSH51,1,1,48,2,1,1,225,2,1,0,0,9,1,225,2,1,-145040.2158294391,-4792701.055025672,4195929.522803059,2.35777,2.89964,-0.264749,-100.86,26.4562,27.5415,-0.265803,-7.34855,6.62214,-0.0208278,-0.0078532,0.00527951,4,0,41.379332516684805,-91.73339764130864,8952.658612618512,-70.70236817129337,1.1917758380556125,2.292309193661917,175.876,8951.965087688533,11182.851152867626,150,True,23.547435568534407,False,170.4092083265147,179.0726484283693,False,8.857365807748906,True,False
11,1970-07-23 11:41:38.490358791,2025-09-17,2025-09-26 17:24:09.035,AA,D,310066806,JASSM,3,102,76,2,2,1,225,9,2,0,1,26,0,0,0,0,-187799.9144304556,-4786159.745088424,4202139.856901646,-2.30145,-0.153206,0.128183,88.5,-13.5,-11.375,0.0,0.0,0.0,0.0,0.0,0.0,2,0,41.451327959056194,-92.24702599685126,9999.999362690194,99.81632103731852,-0.0040688166809655,0.0071773770223013,,8951.965087688533,11182.851152867626,150,11,2025-09-17,2025-09-26 17:24:09.059,AA,D,1408840260,AMBUSH51,1,1,48,2,1,1,225,2,1,0,0,9,1,225,2,1,-145140.02547061333,-4792674.573409825,4195956.355742183,2.2872,2.89178,-0.269018,-100.795,26.4846,27.6529,-0.108774,-7.20697,6.69032,-0.0610707,-0.0083151,0.00838376,4,0,41.3796532385555,-91.73459933152589,8953.126451302858,-70.22842703334416,1.0407381593383438,-1.8604350200749264,175.962,8951.965087688533,11182.851152867626,150,True,23.44222920645684,False,170.34400515276,179.0869510491004,False,8.941343299983883,True,False
11,1970-07-23 11:41:38.500921793,2025-09-17,2025-09-26 17:24:10.092,AA,D,311260794,JASSM,3,102,76,2,2,1,225,9,2,0,1,26,0,0,0,0,-187711.2738054556,-4786173.446260299,4202128.290495396,-2.30145,-0.153206,0.128279,88.5,-13.5,-11.375,0.0,0.0,0.0,0.0,0.0,0.0,2,0,41.45118907615544,-92.24596007530307,10000.000554615077,99.82111717851372,-0.0069243317378733,0.0071763784675018,,8951.965087688533,11182.851152867626,150,11,2025-09-17,2025-09-26 17:24:10.092,AA,D,1410073026,AMBUSH51,1,1,48,2,1,1,225,2,1,0,0,9,1,225,2,1,-145244.57758930788,-4792646.788432923,4195984.679935059,2.23293,2.89315,-0.260572,-101.034,26.55,27.2045,-0.0362274,-7.10918,6.51459,-0.0379532,0.00232298,-0.0235471,4,0,41.379990914784976,-91.73585814924598,8953.980931102513,-70.63556242455718,0.7679832515662525,-4.955737490072013,176.182,8951.965087688533,11182.851152867626,150,True,23.334261871819884,False,170.54801272590913,179.10217981088383,False,8.769998068215028,True,False
11,1970-07-23 11:41:38.510898918,2025-09-17,2025-09-26 17:24:11.089,AA,D,312453860,JASSM,3,102,76,2,2,1,225,9,2,0,1,26,0,0,0,0,-187622.7034929556,-4786187.133760299,4202116.733854771,-2.30145,-0.153206,0.128279,88.5,-13.5,-11.375,0.0,0.0,0.0,0.0,0.0,0.0,2,0,41.45105031422845,-92.24489500513256,10000.000333869008,99.82182223464063,-0.0061140694482674,0.0071758219009883,,8951.965087688533,11182.851152867626,150,11,2025-09-17,2025-09-26 17:24:11.125,AA,D,1411305792,AMBUSH51,1,1,48,2,1,1,225,2,1,0,0,9,1,225,2,1,-145349.35885181514,-4792619.288376765,4196012.406031629,2.18729,2.90232,-0.249538,-101.262,25.8746,26.6051,-0.0211986,-7.2998,6.48469,-0.0213438,0.0100628,-0.0147358,4,0,41.38032280243164,-91.73711961357516,8954.262852935304,-71.44538887532323,0.711712557240877,-7.448782226198325,175.925,8951.965087688533,11182.851152867626,150,True,23.226282916778764,False,171.03078813820994,179.1164616774787,False,8.303184173053868,True,False
11,1970-07-23 11:41:38.520323668,2025-09-17,2025-09-26 17:24:12.032,AA,D,313646750,JASSM,3,102,76,2,2,1,225,9,2,0,1,26,0,0,0,0,-187534.14294608065,-4786200.819307174,4202105.177214146,-2.30145,-0.153206,0.128279,88.5,-13.5,-11.375,0.0,0.0,0.0,0.0,0.0,0.0,2,0,41.45091155178664,-92.24383005714172,10000.00044675215,99.82252720794656,-0.0053038956155877,0.0071752594665296,,8951.965087688533,11182.851152867626,150,11,2025-09-17,2025-09-26 17:24:11.958,AA,D,1412299958,AMBUSH51,1,1,48,2,1,1,225,2,1,0,0,9,1,225,2,1,-145433.47684992553,-4792597.743723891,4196034.035433923,2.19504,2.90789,-0.243271,-101.331,25.456,25.7491,0.0698431,-7.39831,6.27832,0.060588,-0.0093221,-0.0181438,4,0,41.38058181733543,-91.73813212866038,8954.439375222864,-71.92000838226839,0.6963378153596792,-6.932504713776135,175.839,8951.965087688533,11182.851152867626,150,True,23.130117418897402,False,171.51157753952813,179.12671567846343,False,7.846497267127995,True,False
11,1970-07-23 11:41:38.530359244,2025-09-17,2025-09-26 17:24:13.035,AA,D,314838988,JASSM,3,102,76,2,2,1,225,9,2,0,1,26,0,0,0,0,-187445.6331804556,-4786214.495088424,4202093.626432896,-2.30145,-0.153206,0.128279,88.5,-13.5,-11.375,0.0,0.0,0.0,0.0,0.0,0.0,2,0,41.4507728653026,-92.24276572523272,9999.998367760823,99.82323177147916,-0.0044941880513357,0.0071747033540467,,8951.965087688533,11182.851152867626,150,11,2025-09-17,2025-09-26 17:24:13.158,AA,D,1413731556,AMBUSH51,1,1,48,2,1,1,225,2,1,0,0,9,1,225,2,1,-145555.70145160324,-4792567.537579747,4196064.035592556,2.276,2.92107,-0.233856,-101.359,24.6561,25.1048,-0.29571,-7.52228,6.69963,0.0927997,0.00887686,-0.00216694,4,0,41.38094197959289,-91.73960294271544,8954.309855894937,-72.8150547400843,0.8723841802219399,-2.1272618266373846,175.155,8951.965087688533,11182.851152867626,150,True,23.012610412715148,False,172.0176579371625,179.14041108855298,False,7.353557135307166,True,False
11,1970-07-23 11:41:38.540378906,2025-09-17,2025-09-26 17:24:14.037,AA,D,316032714,JASSM,3,102,76,2,2,1,225,9,2,0,1,26,0,0,0,0,-187357.0120867056,-4786228.188447799,4202082.061979771,-2.30145,-0.153206,0.128279,88.5,-13.5,-11.375,0.0,0.0,0.0,0.0,0.0,0.0,2,0,41.450633998046165,-92.2417000589665,10000.00326714716,99.8239372163832,-0.0036834624856954,0.0071741500121333,,8951.965087688533,11182.851152867626,150,11,2025-09-17,2025-09-26 17:24:13.858,AA,D,1414566654,AMBUSH51,1,1,48,2,1,1,225,2,1,0,0,9,1,225,2,1,-145626.44595558033,-4792550.184110004,4196081.229250633,2.3386,2.91958,-0.235232,-101.178,24.5036,25.0447,-0.196054,-7.46502,6.46654,0.0715839,-0.0123098,-0.0030616,4,0,41.381148509600216,-91.74045422099186,8954.188740415198,-72.70132856455298,0.8651997442960444,1.44127362400725,174.862,8951.965087688533,11182.851152867626,150,True,22.924118232821602,False,172.05636293141438,179.14737199805663,False,7.323513663744558,True,False
11,1970-07-23 11:41:38.550415249,2025-09-17,2025-09-26 17:24:15.041,AA,D,317225650,JASSM,3,102,76,2,2,1,225,9,2,0,1,26,0,0,0,0,-187268.4495867056,-4786241.870088424,4202070.501432896,-2.30145,-0.153206,0.128279,88.5,-13.5,-11.375,0.0,0.0,0.0,0.0,0.0,0.0,2,0,41.45049520337795,-92.24063510307636,9999.997685573126,99.82464218909428,-0.0028732722527519,0.0071735876144078,,8951.965087688533,11182.851152867626,150,11,2025-09-17,2025-09-26 17:24:15.025,AA,D,1415958486,AMBUSH51,1,1,48,2,1,1,225,2,1,0,0,9,1,225,2,1,-145743.5365090167,-4792521.21678654,4196109.989113501,2.39446,2.9083,-0.243024,-100.707,24.8889,25.3666,-0.104819,-7.33379,6.32763,0.0328099,-0.0132357,0.0209589,4,0,41.381493827624055,-91.74186328855646,8954.046783762773,-71.94836044231992,0.7064291949948687,4.498950567676845,174.348,8951.965087688533,11182.851152867626,150,True,22.809479035044344,False,171.72688087146523,179.16018008426164,False,7.678123622105058,True,False
11,1970-07-23 11:41:38.560449240,2025-09-17,2025-09-26 17:24:16.044,AA,D,318419432,JASSM,3,102,76,2,2,1,225,9,2,0,1,26,0,0,0,0,-187179.8245867056,-4786255.561494674,4202058.933073521,-2.30145,-0.153206,0.128279,88.5,-13.5,-11.375,0.0,0.0,0.0,0.0,0.0,0.0,2,0,41.45035630256511,-92.2395694001222,9999.997318672353,99.8253476543983,-0.0020625104836119,0.0071730264413053,,8951.965087688533,11182.851152867626,150,11,2025-09-17,2025-09-26 17:24:16.157,AA,D,1417310552,AMBUSH51,1,1,48,2,1,1,225,2,1,0,0,9,1,225,2,1,-145857.9647303021,-4792492.102193121,4196138.861434991,2.41615,2.90069,-0.250076,-100.115,25.5497,26.0228,-0.192992,-7.48138,6.49679,0.00439734,-0.0022252,0.00896008,4,0,41.381841245507566,-91.74324062500472,8953.594896770772,-71.36544011192161,0.6711711611132992,5.641924857361383,173.835,8951.965087688533,11182.851152867626,150,True,22.69618886548147,False,171.15401435591173,179.17335080007356,False,8.277043202149008,True,False
11,1970-07-23 11:41:38.570313339,2025-09-17,2025-09-26 17:24:17.031,AA,D,319610390,JASSM,3,102,76,2,2,1,225,9,2,0,1,26,0,0,0,0,-187091.40857108065,-4786269.219697799,4202047.392057896,-2.30145,-0.153206,0.128279,88.5,-13.5,-11.375,0.0,0.0,0.0,0.0,0.0,0.0,2,0,41.450217725349866,-92.23850621513463,9999.999020914966,99.82605145094176,-0.0012536618554222,0.0071724723122169,,8951.965087688533,11182.851152867626,150,11,2025-09-17,2025-09-26 17:24:16.891,AA,D,1418185418,AMBUSH51,1,1,48,2,1,1,225,2,1,0,0,9,1,225,2,1,-145931.21930787366,-4792473.03980372,4196157.855292115,2.39573,2.8919,-0.255614,-99.7272,26.1301,26.3128,-0.116394,-7.36972,6.23317,-0.0876919,-0.00277863,0.0151228,4,0,41.38206961381493,-91.74412252915234,8953.373734629411,-70.80199915911132,0.5304823706346551,4.352181991373572,173.615,8951.965087688533,11182.851152867626,150,True,22.6062212313973,False,170.7871128415876,179.18169575990098,False,8.668597194436568,True,False
11,1970-07-23 11:41:38.579355347,2025-09-17,2025-09-26 17:24:17.935,AA,D,320743784,JASSM,3,102,76,2,2,1,225,9,2,0,1,26,0,0,0,0,-187007.2659929556,-4786282.217744674,4202036.407682896,-2.30145,-0.15311,0.128279,88.5,-13.5,-11.375,0.0,0.0,0.0,0.0,0.0,0.0,2,0,41.45008582903756,-92.23749442158984,10000.00194436351,99.82308495143292,-0.0045408385971734,0.0064693672227756,,8951.965087688533,11182.851152867626,150,11,2025-09-17,2025-09-26 17:24:18.059,AA,D,1419577250,AMBUSH51,1,1,48,2,1,1,225,2,1,0,0,9,1,225,2,1,-146046.7060084346,-4792442.574005839,4196188.197235736,2.30447,2.88397,-0.261698,-99.4032,26.3931,26.4604,0.0945764,-7.33944,6.30343,-0.0306732,0.00451801,-0.00935956,4,0,41.382434772845976,-91.74551302454384,8952.876482008916,-70.24843161203056,0.4477495189237703,-0.9879519375048724,173.615,8951.965087688533,11182.851152867626,150,True,22.49461982012784,False,170.5853186044297,179.19600337994763,False,8.899166025897307,True,False
11,1970-07-23 11:41:38.589703189,2025-09-17,2025-09-26 17:24:18.970,AA,D,321877178,JASSM,3,102,76,2,2,1,225,9,2,0,1,26,0,0,0,0,-186923.1253679556,-4786295.213838424,4202025.423307896,-2.30145,-0.15311,0.128279,88.5,-13.5,-11.375,0.0,0.0,0.0,0.0,0.0,0.0,2,0,41.449953934996266,-92.23648265640078,10000.00403983326,99.82375470610428,-0.0037711027722539,0.0064687911137964,,8951.965087688533,11182.851152867626,150,11,2025-09-17,2025-09-26 17:24:18.924,AA,D,1420611182,AMBUSH51,1,1,48,2,1,1,225,2,1,0,0,9,1,225,2,1,-146132.85294172767,-4792419.844872946,4196211.049617234,2.27592,2.88933,-0.254061,-99.3851,26.1075,26.4594,-0.271764,-7.28699,6.46278,-0.0218494,-0.00380021,-0.00550005,4,0,41.38270864880424,-91.74655027147804,8952.977383192636,-70.7714630726919,0.3672292079256579,-2.549460227720646,173.236,8951.965087688533,11182.851152867626,150,True,22.399636430479323,False,170.67166397220242,179.20635424738686,False,8.823625123243454,True,False
11,1970-07-23 11:41:38.598438760,2025-09-17,2025-09-26 17:24:19.843,AA,D,322952346,JASSM,3,102,76,2,2,1,225,9,2,0,1,26,0,0,0,0,-186843.30310233065,-4786307.541963424,4202015.001432896,-2.30145,-0.15311,0.128375,88.5,-13.5,-11.375,0.0,0.0,0.0,0.0,0.0,0.0,2,0,41.44982879925934,-92.23552282239844,10000.004424935769,99.82848064734374,-0.0067072464897596,0.006467893863166,,8951.965087688533,11182.851152867626,150,11,2025-09-17,2025-09-26 17:24:19.758,AA,D,1421605348,AMBUSH51,1,1,48,2,1,1,225,2,1,0,0,9,1,225,2,1,-146215.4325693834,-4792397.931491765,4196232.838536179,2.25589,2.8911,-0.249998,-99.3623,26.1082,25.9584,-0.0905276,-7.35775,6.16745,-0.006867,0.000263195,-0.00683996,4,0,41.38297112982834,-91.74754462036316,8952.515410529879,-71.00954881964942,0.2813752464792332,-3.673348485665256,172.76,8951.965087688533,11182.851152867626,150,True,22.30904385290003,False,170.8661647882547,179.21588799704708,False,8.659499013621327,True,False
11,1970-07-23 11:41:38.607697832,2025-09-17,2025-09-26 17:24:20.769,AA,D,324085606,JASSM,3,102,76,2,2,1,225,9,2,0,1,26,0,0,0,0,-186759.17028983065,-4786320.534150924,4202004.015104771,-2.30145,-0.15311,0.128375,88.5,-13.5,-11.375,0.0,0.0,0.0,0.0,0.0,0.0,2,0,41.44969689613647,-92.23451116039824,10000.000802265,99.829150330322,-0.005937582311821,0.0064673686033949,,8951.965087688533,11182.851152867626,150,11,2025-09-17,2025-09-26 17:24:20.958,AA,D,1423036946,AMBUSH51,1,1,48,2,1,1,225,2,1,0,0,9,1,225,2,1,-146335.24961313687,-4792366.66312382,4196263.8104310455,2.26335,2.89567,-0.247362,-99.4698,25.515,25.6307,-0.0872712,-7.40046,6.52692,0.0261583,-0.00673801,0.00836711,4,0,41.38334448812577,-91.74898717071748,8951.754320033262,-71.29395293444816,0.3657373443260098,-3.1827189105583837,172.503,8951.965087688533,11182.851152867626,150,True,22.195066393163543,False,171.20416207292985,179.22915056769384,False,8.338027298819311,True,False
11,1970-07-23 11:41:38.617354981,2025-09-17,2025-09-26 17:24:21.735,AA,D,325217854,JASSM,3,102,76,2,2,1,225,9,2,0,1,26,0,0,0,0,-186675.1136492056,-4786333.514619674,4201993.038542271,-2.30145,-0.15311,0.128375,88.5,-13.5,-11.375,0.0,0.0,0.0,0.0,0.0,0.0,2,0,41.44956510206399,-92.2335004184052,10000.00067561368,99.8298194025392,-0.0051686146834044,0.0064668423253711,,8951.965087688533,11182.851152867626,150,11,2025-09-17,2025-09-26 17:24:21.691,AA,D,1423911812,AMBUSH51,1,1,48,2,1,1,225,2,1,0,0,9,1,225,2,1,-146408.0267751768,-4792347.826469249,4196282.419441746,2.28553,2.89639,-0.242634,-99.5012,25.5425,25.2493,-0.250299,-7.22222,6.34904,0.0291564,-0.0101023,-0.00683163,4,0,41.38356895781062,-91.7498633305338,8951.238376198922,-71.5200569805536,0.2112581250040835,-1.9030506488355377,172.112,8951.965087688533,11182.851152867626,150,True,22.107794513683718,False,171.35318918496193,179.2361896281027,False,8.214945493813019,True,False
11,1970-07-23 11:41:38.626417002,2025-09-17,2025-09-26 17:24:22.641,AA,D,326293452,JASSM,3,102,76,2,2,1,225,9,2,0,1,26,0,0,0,0,-186595.2620867056,-4786345.844697799,4201982.610807896,-2.30145,-0.15311,0.128375,88.5,-13.5,-11.5,0.0,0.0,0.0,0.0,0.0,0.0,2,0,41.44943989708448,-92.23254024478494,10000.000908572663,99.83045499882296,-0.0044381170182391,0.0064663463182225,,8951.965087688533,11182.851152867626,150,11,2025-09-17,2025-09-26 17:24:22.557,AA,D,1424945744,AMBUSH51,1,1,48,2,1,1,225,2,1,0,0,9,1,225,2,1,-146493.22317325234,-4792325.971055997,4196303.91266945,2.28778,2.91012,-0.253652,-99.5181,25.0803,25.3414,-0.196336,-7.97754,7.54388,-0.00814865,0.0160403,0.00540434,4,0,41.38382859299485,-91.750888941043,8950.4877790742,-71.57505290768073,1.2006478596593138,-1.5814912298740067,172.503,8951.965087688533,11182.851152867626,150,True,22.015839761125772,False,171.52672445994253,179.3200967959546,False,8.103609369875354,True,False
11,1970-07-23 11:41:38.636434142,2025-09-17,2025-09-26 17:24:23.643,AA,D,327485212,JASSM,3,102,76,2,2,1,225,9,2,0,1,26,0,0,0,0,-186506.7855242056,-4786359.504854049,4201971.056120396,-2.30145,-0.15311,0.128375,88.5,-13.5,-11.5,0.0,0.0,0.0,0.0,0.0,0.0,2,0,41.44930116508032,-92.2314763651312,9999.999543158394,99.83115924248162,-0.003628717787842,0.0064658025998004,,8951.965087688533,11182.851152867626,150,11,2025-09-17,2025-09-26 17:24:23.458,AA,D,1426019442,AMBUSH51,1,1,48,2,1,1,225,2,1,0,0,9,1,225,2,1,-146582.53693113467,-4792303.983421896,4196326.793082558,2.20957,2.9155,-0.25884,-99.7333,24.0751,25.6145,-0.050188,-7.41028,7.2143,-0.13732,-0.00435989,-0.00770964,4,0,41.384097623783,-91.75196378836856,8952.734700095589,-71.55922397413255,1.6224844983255826,-5.9843872738052255,172.503,8951.965087688533,11182.851152867626,150,True,21.916877908435744,False,171.75374232322534,179.3284872203616,False,7.858610598092635,True,False
11,1970-07-23 11:41:38.645335380,2025-09-17,2025-09-26 17:24:24.533,AA,D,328560008,JASSM,3,102,76,2,2,1,225,9,2,0,1,26,0,0,0,0,-186426.99450858065,-4786371.825166549,4201960.634245396,-2.30145,-0.15311,0.128375,88.5,-13.5,-11.5,0.0,0.0,0.0,0.0,0.0,0.0,2,0,41.44917602682164,-92.23051692752618,10000.001483062437,99.83179434822792,-0.0028987721922701,0.0064652957138799,,8951.965087688533,11182.851152867626,150,11,2025-09-17,2025-09-26 17:24:24.326,AA,D,1427053376,AMBUSH51,1,1,48,2,1,1,225,2,1,0,0,9,1,225,2,1,-146669.1985487342,-4792283.692032274,4196348.733253846,2.08547,2.92304,-0.255038,-100.301,22.9892,25.0854,0.024886,-7.27006,7.15781,-0.136546,0.00507977,-0.0165751,4,0,41.38435068992107,-91.75300634532448,8956.920647692006,-72.00286749037484,1.7836289647331922,-12.99792431862088,172.894,8951.965087688533,11182.851152867626,150,False,21.824280234987988,False,172.38181677387985,179.3365923863339,False,7.224118578613954,True,False
11,1970-07-23 11:41:38.654375504,2025-09-17,2025-09-26 17:24:25.437,AA,D,329692680,JASSM,3,102,76,2,2,1,225,9,2,0,1,26,0,0,0,0,-186342.90466483065,-4786384.807588424,4201949.649870396,-2.30145,-0.15311,0.128375,88.5,-13.5,-11.5,0.0,0.0,0.0,0.0,0.0,0.0,2,0,41.44904414101326,-92.22950580393614,10000.00093497847,99.83246366612948,-0.0021295010590833,0.0064647644151374,,8951.965087688533,11182.851152867626,150,11,2025-09-17,2025-09-26 17:24:25.392,AA,D,1428325908,AMBUSH51,1,1,48,2,1,1,225,2,1,0,0,9,1,225,2,1,-146776.75415792075,-4792260.124781711,4196374.641094045,1.94846,2.9407,-0.222696,-101.152,20.2381,25.0472,0.0667385,-7.09234,6.94997,-0.104946,0.0029971,-0.0388978,4,0,41.384646216012015,-91.75429968059728,8963.231179731085,-74.035732943392,1.2613109653087715,-20.662482202494825,173.273,8951.965087688533,11182.851152867626,150,False,21.71777531876902,False,173.16067920604615,179.34564938727783,False,6.369418622939613,True,False
11,1970-07-23 11:41:38.663416190,2025-09-17,2025-09-26 17:24:26.341,AA,D,330767564,JASSM,3,102,76,2,2,1,225,9,2,0,1,26,0,0,0,0,-186263.1058367056,-4786397.125947799,4201939.226042271,-2.30145,-0.15311,0.128375,88.5,-13.5,-11.5,0.0,0.0,0.0,0.0,0.0,0.0,2,0,41.44891898657624,-92.22854628143544,10000.000075246708,99.83309882483296,-0.0013994871836585,0.0064642695605713,,8951.965087688533,11182.851152867626,150,11,2025-09-17,2025-09-26 17:24:26.394,AA,D,1429518906,AMBUSH51,1,1,48,2,1,1,225,2,1,0,0,9,1,225,2,1,-146879.27328743576,-4792239.607306434,4196395.515215963,1.93097,2.96717,-0.191759,-102.575,19.6493,19.9673,0.0580586,-7.23951,7.08004,0.0376848,0.00869793,-0.0268366,4,0,41.38489051623858,-91.75553175085754,8965.753983334007,-76.34735634722641,1.1725722960822476,-21.40195007603119,173.615,8951.965087688533,11182.851152867626,150,False,21.61688290435996,False,175.89281748274794,179.35005264047462,False,3.7450256948185205,True,False
11,1970-07-23 11:41:38.673442727,2025-09-17,2025-09-26 17:24:27.344,AA,D,331841396,JASSM,3,102,76,2,2,1,225,9,2,0,1,26,0,0,0,0,-186183.38513358065,-4786409.432588424,4201928.811979771,-2.30145,-0.153015,0.128375,88.5,-13.5,-11.5,0.0,0.0,0.0,0.0,0.0,0.0,2,0,41.44879394167819,-92.22758770185489,10000.00249847907,99.83009717827504,-0.0047271141991536,0.0057606897917264,,8951.965087688533,11182.851152867626,150,11,2025-09-17,2025-09-26 17:24:27.258,AA,D,1430552838,AMBUSH51,1,1,48,2,1,1,225,2,1,0,0,9,1,225,2,1,-146967.4050542867,-4792223.533927906,4196411.623824713,2.00112,3.00143,-0.159069,-103.29,17.8179,17.8883,-0.149709,-7.43754,7.26712,0.0914806,0.0189324,-0.0296599,4,0,41.385078816884274,-91.75659034839406,8967.794742163735,-79.03357037077818,1.3616521082102904,-17.099036078093075,173.97,8951.965087688533,11182.851152867626,150,False,21.52430804068943,False,177.3908440572762,179.35199524163323,False,2.2128254753572705,True,False
11,1970-07-23 11:41:38.683337714,2025-09-17,2025-09-26 17:24:28.333,AA,D,333032420,JASSM,3,102,76,2,2,1,225,9,2,0,1,26,0,0,0,0,-186094.96325858065,-4786423.079072799,4201917.259245396,-2.30145,-0.153015,0.128375,88.5,-13.5,-11.5,0.0,0.0,0.0,0.0,0.0,0.0,2,0,41.44865524576334,-92.22652450330972,9999.996479583686,99.83080096209112,-0.0039182163389901,0.0057600907668192,,8951.965087688533,11182.851152867626,150,11,2025-09-17,2025-09-26 17:24:28.424,AA,D,1431944670,AMBUSH51,1,1,48,2,1,1,225,2,1,0,0,9,1,225,2,1,-147088.1098015024,-4792204.348769164,4196430.809857396,2.05124,3.03123,-0.144033,-104.112,15.0359,16.0345,-0.0473827,-7.79515,7.68141,0.063274,0.0155597,-0.00670888,4,0,41.38530045011412,-91.7580391697798,8971.318117844148,-80.80063109578057,2.0513673428706047,-14.02222777158808,174.177,8951.965087688533,11182.851152867626,150,False,21.409335964197034,False,178.5796116790868,179.3527293869016,False,0.77510976052954,True,False
11,1970-07-23 11:41:38.692354402,2025-09-17,2025-09-26 17:24:29.235,AA,D,334165556,JASSM,3,102,76,2,2,1,225,9,2,0,1,26,0,0,0,0,-186010.8402117056,-4786436.063447799,4201906.269011021,-2.30145,-0.153015,0.128375,88.5,-13.5,-11.5,0.0,0.0,0.0,0.0,0.0,0.0,2,0,41.44852328138268,-92.22551299812946,9999.99975700204,99.83147052570828,-0.0031486439837388,0.0057595185892071,,8951.965087688533,11182.851152867626,150,11,2025-09-17,2025-09-26 17:24:29.224,AA,D,1432899070,AMBUSH51,1,1,48,2,1,1,225,2,1,0,0,9,1,225,2,1,-147171.61230221204,-4792192.838981036,4196443.030191525,2.09875,3.04127,-0.134551,-104.585,13.5142,15.0663,-0.0320545,-7.48417,7.32491,0.0688458,-0.00510474,-0.0202952,4,0,41.38543617556471,-91.75904081087806,8975.813505552456,-81.58616329325609,2.118365811651215,-11.249116648956004,174.397,8951.965087688533,11182.851152867626,150,False,21.317427600788324,False,178.46916483208915,179.35243743866454,False,1.0782841090753554,True,False
11,1970-07-23 11:41:38.701392105,2025-09-17,2025-09-26 17:24:30.139,AA,D,335300168,JASSM,3,102,76,2,2,1,225,9,2,0,1,26,0,0,0,0,-185926.60778983065,-4786449.063447799,4201895.263151646,-2.30145,-0.153015,0.128471,88.5,-13.5,-11.5,0.0,0.0,0.0,0.0,0.0,0.0,2,0,41.44839113498309,-92.22450018250316,10000.000838420972,99.83623156529272,-0.0060443949998892,0.0057586433941731,,8951.965087688533,11182.851152867626,150,11,2025-09-17,2025-09-26 17:24:29.958,AA,D,1433773934,AMBUSH51,1,1,48,2,1,1,225,2,1,0,0,9,1,225,2,1,-147248.24674383752,-4792183.193909079,4196453.344149568,2.13901,3.05258,-0.121554,-104.857,12.6172,14.1032,-0.132116,-7.20139,7.14809,0.0640313,-5.30552e-05,-0.00485923,4,0,41.38554918411251,-91.75995973359902,8980.246290989724,-82.57086176737785,2.1072825868976697,-8.895778198664715,174.312,8951.965087688533,11182.851152867626,150,True,21.229362029944117,False,178.18082538682805,179.35135796331284,False,1.5890633836959376,True,False
11,1970-07-23 11:41:38.710425193,2025-09-17,2025-09-26 17:24:31.042,AA,D,336374828,JASSM,3,102,76,2,2,1,225,9,2,0,1,26,0,0,0,0,-185846.8245867056,-4786461.375947799,4201884.837370396,-2.30145,-0.153015,0.128471,88.5,-13.5,-11.5,0.0,0.0,0.0,0.0,0.0,0.0,2,0,41.44826595687552,-92.22354086872257,10000.000583645571,99.83686657767196,-0.0053145240639142,0.0057581477331006,,8951.965087688533,11182.851152867626,150,11,2025-09-17,2025-09-26 17:24:31.094,AA,D,1435126000,AMBUSH51,1,1,48,2,1,1,225,2,1,0,0,9,1,225,2,1,-147367.7544393008,-4792169.293054275,4196468.460919384,2.2027,3.06459,-0.117904,-105.146,11.376,13.3537,-0.272405,-7.40819,7.32136,0.0459551,0.00466157,-0.010764,4,0,41.38571208755821,-91.76139233578331,8987.87224040925,-83.18121002534507,2.4823411641297217,-5.188894525551247,174.434,8951.965087688533,11182.851152867626,150,True,21.12046995354,False,177.51871559872347,179.34983598142253,False,2.358920344062366,True,False
11,1970-07-23 11:41:38.720461946,2025-09-17,2025-09-26 17:24:32.046,AA,D,337507340,JASSM,3,102,76,2,2,1,225,9,2,0,1,26,0,0,0,0,-185762.74841483065,-4786474.350557174,4201873.849089146,-2.30145,-0.153015,0.128471,88.5,-13.5,-11.5,0.0,0.0,0.0,0.0,0.0,0.0,2,0,41.44813402673104,-92.22252994043338,9999.999731852053,99.83753575427951,-0.0045453790730906,0.0057576176564838,,8951.965087688533,11182.851152867626,150,11,2025-09-17,2025-09-26 17:24:32.161,AA,D,1436398532,AMBUSH51,1,1,48,2,1,1,225,2,1,0,0,9,1,225,2,1,-147479.14574955104,-4792157.38328865,4196482.032230984,2.2352,3.0683,-0.115683,-105.293,10.6769,13.0368,-0.00224617,-7.12397,6.98042,0.0205906,0.00216486,-0.00517756,4,0,41.38585418096094,-91.7627272631646,8996.437791044767,-83.41730660709133,2.5575315713947377,-3.312210857033587,174.776,8951.965087688533,11182.851152867626,150,True,21.013768251031358,False,177.1240612959287,179.3480497790818,False,2.7833826503346324,True,False
11,1970-07-23 11:41:38.729350020,2025-09-17,2025-09-26 17:24:32.935,AA,D,338639482,JASSM,3,102,76,2,2,1,225,9,2,0,1,26,0,0,0,0,-185678.69763358065,-4786487.319307174,4201862.864714146,-2.30145,-0.153015,0.128471,88.5,-13.5,-11.5,0.0,0.0,0.0,0.0,0.0,0.0,2,0,41.44800214306673,-92.2215193224342,9999.999163179991,99.83820472374067,-0.0037764696595624,0.0057571028827531,,8951.965087688533,11182.851152867626,150,11,2025-09-17,2025-09-26 17:24:32.927,AA,D,1437313164,AMBUSH51,1,1,48,2,1,1,225,2,1,0,0,9,1,225,2,1,-147559.76272749002,-4792149.05447923,4196491.612744404,2.25086,3.06817,-0.115211,-105.353,10.3331,12.9457,-0.265723,-6.99521,6.87433,0.00515467,-0.0017633,-0.0111759,4,0,41.38595364951762,-91.76369328315585,9002.832363298196,-83.43346079146204,2.535022821605299,-2.416372375049848,174.74,8951.965087688533,11182.851152867626,150,True,20.923861987896462,False,176.9326132283941,179.34612449761377,False,2.9820762222516204,True,False
11,1970-07-23 11:41:38.738404735,2025-09-17,2025-09-26 17:24:33.840,AA,D,339714168,JASSM,3,102,76,2,2,1,225,9,2,0,1,26,0,0,0,0,-185598.91247733065,-4786499.629854049,4201852.436979771,-2.30145,-0.153015,0.128471,88.5,-13.5,-11.5,0.0,0.0,0.0,0.0,0.0,0.0,2,0,41.44787693899623,-92.2205599976756,10000.000251938283,99.838839738485,-0.0030465819150346,0.0057566089186997,,8951.965087688533,11182.851152867626,150,11,2025-09-17,2025-09-26 17:24:33.994,AA,D,1438585696,AMBUSH51,1,1,48,2,1,1,225,2,1,0,0,9,1,225,2,1,-147672.9962914942,-4792137.488929972,4196504.913633637,2.24816,3.06869,-0.113711,-105.521,10.2067,12.6339,-0.0815954,-7.05192,6.94163,-0.00389383,-0.00526078,0.00348604,4,0,41.38609150513689,-91.7650500973598,9011.809179958116,-83.51854937004029,2.501447265869435,-2.571662388672052,174.862,8951.965087688533,11182.851152867626,150,True,20.81859020531305,False,176.83191827945586,179.3438208815762,False,3.1231666697025604,True,False
11,1970-07-23 11:41:38.747729322,2025-09-17,2025-09-26 17:24:34.772,AA,D,340788324,JASSM,3,102,76,2,2,1,225,9,2,0,1,26,0,0,0,0,-185519.1683367056,-4786511.932588424,4201842.015104771,-2.30145,-0.153015,0.128471,88.5,-13.5,-11.5,0.0,0.0,0.0,0.0,0.0,0.0,2,0,41.44775180349173,-92.21960117045631,10000.002176115562,99.83947442231153,-0.0023170719646432,0.0057561271082978,,8951.965087688533,11182.851152867626,150,11,2025-09-17,2025-09-26 17:24:34.661,AA,D,1439381028,AMBUSH51,1,1,48,2,1,1,225,2,1,0,0,9,1,225,2,1,-147742.81662700692,-4792130.799288358,4196512.682690275,2.23775,3.06826,-0.111807,-105.665,9.97264,12.3617,-0.0715799,-6.90227,6.86269,-0.0240298,-0.00926385,-0.0143967,4,0,41.38617095300492,-91.76588655483262,9017.49673535644,-83.58479877976076,2.411572937929189,-3.1738796314373614,175.167,8951.965087688533,11182.851152867626,150,True,20.736993426439014,False,176.67325341999614,179.34142919601678,False,3.3098228467892215,True,False
11,1970-07-23 11:41:38.757481778,2025-09-17,2025-09-26 17:24:35.748,AA,D,341920344,JASSM,3,102,76,2,2,1,225,9,2,0,1,26,0,0,0,0,-185435.12732108065,-4786524.897432174,4201831.028776646,-2.30145,-0.152919,0.128471,88.5,-13.5,-11.5,0.0,0.0,0.0,0.0,0.0,0.0,2,0,41.44761990191587,-92.21859068285156,9999.999638111743,99.8365072160426,-0.0056051732822361,0.0050520576991892,,8951.965087688533,11182.851152867626,150,11,2025-09-17,2025-09-26 17:24:35.761,AA,D,1440693328,AMBUSH51,1,1,48,2,1,1,225,2,1,0,0,9,1,225,2,1,-147860.17257476712,-4792119.573233371,4196525.643277071,2.19999,3.06815,-0.104262,-105.872,9.75828,11.6931,-0.0909186,-6.71123,6.52936,-0.0488014,-0.00820899,-0.000356822,4,0,41.38630370906098,-91.7672924925502,9026.894513121297,-83.90624333474533,2.122179443416328,-5.350318654649255,175.082,8951.965087688533,11182.851152867626,150,True,20.627268688339843,False,176.4595584983352,179.33799322544115,False,3.5918761739576377,True,False
11,1970-07-23 11:41:38.766369682,2025-09-17,2025-09-26 17:24:36.636,AA,D,342994250,JASSM,3,102,76,2,2,1,225,9,2,0,1,26,0,0,0,0,-185355.40075858065,-4786537.196260299,4201820.606901646,-2.30145,-0.152919,0.128471,88.5,-13.5,-11.5,0.0,0.0,0.0,0.0,0.0,0.0,2,0,41.44749476919335,-92.21763207510796,10000.000616202144,99.83714175139302,-0.0048758231139548,0.0050515213113973,,8951.965087688533,11182.851152867626,150,11,2025-09-17,2025-09-26 17:24:36.494,AA,D,1441568194,AMBUSH51,1,1,48,2,1,1,225,2,1,0,0,9,1,225,2,1,-147936.95823874764,-4792112.2569290735,4196533.628486134,2.17333,3.06537,-0.0998054,-105.997,9.59001,11.0714,0.00460598,-6.57079,6.37983,-0.028861,-0.00593906,-0.00311153,4,0,41.38638704830519,-91.76821238538022,9032.044991817344,-83.99359592575667,1.835164001079085,-6.897104377510199,175.216,8951.965087688533,11182.851152867626,150,True,20.541947826188352,False,176.2560094378991,179.3345207152243,False,3.8505214364024125,True,False
11,1970-07-23 11:41:38.775422077,2025-09-17,2025-09-26 17:24:37.542,AA,D,344128686,JASSM,3,102,76,2,2,1,225,9,2,0,1,26,0,0,0,0,-185271.1800554556,-4786550.186494674,4201809.597136021,-2.30145,-0.152919,0.128471,88.5,-13.5,-11.5,0.0,0.0,0.0,0.0,0.0,0.0,2,0,41.44736258247066,-92.21661943606264,9999.999837472224,99.83781205020308,-0.0041053619418922,0.0050509627593777,,8951.965087688533,11182.851152867626,150,11,2025-09-17,2025-09-26 17:24:37.562,AA,D,1442840726,AMBUSH51,1,1,48,2,1,1,225,2,1,0,0,9,1,225,2,1,-148050.73539553687,-4792101.546868838,4196544.2795296265,2.14556,3.06276,-0.0843553,-106.319,9.75712,9.4402,-0.0179627,-6.1911,6.09199,-0.0278144,-0.0060743,-0.0175966,4,0,41.38650176929099,-91.76957539176232,9037.44261180408,-84.55960314058163,1.138509017027266,-8.51669301367789,175.595,8951.965087688533,11182.851152867626,150,True,20.43421836612163,False,175.90558991791895,179.3281585042467,False,4.340138871627116,True,False
11,1970-07-23 11:41:38.784461466,2025-09-17,2025-09-26 17:24:38.446,AA,D,345202798,JASSM,3,102,76,2,2,1,225,9,2,0,1,26,0,0,0,0,-185191.4378679556,-4786562.487275924,4201799.171354771,-2.30145,-0.152919,0.128471,88.5,-13.5,-11.5,0.0,0.0,0.0,0.0,0.0,0.0,2,0,41.44723739893851,-92.2156606482381,10000.00263200531,99.83844670151392,-0.0033758672745263,0.0050504164706197,,8951.965087688533,11182.851152867626,150,11,2025-09-17,2025-09-26 17:24:38.627,AA,D,1444113258,AMBUSH51,1,1,48,2,1,1,225,2,1,0,0,9,1,225,2,1,-148163.45358650587,-4792090.779590413,4196553.064379337,2.13742,3.06412,-0.0678889,-106.834,9.74446,7.86961,-0.140129,-6.44819,6.18626,-0.0424452,-0.00536065,-0.0100253,4,0,41.386604407650495,-91.7709257741211,9038.577734142098,-85.31926614932823,0.5733365505303575,-8.988548738668955,176.059,8951.965087688533,11182.851152867626,150,True,20.329633659524543,False,175.35017346737442,179.31905503997012,False,4.993023916341931,True,False
11,1970-07-23 11:41:38.793367391,2025-09-17,2025-09-26 17:24:39.336,AA,D,346276568,JASSM,3,102,76,2,2,1,225,9,2,0,1,26,0,0,0,0,-185111.72107108065,-4786574.782197799,4201788.747526646,-2.30145,-0.152919,0.128471,88.5,-13.5,-11.5,0.0,0.0,0.0,0.0,0.0,0.0,2,0,41.44711224962218,-92.21470217028272,10000.00108080929,99.83908114613624,-0.002646605933212,0.0050498725214872,,8951.965087688533,11182.851152867626,150,11,2025-09-17,2025-09-26 17:24:39.361,AA,D,1444988124,AMBUSH51,1,1,48,2,1,1,225,2,1,0,0,9,1,225,2,1,-148243.0551173917,-4792083.375338837,4196558.179144706,2.07137,3.06694,-0.0594163,-107.253,9.50018,6.54213,-0.0976076,-6.69239,6.40637,-0.106756,0.00216694,-0.0167415,4,0,41.38666834009647,-91.77187934219384,9037.512082747382,-85.79039028491708,0.3734295873850256,-12.76673092629222,176.573,8951.965087688533,11182.851152867626,150,False,20.243037558059957,False,174.73790598872685,179.31052635166893,False,5.658907691381414,True,False
11,1970-07-23 11:41:38.803442251,2025-09-17,2025-09-26 17:24:40.344,AA,D,347408774,JASSM,3,102,76,2,2,1,225,9,2,0,1,26,0,0,0,0,-185027.66638358065,-4786587.745088424,4201777.757292271,-2.30145,-0.152919,0.128567,88.5,-13.5,-11.5,0.0,0.0,0.0,0.0,0.0,0.0,2,0,41.44698029342293,-92.21369154002016,10000.002261816797,99.84384076587295,-0.0055439364361951,0.0050490456943731,,8951.965087688533,11182.851152867626,150,11,2025-09-17,2025-09-26 17:24:40.294,AA,D,1446101588,AMBUSH51,1,1,48,2,1,1,225,2,1,0,0,9,1,225,2,1,-148342.3703365506,-4792074.974507437,4196563.037895264,2.01227,3.07536,-0.0443513,-107.67,8.57447,4.71216,0.101281,-6.73654,6.39506,-0.0237261,-0.00542931,-0.0312911,4,0,41.38673283382939,-91.77306875904088,9034.943819011776,-86.75722513576925,0.1643806034584585,-16.132460154454975,177.624,8951.965087688533,11182.851152867626,150,False,20.14362231408307,False,173.66828837336803,179.29799831139985,False,6.7666046381996825,True,False
11,1970-07-23 11:41:38.812464991,2025-09-17,2025-09-26 17:24:41.246,AA,D,348484270,JASSM,3,102,76,2,2,1,225,9,2,0,1,26,0,0,0,0,-184947.82263358065,-4786600.057588424,4201767.315886021,-2.30145,-0.152919,0.128567,88.5,-13.5,-11.5,0.0,0.0,0.0,0.0,0.0,0.0,2,0,41.446854933679504,-92.21273154414702,10000.000656009464,99.8444762120346,-0.0048135152319239,0.0050485580912054,,8951.965087688533,11182.851152867626,150,11,2025-09-17,2025-09-26 17:24:41.294,AA,D,1447294588,AMBUSH51,1,1,48,2,1,1,225,2,1,0,0,9,1,225,2,1,-148449.81868404,-4792066.821246068,4196566.2844389165,2.00152,3.0923,-0.0169832,-108.252,7.53696,2.13725,-0.0521823,-6.90658,6.79306,0.0243149,0.00161766,-0.0246498,4,0,41.38678345805088,-91.77435523648674,9030.112603479456,-88.57587712038605,-0.1441999901573756,-16.718724046569857,178.381,8951.965087688533,11182.851152867626,150,False,20.04237340557838,False,172.24141312085374,179.28161207823672,False,8.242467874718042,True,False
11,1970-07-23 11:41:38.821347342,2025-09-17,2025-09-26 17:24:42.134,AA,D,349558030,JASSM,3,102,76,2,2,1,225,9,2,0,1,26,0,0,0,0,-184868.1058367056,-4786612.350557174,4201756.890104771,-2.30145,-0.152919,0.128567,88.5,-13.5,-11.5,0.0,0.0,0.0,0.0,0.0,0.0,2,0,41.446729758402086,-92.21177307835188,10000.000442581366,99.84511064382151,-0.0040842542064584,0.0050480644725578,,8951.965087688533,11182.851152867626,150,11,2025-09-17,2025-09-26 17:24:42.261,AA,D,1448447820,AMBUSH51,1,1,48,2,1,1,225,2,1,0,0,9,1,225,2,1,-148554.98255968594,-4792060.195463554,4196567.142204462,2.05752,3.10651,0.0019152,-108.787,6.10833,0.0953244,-0.15338,-7.28914,7.20284,0.0890713,0.00606181,-0.0149522,4,0,41.38680927429153,-91.77561386306309,9023.689708767582,-89.92721545124957,-0.2485718466965057,-13.499644510546997,179.127,8951.965087688533,11182.851152867626,150,False,19.942697108724236,False,170.91745492574418,179.2620160578641,False,9.592154656781336,True,False
11,1970-07-23 11:41:38.831382721,2025-09-17,2025-09-26 17:24:43.138,AA,D,350748902,JASSM,3,102,76,2,2,1,225,9,2,0,1,26,0,0,0,0,-184779.6956804556,-4786625.981416549,4201745.327604771,-2.30145,-0.152919,0.128567,88.5,-13.5,-11.5,0.0,0.0,0.0,0.0,0.0,0.0,2,0,41.44659094072888,-92.21071009449668,9999.998085898236,99.84581425680663,-0.0032754689711954,0.0050475342590139,,8951.965087688533,11182.851152867626,150,11,2025-09-17,2025-09-26 17:24:43.127,AA,D,1449481752,AMBUSH51,1,1,48,2,1,1,225,2,1,0,0,9,1,225,2,1,-148649.1053381732,-4792055.362206619,4196566.652270956,2.16493,3.11892,0.00921814,-109.253,4.71596,-0.644367,-0.330414,-7.38309,7.20859,0.149404,0.0144591,-0.0122599,4,0,41.3868173525093,-91.77673994219865,9017.916724986178,-90.71212499909588,0.0092479689998108,-7.347541355866596,179.75,8951.965087688533,11182.851152867626,150,True,19.844312841147715,False,170.15637143854988,179.24202239095422,False,10.358891013378118,True,False
11,1970-07-23 11:41:38.843721882,2025-09-17,2025-09-26 17:24:44.372,AA,D,352003256,JASSM,3,102,76,2,2,1,225,9,2,0,1,26,0,0,0,0,-184686.57263358065,-4786640.340791549,4201733.147917271,-2.30145,-0.152919,0.128567,88.5,-13.5,-11.5,0.0,0.0,0.0,0.0,0.0,0.0,2,0,41.4464446956296,-92.20959045006272,10000.002985345684,99.84655537261152,-0.0024235661815203,0.0050469592692696,,8951.965087688533,11182.851152867626,150,11,2025-09-17,2025-09-26 17:24:44.496,AA,D,1451112184,AMBUSH51,1,1,48,2,1,1,225,2,1,0,0,9,1,225,2,1,-148798.73399722192,-4792049.096976666,4196564.978954742,2.32713,3.126,0.00600607,-109.706,3.8252,-0.683922,-0.253765,-7.37774,7.15848,0.0777071,0.00667351,0.012004,4,0,41.38681569687493,-91.77852956607926,9010.29794401296,-90.84325294870136,0.4363725965273521,1.942115799874433,180.495,8951.965087688533,11182.851152867626,150,True,19.714105737828493,False,169.83753712914012,179.20896970915217,False,10.702021277928786,True,False
11,1970-07-23 11:41:38.852441412,2025-09-17,2025-09-26 17:24:45.244,AA,D,353316022,JASSM,3,102,76,2,2,1,225,9,2,0,1,26,0,0,0,0,-184589.11169608065,-4786655.364229049,4201720.399870396,-2.30145,-0.152823,0.128567,88.5,-13.5,-11.5,0.0,0.0,0.0,0.0,0.0,0.0,2,0,41.44629164842062,-92.20841865756944,9999.999031227348,99.84369501493396,-0.0055889018060563,0.004342308433982,,8951.965087688533,11182.851152867626,150,11,2025-09-17,2025-09-26 17:24:45.194,AA,D,1451947282,AMBUSH51,1,1,48,2,1,1,225,2,1,0,0,9,1,225,2,1,-148875.6197900207,-4792046.074886251,4196564.364704178,2.37302,3.12005,-0.00369433,-109.965,3.95365,-0.227819,-0.173808,-7.34116,7.07336,0.0654649,0.00425586,0.0113819,4,0,41.38681532033442,-91.77944908088952,9007.40554887221,-90.20155550640057,0.5488817796851677,4.577512517960331,180.911,8951.965087688533,11182.851152867626,150,True,19.619996107832847,False,170.05796176798378,179.1907344202748,False,10.49925344990024,True,False
11,1970-07-23 11:41:38.863463941,2025-09-17,2025-09-26 17:24:46.346,AA,D,354626572,JASSM,3,102,76,2,2,1,225,9,2,0,1,26,0,0,0,0,-184491.8167742056,-4786670.364229049,4201707.671354771,-2.30145,-0.152823,0.128567,88.5,-13.5,-11.5,0.0,0.0,0.0,0.0,0.0,0.0,2,0,41.44613882245313,-92.20724886561663,10000.000696797604,99.8444693198176,-0.004698834061994,0.004341645451947,,8951.965087688533,11182.851152867626,150,11,2025-09-17,2025-09-26 17:24:46.361,AA,D,1453339114,AMBUSH51,1,1,48,2,1,1,225,2,1,0,0,9,1,225,2,1,-149004.51247889816,-4792040.69775856,4196563.956107567,2.40245,3.11398,-0.00820391,-110.497,4.80241,0.603797,-0.140194,-7.17263,6.86315,-0.0314305,0.00550421,0.00974863,4,0,41.38682071560039,-91.78099068760952,9003.146056954141,-89.77888894690376,0.460057273415111,6.265037960867669,181.607,8951.965087688533,11182.851152867626,150,True,19.498408050891076,False,170.66555469967156,179.16156438266162,False,9.932910973356432,True,False
11,1970-07-23 11:41:38.875484008,2025-09-17,2025-09-26 17:24:47.548,AA,D,355940474,JASSM,3,102,76,2,2,1,225,9,2,0,1,26,0,0,0,0,-184394.27185233065,-4786685.399385299,4201694.909636021,-2.30145,-0.152823,0.128567,88.5,-13.5,-11.5,0.0,0.0,0.0,0.0,0.0,0.0,2,0,41.44598560865761,-92.2060760749458,9999.998044025386,99.84524560724354,-0.0038064832837927,0.004340997077342,,8951.965087688533,11182.851152867626,150,11,2025-09-17,2025-09-26 17:24:47.427,AA,D,1454611646,AMBUSH51,1,1,48,2,1,1,225,2,1,0,0,9,1,225,2,1,-149123.31912630238,-4792034.956730781,4196564.888151772,2.37526,3.10577,-0.0198192,-110.865,5.10576,1.79632,-0.0819922,-7.39502,7.03357,-0.0130172,0.00382101,0.00927633,4,0,41.3868391739338,-91.78241195379934,9000.135544022172,-88.96962402940476,0.5483122221802782,4.7077423848120254,182.06,8951.965087688533,11182.851152867626,150,True,19.38186845603471,False,171.2206316222708,179.1355128641261,False,9.392685832164771,True,False
11,1970-07-23 11:41:38.886345196,2025-09-17,2025-09-26 17:24:48.634,AA,D,357252266,JASSM,3,102,76,2,2,1,225,9,2,0,1,26,0,0,0,0,-184296.88513358065,-4786700.411104049,4201682.167448521,-2.30145,-0.152823,0.128567,88.5,-13.5,-11.5,0.0,0.0,0.0,0.0,0.0,0.0,2,0,41.4458326179144,-92.20490519143296,10000.000263298709,99.84602062993898,-0.0029155771083812,0.0043403364568961,,8951.965087688533,11182.851152867626,150,11,2025-09-17,2025-09-26 17:24:48.461,AA,D,1455844412,AMBUSH51,1,1,48,2,1,1,225,2,1,0,0,9,1,225,2,1,-149237.14836259212,-4792029.089812089,4196566.749247798,2.34099,3.10153,-0.0274296,-111.121,5.7603,2.29975,-0.0104412,-7.20522,6.94604,-0.0420852,0.00477809,0.0169683,4,0,41.38686555878826,-91.7837738134032,8998.456387925638,-88.48249557968516,0.6550716662307693,2.743872704576367,182.793,8951.965087688533,11182.851152867626,150,True,19.267960556151095,False,171.63371539222408,179.111206862512,False,9.015826626299669,True,False
11,1970-07-23 11:41:38.896381809,2025-09-17,2025-09-26 17:24:49.638,AA,D,358564810,JASSM,3,102,76,2,2,1,225,9,2,0,1,26,0,0,0,0,-184199.4417742056,-4786715.428682174,4201669.417448521,-2.30145,-0.152823,0.128567,88.5,-13.5,-11.5,0.0,0.0,0.0,0.0,0.0,0.0,2,0,41.44567954064348,-92.2037336337552,9999.999628291302,99.8467960965163,-0.0020241561891258,0.0043396894091679,,8951.965087688533,11182.851152867626,150,11,2025-09-17,2025-09-26 17:24:49.627,AA,D,1457236244,AMBUSH51,1,1,48,2,1,1,225,2,1,0,0,9,1,225,2,1,-149367.6760123521,-4792022.12020673,4196569.530825573,2.33047,3.0975,-0.0324329,-111.433,5.78004,3.02591,-0.158433,-7.2182,6.88625,0.00518172,-0.00965292,-0.00324469,4,0,41.38690160582636,-91.78533554553196,8997.348070527993,-88.11583965170604,0.6726080669979476,2.1384434613395134,183.44,8951.965087688533,11182.851152867626,150,True,19.145084670471697,False,171.90273658099184,179.08387168276897,False,8.763436235186491,True,False
11,1970-07-23 11:41:38.907739866,2025-09-17,2025-09-26 17:24:50.773,AA,D,359875708,JASSM,3,102,76,2,2,1,225,9,2,0,1,26,0,0,0,0,-184102.11950858065,-4786730.426729049,4201656.683073521,-2.30145,-0.152823,0.128663,88.5,-13.5,-11.5,0.0,0.0,0.0,0.0,0.0,0.0,2,0,41.445526645380994,-92.2025635378794,10000.001447432012,99.85166129428572,-0.0048000663785655,0.0043388348753692,,8951.965087688533,11182.851152867626,150,11,2025-09-17,2025-09-26 17:24:50.694,AA,D,1458508776,AMBUSH51,1,1,48,2,1,1,225,2,1,0,0,9,1,225,2,1,-149485.96284939072,-4792015.454356566,4196572.674666577,2.2711,3.09383,-0.0389559,-111.736,5.77466,3.42682,-0.100607,-7.38996,7.11436,-0.0429071,0.00746413,0.0142302,4,0,41.386940542402,-91.786750951255,8996.842139725526,-87.69758954550086,0.763326369907687,-1.2653964427713975,183.734,8951.965087688533,11182.851152867626,150,True,19.028717387956345,False,172.0373436996211,179.05915077961603,False,8.648226132301623,True,False
11,1970-07-23 11:41:38.918421195,2025-09-17,2025-09-26 17:24:51.842,AA,D,361128694,JASSM,3,102,76,2,2,1,225,9,2,0,1,26,0,0,0,0,-184009.09704764312,-4786744.760713424,4201644.509245396,-2.30145,-0.152823,0.128663,88.5,-13.5,-11.5,0.0,0.0,0.0,0.0,0.0,0.0,2,0,41.44538048862112,-92.20144514391934,9999.999898616245,99.8524015668186,-0.0039490886020608,0.0043382758255838,,8951.965087688533,11182.851152867626,150,11,2025-09-17,2025-09-26 17:24:51.861,AA,D,1459900608,AMBUSH51,1,1,48,2,1,1,225,2,1,0,0,9,1,225,2,1,-149617.32601191715,-4792008.554354949,4196576.417233399,2.23508,3.09737,-0.0353098,-112.09,5.51575,3.28906,-0.10224,-7.20312,6.99946,-0.0341894,0.00277447,-0.00124316,4,0,41.38698246897072,-91.78832264124055,8998.070459959616,-87.98945160966777,0.7785134452572121,-3.325870778914138,184.21,8951.965087688533,11182.851152867626,150,True,18.907772599168148,False,171.88349619492902,179.0317465137163,False,8.832270345984151,True,False
11,1970-07-23 11:41:38.929440759,2025-09-17,2025-09-26 17:24:52.944,AA,D,362440758,JASSM,3,102,76,2,2,1,225,9,2,0,1,26,0,0,0,0,-183911.68884451807,-4786759.770479049,4201631.761198521,-2.30145,-0.152823,0.128663,88.5,-13.5,-11.5,0.0,0.0,0.0,0.0,0.0,0.0,2,0,41.44522742774244,-92.20027402628406,10000.002612501925,99.85317673520797,-0.0030579893778247,0.0043376888060447,,8951.965087688533,11182.851152867626,150,11,2025-09-17,2025-09-26 17:24:52.926,AA,D,1461173140,AMBUSH51,1,1,48,2,1,1,225,2,1,0,0,9,1,225,2,1,-149736.4518877764,-4792002.617078952,4196579.610537936,2.21708,3.10133,-0.0307979,-112.448,5.07875,2.95651,-0.151186,-7.27574,7.00876,0.0164898,0.00342154,-0.00559784,4,0,41.387017213702016,-91.78974780080291,8999.544042189656,-88.33427739188353,0.7787943957494423,-4.354200951484828,184.418,8951.965087688533,11182.851152867626,150,True,18.79098454107766,False,171.59637331706548,179.0055224568209,False,9.14798674646624,True,False
11,1970-07-23 11:41:38.940941299,2025-09-17,2025-09-26 17:24:54.094,AA,D,363754312,JASSM,3,102,76,2,2,1,225,9,2,0,1,26,0,0,0,0,-183814.17028983065,-4786774.795869674,4201618.997526646,-2.30145,-0.152727,0.128663,88.5,-13.5,-11.5,0.0,0.0,0.0,0.0,0.0,0.0,2,0,41.44507418174772,-92.19910158806344,10000.004450482971,99.85031688160215,-0.0062227925186955,0.0036325487247205,,8951.965087688533,11182.851152867626,150,11,2025-09-17,2025-09-26 17:24:54.127,AA,D,1462604738,AMBUSH51,1,1,48,2,1,1,225,2,1,0,0,9,1,225,2,1,-149872.274045985,-4791996.533834048,4196582.947015906,2.26467,3.107,-0.0260026,-112.76,4.4745,2.88653,-0.267887,-7.18467,6.95759,0.0283055,0.00601604,-0.0107265,4,0,41.38705067018736,-91.79137245120027,9002.26101793292,-88.75599917820823,0.8417832570437372,-1.62443439805906,184.944,8951.965087688533,11182.851152867626,150,True,18.6653411703686,False,171.34139699189248,178.9746331846407,False,9.426084553391167,True,False
11,1970-07-23 11:41:38.951338544,2025-09-17,2025-09-26 17:24:55.133,AA,D,365066336,JASSM,3,102,76,2,2,1,225,9,2,0,1,26,0,0,0,0,-183716.76501639312,-4786789.801729049,4201606.245573521,-2.30145,-0.152727,0.128663,88.5,-13.5,-11.5,0.0,0.0,0.0,0.0,0.0,0.0,2,0,41.444921093235216,-92.19793051825256,9999.99950587188,99.85109201367308,-0.0053317198258366,0.0036318966321257,,8951.965087688533,11182.851152867626,150,11,2025-09-17,2025-09-26 17:24:55.060,AA,D,1463718204,AMBUSH51,1,1,48,2,1,1,225,2,1,0,0,9,1,225,2,1,-149976.60490005053,-4791991.879230564,4196585.533577503,2.26603,3.1092,-0.0303651,-112.886,4.55944,2.71772,-0.00777115,-7.2696,6.91617,-0.0355522,-0.00119946,0.00844826,4,0,41.38707640555837,-91.79262040923868,9004.450608146433,-88.65278912250207,1.1027739974322173,-1.540864238836102,185.261,8951.965087688533,11182.851152867626,150,True,18.55649712926796,False,171.31146373506263,178.94968049617566,False,9.492749314880255,True,False
11,1970-07-23 11:41:38.961381537,2025-09-17,2025-09-26 17:24:56.138,AA,D,366320110,JASSM,3,102,76,2,2,1,225,9,2,0,1,26,0,0,0,0,-183623.6839617056,-4786804.139619674,4201594.061979771,-2.30145,-0.152727,0.128663,88.5,-13.5,-11.5,0.0,0.0,0.0,0.0,0.0,0.0,2,0,41.44477481566894,-92.19681144299136,9999.999983669708,99.85183272830568,-0.0044802105081346,0.0036312988218835,,8951.965087688533,11182.851152867626,150,11,2025-09-17,2025-09-26 17:24:56.226,AA,D,1465110036,AMBUSH51,1,1,48,2,1,1,225,2,1,0,0,9,1,225,2,1,-150109.14646446562,-4791986.792299109,4196588.629062699,2.2299,3.10597,-0.0321099,-113.112,3.92425,2.78285,-0.0732706,-7.08855,6.77216,-0.0266451,-0.00311569,0.00193807,4,0,41.38710287983567,-91.79420550279076,9008.86000860171,-88.45646191022134,1.0311739279851526,-3.613184804075824,185.787,8951.965087688533,11182.851152867626,150,True,18.435127611877263,False,171.09205603717237,178.91767310381522,False,9.73228778349839,True,False
11,1970-07-23 11:41:38.973383064,2025-09-17,2025-09-26 17:24:57.338,AA,D,367691454,JASSM,3,102,76,2,2,1,225,9,2,0,1,26,0,0,0,0,-183521.8753679556,-4786819.823213424,4201580.731901646,-2.30145,-0.152727,0.128663,88.5,-13.5,-11.5,0.0,0.0,0.0,0.0,0.0,0.0,2,0,41.444614774478936,-92.19558744525628,10000.000167789254,99.8526428885432,-0.0035488547055464,0.00363060975508,,8951.965087688533,11182.851152867626,150,11,2025-09-17,2025-09-26 17:24:57.293,AA,D,1466382568,AMBUSH51,1,1,48,2,1,1,225,2,1,0,0,9,1,225,2,1,-150228.8859864433,-4791982.596805086,4196591.142024508,2.21761,3.1138,-0.0261783,-113.239,3.48776,2.38407,-0.0372989,-7.29349,6.78605,0.00873954,-0.0067276,-0.00579134,4,0,41.38712248410454,-91.79563734462452,9013.22061092109,-89.00892040294185,1.1440869166541956,-4.314933613161274,185.86,8951.965087688533,11182.851152867626,150,True,18.31582679830079,False,170.79069015705218,178.88691094470883,False,10.06987220703258,True,False
11,1970-07-23 11:41:38.983420222,2025-09-17,2025-09-26 17:24:58.342,AA,D,368944752,JASSM,3,102,76,2,2,1,225,9,2,0,1,26,0,0,0,0,-183428.82946951807,-4786834.153291549,4201568.550261021,-2.30145,-0.152727,0.128663,88.5,-13.5,-11.5,0.0,0.0,0.0,0.0,0.0,0.0,2,0,41.44446852577365,-92.19446880428376,9999.99869311874,99.85338331121945,-0.0026976671489142,0.0036300083970915,,8951.965087688533,11182.851152867626,150,11,2025-09-17,2025-09-26 17:24:58.460,AA,D,1467774400,AMBUSH51,1,1,48,2,1,1,225,2,1,0,0,9,1,225,2,1,-150361.79739161595,-4791978.503864716,4196593.463477384,2.23373,3.11849,-0.0218735,-113.424,3.02578,1.87666,0.0305077,-7.10612,6.69334,0.0289983,-0.00971326,-0.00657988,4,0,41.38713770945701,-91.79722648435778,9018.442289560242,-89.37265933235699,1.1837913557214614,-3.391980151070072,186.068,8951.965087688533,11182.851152867626,150,True,18.194441511201042,False,170.4427507403566,178.85161347681355,False,10.461557561637413,True,False
11,1970-07-23 11:41:38.994440640,2025-09-17,2025-09-26 17:24:59.444,AA,D,370255214,JASSM,3,102,76,2,2,1,225,9,2,0,1,26,0,0,0,0,-183331.54040701807,-4786849.137666549,4201555.811979771,-2.30145,-0.152727,0.128663,88.5,-13.5,-11.5,0.0,0.0,0.0,0.0,0.0,0.0,2,0,41.444315583710406,-92.19329915502855,10000.001636889552,99.85415749371604,-0.0018076605505815,0.0036293674459154,,8951.965087688533,11182.851152867626,150,11,2025-09-17,2025-09-26 17:24:59.427,AA,D,1468927632,AMBUSH51,1,1,48,2,1,1,225,2,1,0,0,9,1,225,2,1,-150471.47215500326,-4791975.641803052,4196594.867088892,2.25635,3.12053,-0.0199603,-113.572,2.66392,1.64845,-0.184238,-7.09744,6.8603,0.0252324,0.00345483,-0.000552398,4,0,41.38714373447395,-91.79853760456824,9022.915177467748,-89.53304674819586,1.199992794282272,-2.0969452448986488,186.3,8951.965087688533,11182.851152867626,150,True,18.083120611522524,False,170.22787463102654,178.82011644162827,False,10.710273237469647,True,False
11,1970-07-23 11:41:39.005481588,2025-09-17,2025-09-26 17:25:00.548,AA,D,371509414,JASSM,3,102,76,2,2,1,225,9,2,0,1,26,0,0,0,0,-183238.42712576807,-4786863.477510299,4201543.618620396,-2.30145,-0.152727,0.128759,88.5,-13.5,-11.5,0.0,0.0,0.0,0.0,0.0,0.0,2,0,41.444169190915765,-92.19217971451567,10000.00183929333,99.85898918777858,-0.0046220257318415,0.0036285507440311,,8951.965087688533,11182.851152867626,150,11,2025-09-17,2025-09-26 17:25:00.527,AA,D,1470239930,AMBUSH51,1,1,48,2,1,1,225,2,1,0,0,9,1,225,2,1,-150595.79256996635,-4791972.302820834,4196596.549994368,2.4001,3.12077,-0.0164581,-113.755,2.99958,1.74142,-0.387002,-6.85009,6.58111,0.181514,-0.00458667,0.00334664,4,0,41.38715172966023,-91.80002384316536,9027.959029536867,-89.6937929095513,1.0788699826525567,6.136313371807577,186.508,8951.965087688533,11182.851152867626,150,True,17.966342246301423,False,170.3821656513167,178.78433815378585,False,10.603626452933316,True,False
11,1970-07-23 11:41:39.016322239,2025-09-17,2025-09-26 17:25:01.632,AA,D,372820262,JASSM,3,102,76,2,2,1,225,9,2,0,1,26,0,0,0,0,-183141.10876639312,-4786878.463838424,4201530.872526646,-2.30145,-0.152727,0.128759,88.5,-13.5,-11.5,0.0,0.0,0.0,0.0,0.0,0.0,2,0,41.44401616791369,-92.19100972496793,9999.999762902253,99.8597635909476,-0.0037317499138269,0.0036279615010836,,8951.965087688533,11182.851152867626,150,11,2025-09-17,2025-09-26 17:25:01.627,AA,D,1471552228,AMBUSH51,1,1,48,2,1,1,225,2,1,0,0,9,1,225,2,1,-150721.61481873196,-4791967.765848688,4196598.681235147,2.5132,3.10888,-0.0321679,-113.823,4.38681,2.866,-0.350743,-7.13832,6.85138,0.034722,-0.00300334,0.0251325,4,0,41.38716957703863,-91.80152847061288,9031.152153968467,-88.56873838441031,1.1636444345782904,12.622055780760968,186.349,8951.965087688533,11182.851152867626,150,False,17.846342418671348,False,171.27718743565242,178.74821331784895,False,9.756015575861305,True,False
11,1970-07-23 11:41:39.026371195,2025-09-17,2025-09-26 17:25:02.637,AA,D,374074168,JASSM,3,102,76,2,2,1,225,9,2,0,1,26,0,0,0,0,-183048.01794608065,-4786892.797822799,4201518.681120396,-2.30145,-0.152631,0.128759,88.5,-13.5,-11.5,0.0,0.0,0.0,0.0,0.0,0.0,2,0,41.44386979577519,-92.18989056587505,10000.001394061235,99.85686854943928,-0.0069370569794175,0.0029223826795733,,8951.965087688533,11182.851152867626,150,11,2025-09-17,2025-09-26 17:25:02.693,AA,D,1472824760,AMBUSH51,1,1,48,2,1,1,225,2,1,0,0,9,1,225,2,1,-150842.67584375414,-4791961.9472815255,4196602.278891448,2.50741,3.08473,-0.0490967,-114.011,5.99786,4.58187,-0.147859,-7.20976,6.89542,-0.0586301,0.000248631,0.0117356,4,0,41.38720582020305,-91.80297670842242,9034.01243790942,-86.92788240251512,0.7688888897200321,12.26186266965256,186.948,8951.965087688533,11182.851152867626,150,False,17.730947319930028,False,172.44833919297068,178.7157861458095,False,8.617540356413729,True,False
11,1970-07-23 11:41:39.037383106,2025-09-17,2025-09-26 17:25:03.738,AA,D,375328060,JASSM,3,102,76,2,2,1,225,9,2,0,1,26,0,0,0,0,-182954.92810233065,-4786907.129854049,4201506.487761021,-2.30145,-0.152631,0.128759,88.5,-13.5,-11.5,0.0,0.0,0.0,0.0,0.0,0.0,2,0,41.44372341097325,-92.18877142437664,9999.99870704886,99.85760929253844,-0.0060854669379399,0.0029217758926536,,8951.965087688533,11182.851152867626,150,11,2025-09-17,2025-09-26 17:25:03.693,AA,D,1474017760,AMBUSH51,1,1,48,2,1,1,225,2,1,0,0,9,1,225,2,1,-150956.74885453784,-4791954.723680333,4196607.566766689,2.44369,3.07431,-0.0578593,-114.094,7.45132,5.9708,-0.10413,-7.06724,6.68849,-0.0778964,-0.00546468,0.0131005,4,0,41.3872631238461,-91.80434200568372,9036.548191385104,-86.15769627600885,0.6547508973847502,8.588498992334424,187.18,8951.965087688533,11182.851152867626,150,True,17.618977343363635,False,173.44899048737025,178.68823103778223,False,7.648793209755428,True,False
11,1970-07-23 11:41:39.048922364,2025-09-17,2025-09-26 17:25:04.892,AA,D,376699070,JASSM,3,102,76,2,2,1,225,9,2,0,1,26,0,0,0,0,-182853.14392264312,-4786922.799775924,4201493.155729771,-2.30145,-0.152631,0.128759,88.5,-13.5,-11.5,0.0,0.0,0.0,0.0,0.0,0.0,2,0,41.44356334686866,-92.187547764202,9999.999729141806,99.8584192125298,-0.0051543418017762,0.0029211173704368,,8951.965087688533,11182.851152867626,150,11,2025-09-17,2025-09-26 17:25:04.894,AA,D,1475449358,AMBUSH51,1,1,48,2,1,1,225,2,1,0,0,9,1,225,2,1,-151094.02138056583,-4791944.902674368,4196615.173226226,2.35542,3.06399,-0.0625659,-114.365,8.45124,7.02025,-0.107348,-6.96042,6.68541,-0.104162,0.00387719,0.0110969,4,0,41.38734716501867,-91.80598539697284,9039.5292075916,-85.56596848410184,0.3919890326312777,3.500909149643205,187.779,8951.965087688533,11182.851152867626,150,True,17.489662308412786,False,174.15538722968012,178.65734480358455,False,6.973732801273653,True,False
11,1970-07-23 11:41:39.060420745,2025-09-17,2025-09-26 17:25:06.042,AA,D,378070510,JASSM,3,102,76,2,2,1,225,9,2,0,1,26,0,0,0,0,-182751.32653983065,-4786938.473604049,4201479.817839146,-2.30145,-0.152631,0.128759,88.5,-13.5,-11.5,0.0,0.0,0.0,0.0,0.0,0.0,2,0,41.44340321450967,-92.18632371142355,10000.000048758402,99.8592293898046,-0.0042229127868292,0.0029204555437629,,8951.965087688533,11182.851152867626,150,11,2025-09-17,2025-09-26 17:25:05.861,AA,D,1476602590,AMBUSH51,1,1,48,2,1,1,225,2,1,0,0,9,1,225,2,1,-151204.54457032046,-4791936.418072947,4196621.932791638,2.24768,3.06177,-0.0680643,-114.558,8.8335,7.02968,0.0458345,-7.29334,6.87422,-0.109505,-0.00421008,-0.00569147,4,0,41.387422536300186,-91.80730877244524,9041.89409959562,-85.24698293209107,0.5067551279840925,-2.677963158832326,188.377,8951.965087688533,11182.851152867626,150,True,17.3745569614158,False,174.2907264290341,178.63251661054028,False,6.880211736298141,True,False
