Subject_cm,Timestamp,SampleDate_cm,SampleTime_cm,Configuration_cm,Scenario_cm,DisTime_cm,MarkingTxt_cm,Application_cm,EntId_cm,Site_cm,ExerciseId_cm,ForceId_cm,Category_cm,Country_cm,Domain_cm,Kind_cm,Extra_cm,Specific_cm,Subcategory_cm,AltCategory_cm,AltCountry_cm,AltDomain_cm,AltKind_cm,ECEF_X_cm,ECEF_Y_cm,ECEF_Z_cm,OriPhi_cm,OriPsi_cm,OriTheta_cm,LinVelX_cm,LinVelY_cm,LinVelZ_cm,LinAccX_cm,LinAccY_cm,LinAccZ_cm,AngVelX_cm,AngVelY_cm,AngVelZ_cm,DrAlg_cm,Appearance_cm,Latitude_cm,Longitude_cm,Altitude_cm,Heading_cm,Pitch_cm,Roll_cm,CalibratedAirspeed_cm,CM_Altitude_Lead_cm,CM_Altitude_Wing_cm,CM_Airspeed_cm,Subject_ac,SampleDate_ac,SampleTime_ac,Configuration_ac,Scenario_ac,DisTime_ac,MarkingTxt_ac,Application_ac,EntId_ac,Site_ac,ExerciseId_ac,ForceId_ac,Category_ac,Country_ac,Domain_ac,Kind_ac,Extra_ac,Specific_ac,Subcategory_ac,AltCategory_ac,AltCountry_ac,AltDomain_ac,AltKind_ac,ECEF_X_ac,ECEF_Y_ac,ECEF_Z_ac,OriPhi_ac,OriPsi_ac,OriTheta_ac,LinVelX_ac,LinVelY_ac,LinVelZ_ac,LinAccX_ac,LinAccY_ac,LinAccZ_ac,AngVelX_ac,AngVelY_ac,AngVelZ_ac,DrAlg_ac,Appearance_ac,Latitude_ac,Longitude_ac,Altitude_ac,Heading_ac,Pitch_ac,Roll_ac,CalibratedAirspeed_ac,CM_Altitude_Lead_ac,CM_Altitude_Wing_ac,CM_Airspeed_ac,Bank_Angle_Condition,distance_nm,Distance_Condition,angle_between_vel,angle_between_pos,Cone_Condition,angle_between_pos_nose,Nose_Cone_Condition,Intercept_Criteria
11,1970-07-23 11:25:40.683334781,2025-09-16,2025-09-26 14:47:48.333,HA,C,3065232150,JASSM,3,115,76,2,2,1,225,9,2,0,1,26,0,0,0,0,-180573.72400076807,-4777983.424775924,4211686.095182896,-2.36693,-0.400848,0.381002,74.5,-31.5,-32.25,0.0,0.0,0.0,0.0,0.0,0.0,2,0,41.56605192373556,-92.16434210529998,10000.00201474742,119.79870619115412,-0.0029623587121496,0.0045531113350631,,8736.853420967655,11026.390928219933,150,11,2025-09-16,2025-09-26 14:47:48.169,HA,C,3100076134,AMBUSH51,1,1,48,2,1,1,225,2,1,0,0,9,1,225,2,1,-146427.4511356108,-4791982.873298991,4196596.880883643,2.36564,2.77628,-0.380022,-106.745,39.1713,43.8588,-0.185091,-7.47072,6.9381,0.00850235,0.00417263,0.0097403,4,0,41.387859431292455,-91.7502285482212,8736.853420967655,-61.30906286899558,0.9363816869179216,0.6701857641581072,195.539,8736.853420967655,11026.390928219933,150,True,21.44536488691741,False,177.3433586417823,179.2330782791769,False,2.296370255420018,True,False
11,1970-07-23 11:25:40.693356815,2025-09-16,2025-09-26 14:47:49.335,HA,C,3066425178,JASSM,3,115,76,2,2,1,225,9,2,0,1,26,0,0,0,0,-180499.1956804556,-4778015.020479049,4211653.663542271,-2.36693,-0.400848,0.381002,74.5,-31.5,-32.25,0.0,0.0,0.0,0.0,0.0,0.0,2,0,41.56566183171173,-92.1634353711682,10000.000827225544,119.79930779160752,-0.0021797900772921,0.0045517428232617,,8736.853420967655,11026.390928219933,150,11,2025-09-16,2025-09-26 14:47:49.403,HA,C,3101547500,AMBUSH51,1,1,48,2,1,1,225,2,1,0,0,9,1,225,2,1,-146559.34402763908,-4791934.321656735,4196651.240342054,2.36592,2.77853,-0.387122,-106.45,38.9536,44.2609,-0.053736,-7.61688,6.82362,-0.000446288,0.000695959,0.00966124,4,0,41.38849128314408,-91.751821803316,8745.236047517696,-61.10593243349346,1.3093289344168515,0.7386116409783815,196.064,8736.853420967655,11026.390928219933,150,True,21.317606100392478,False,177.34495725063428,179.23433986658475,False,2.2381005895284125,True,False
11,1970-07-23 11:25:40.703398268,2025-09-16,2025-09-26 14:47:50.339,HA,C,3067616386,JASSM,3,115,76,2,2,1,225,9,2,0,1,26,0,0,0,0,-180424.78064139312,-4778046.565400924,4211621.282682896,-2.36693,-0.400848,0.381098,74.5,-31.5,-32.25,0.0,0.0,0.0,0.0,0.0,0.0,2,0,41.56527235191082,-92.16253002737976,10000.00001307298,119.80375048578088,-0.0053244786613623,0.0045501734466216,,8736.853420967655,11026.390928219933,150,11,2025-09-16,2025-09-26 14:47:50.369,HA,C,3102700732,AMBUSH51,1,1,48,2,1,1,225,2,1,0,0,9,1,225,2,1,-146661.2498996241,-4791896.906951683,4196693.7681787,2.36529,2.77984,-0.391816,-106.197,38.7377,44.6121,-0.104624,-7.60963,6.74102,0.00716869,0.00129309,-0.00346315,4,0,41.38898243949159,-91.75305280203692,8753.106827197313,-60.964618843946894,1.54901417159804,0.7346229110957426,195.49,8736.853420967655,11026.390928219933,150,True,21.208224457517215,False,177.31637272475012,179.2354876906051,False,2.2170888786555785,True,False
11,1970-07-23 11:25:40.712299458,2025-09-16,2025-09-26 14:47:51.229,HA,C,3068690430,JASSM,3,115,76,2,2,1,225,9,2,0,1,26,0,0,0,0,-180357.68493826807,-4778075.008760299,4211592.085417271,-2.36693,-0.400848,0.381098,74.5,-31.5,-32.25,0.0,0.0,0.0,0.0,0.0,0.0,2,0,41.56492115875896,-92.16171374046348,10000.002520432983,119.80429206821115,-0.0046199588577123,0.0045489953765625,,8736.853420967655,11026.390928219933,150,11,2025-09-16,2025-09-26 14:47:51.135,HA,C,3103615364,AMBUSH51,1,1,48,2,1,1,225,2,1,0,0,9,1,225,2,1,-146742.59727442573,-4791867.15617555,4196727.983737761,2.37035,2.7809,-0.393476,-106.023,38.5188,44.9587,-0.208576,-7.46617,6.81735,0.00670472,0.00527327,0.000976839,4,0,41.389375615734274,-91.7540354292397,8760.259677108652,-60.9372957684891,1.656671858280161,1.0483372904894874,195.27,8736.853420967655,11026.390928219933,150,True,21.116039755865625,False,177.2567976115373,179.23658857109473,False,2.232502775969313,True,False
11,1970-07-23 11:25:40.721982755,2025-09-16,2025-09-26 14:47:52.198,HA,C,3069765726,JASSM,3,115,76,2,2,1,225,9,2,0,1,26,0,0,0,0,-180290.51111014312,-4778103.483369674,4211562.852995396,-2.36693,-0.400848,0.381098,74.5,-31.5,-32.25,0.0,0.0,0.0,0.0,0.0,0.0,2,0,41.56456955420165,-92.1608965127781,10000.00109498385,119.80483427104934,-0.0039146208913917,0.0045478184968979,,8736.853420967655,11026.390928219933,150,11,2025-09-16,2025-09-26 14:47:52.302,HA,C,3105007196,AMBUSH51,1,1,48,2,1,1,225,2,1,0,0,9,1,225,2,1,-146866.7124266284,-4791822.052072327,4196780.3138142,2.36925,2.78204,-0.40082,-105.686,38.3686,45.0772,-0.137176,-7.49926,6.80991,-0.000271518,0.0017529,0.00512763,4,0,41.389974622550405,-91.75553458149142,8772.163214979439,-60.68174602229634,1.9970331502929857,1.0189116784015015,195.233,8736.853420967655,11026.390928219933,150,True,20.997548043025052,False,177.24341864790455,179.23946269371768,False,2.2266772130959387,True,False
11,1970-07-23 11:25:40.731376734,2025-09-16,2025-09-26 14:47:53.137,HA,C,3070898256,JASSM,3,115,76,2,2,1,225,9,2,0,1,26,0,0,0,0,-180219.76111014312,-4778133.471650924,4211532.065886021,-2.36693,-0.400848,0.381098,74.5,-31.5,-32.25,0.0,0.0,0.0,0.0,0.0,0.0,2,0,41.564199248785656,-92.1600357884664,10000.000943426983,119.8054053283491,-0.0031717449918012,0.0045465994005322,,8736.853420967655,11026.390928219933,150,11,2025-09-16,2025-09-26 14:47:53.070,HA,C,3105921828,AMBUSH51,1,1,48,2,1,1,225,2,1,0,0,9,1,225,2,1,-146947.63154660683,-4791792.498978194,4196814.809480576,2.37554,2.78107,-0.403172,-105.44,38.2341,45.3515,-0.00462475,-7.26883,6.65625,0.00691069,0.0019568,0.0078324,4,0,41.39036857046491,-91.75651204856634,8780.388961657583,-60.55077113360208,2.0565285026588764,1.362325235368503,195.27,8736.853420967655,11026.390928219933,150,True,20.903243269935363,False,177.21313100646205,179.2409136809779,False,2.224691795456651,True,False
11,1970-07-23 11:25:40.740434525,2025-09-16,2025-09-26 14:47:54.043,HA,C,3072031636,JASSM,3,115,76,2,2,1,225,9,2,0,1,26,0,0,0,0,-180148.95935233065,-4778163.483369674,4211501.253386021,-2.36693,-0.400848,0.381098,74.5,-31.5,-32.25,0.0,0.0,0.0,0.0,0.0,0.0,2,0,41.563828637738055,-92.15917444364644,10000.001752003223,119.80597679315046,-0.0024283111013332,0.0045453551166136,,8736.853420967655,11026.390928219933,150,11,2025-09-16,2025-09-26 14:47:54.069,HA,C,3107114826,AMBUSH51,1,1,48,2,1,1,225,2,1,0,0,9,1,225,2,1,-147052.17804826057,-4791754.421229955,4196859.338202677,2.23062,2.78164,-0.407298,-105.305,38.061,45.0262,-0.0356156,-7.28303,6.58693,-0.263827,-0.00539186,0.0188783,4,0,41.390876646990094,-91.75777490196448,8791.194972160036,-60.40448003740629,2.245148938516159,-6.922762967703643,194.964,8736.853420967655,11026.390928219933,150,True,20.794384774279614,False,177.16556115716145,179.2433144124342,False,2.3002769063406876,True,False
11,1970-07-23 11:25:40.749318027,2025-09-16,2025-09-26 14:47:54.931,HA,C,3073105378,JASSM,3,115,76,2,2,1,225,9,2,0,1,26,0,0,0,0,-180081.88318045562,-4778191.915010299,4211472.061979771,-2.36693,-0.400848,0.381098,74.5,-31.5,-32.25,0.0,0.0,0.0,0.0,0.0,0.0,2,0,41.56347752565988,-92.15835843222948,10000.003091775568,119.80651817735152,-0.0017239985755378,0.0045441790892914,,8736.853420967655,11026.390928219933,150,11,2025-09-16,2025-09-26 14:47:55.069,HA,C,3108307826,AMBUSH51,1,1,48,2,1,1,225,2,1,0,0,9,1,225,2,1,-147158.79257556834,-4791716.499051208,4196903.8936158,2.05099,2.78467,-0.404137,-106.125,37.083,43.6337,0.211326,-7.19589,6.58583,-0.0207571,0.00911821,-0.0234036,4,0,41.39138358618436,-91.7590624212625,8802.605230775387,-60.646673947280206,2.232388438168362,-17.15573070822011,195.526,8736.853420967655,11026.390928219933,150,False,20.686942807178532,False,176.55521353554855,179.2460928574874,False,3.038932282261081,True,False
11,1970-07-23 11:25:40.760332063,2025-09-16,2025-09-26 14:47:56.033,HA,C,3074357098,JASSM,3,115,76,2,2,1,225,9,2,0,1,26,0,0,0,0,-180003.68689139312,-4778225.057588424,4211438.030729771,-2.36693,-0.400752,0.381098,74.5,-31.5,-32.25,0.0,0.0,0.0,0.0,0.0,0.0,2,0,41.56306821029641,-92.1574071519558,10000.001522194483,119.8035049795553,-0.004469376569107,0.0024998548052793,,8736.853420967655,11026.390928219933,150,11,2025-09-16,2025-09-26 14:47:55.868,HA,C,3109262224,AMBUSH51,1,1,48,2,1,1,225,2,1,0,0,9,1,225,2,1,-147243.50297169838,-4791687.570012724,4196937.97895284,2.01657,2.81412,-0.377212,-107.239,35.5984,42.0563,-0.135122,-8.20581,7.56362,-0.0799645,0.0216704,-0.0502516,4,0,41.391770327393374,-91.7600849896217,8811.778649273492,-62.84268609553656,2.2689818953640377,-18.571437012294545,195.196,8736.853420967655,11026.390928219933,150,False,20.586415636375055,False,175.54836322708712,179.24783390869433,False,4.13877351435835,True,False
11,1970-07-23 11:25:40.770374053,2025-09-16,2025-09-26 14:47:57.037,HA,C,3075550590,JASSM,3,115,76,2,2,1,225,9,2,0,1,26,0,0,0,0,-179929.12829764312,-4778256.657197799,4211405.581511021,-2.36693,-0.400752,0.381098,74.5,-31.5,-32.25,0.0,0.0,0.0,0.0,0.0,0.0,2,0,41.56267792851912,-92.15650013699955,9999.998747534504,119.80410673102314,-0.0036865039952798,0.0024985071911135,,8736.853420967655,11026.390928219933,150,11,2025-09-16,2025-09-26 14:47:57.135,HA,C,3110773356,AMBUSH51,1,1,48,2,1,1,225,2,1,0,0,9,1,225,2,1,-147380.29207801595,-4791644.7138980925,4196989.412671449,1.92248,2.85034,-0.356188,-109.023,31.9988,39.282,-0.0214387,-7.76731,7.13468,-0.0248995,0.00913693,-0.0254696,4,0,41.392347509904816,-91.7617348241248,8828.268708292444,-65.05604835412699,2.8354729166100747,-23.31676313287844,194.891,8736.853420967655,11026.390928219933,150,False,20.458071917965054,False,173.2975423563547,179.25241274509705,False,6.462970488861621,True,False
11,1970-07-23 11:25:40.782018779,2025-09-16,2025-09-26 14:47:58.201,HA,C,3076863934,JASSM,3,115,76,2,2,1,225,9,2,0,1,26,0,0,0,0,-179847.08337576812,-4778291.430635299,4211369.872526646,-2.36693,-0.400752,0.381098,74.5,-31.5,-32.25,0.0,0.0,0.0,0.0,0.0,0.0,2,0,41.56224843442293,-92.15550206207568,9999.9991075848,119.80476889010008,-0.0028250157708372,0.0024970101999244,,8736.853420967655,11026.390928219933,150,11,2025-09-16,2025-09-26 14:47:58.236,HA,C,3112085654,AMBUSH51,1,1,48,2,1,1,225,2,1,0,0,9,1,225,2,1,-147501.7567510039,-4791610.999716501,4197030.608559162,1.88397,2.88917,-0.307446,-110.572,29.4888,35.4764,-0.209233,-7.82515,7.03846,-0.047501,0.00813825,-0.0453975,4,0,41.392803970377706,-91.76319825426724,8843.890692310028,-68.53651613474865,2.4596030218062634,-24.95858132188142,194.5,8736.853420967655,11026.390928219933,150,False,20.33589061790424,False,171.22405608023809,179.2559162666463,False,8.646049256191215,True,False
11,1970-07-23 11:25:40.791279925,2025-09-16,2025-09-26 14:47:59.127,HA,C,3078057102,JASSM,3,115,76,2,2,1,225,9,2,0,1,26,0,0,0,0,-179772.54626639312,-4778323.020479049,4211337.431120396,-2.36693,-0.400752,0.381098,74.5,-31.5,-32.25,0.0,0.0,0.0,0.0,0.0,0.0,2,0,41.56185824361216,-92.15459533169556,9999.99957842521,119.80537044302336,-0.0020423656764966,0.002495657229601,,8736.853420967655,11026.390928219933,150,11,2025-09-16,2025-09-26 14:47:59.269,HA,C,3113318420,AMBUSH51,1,1,48,2,1,1,225,2,1,0,0,9,1,225,2,1,-147616.00923520254,-4791582.229251083,4197064.987673778,1.83277,2.91915,-0.279582,-112.011,26.6558,31.9848,-0.0686383,-7.99235,7.29087,-0.00417055,0.0165251,-0.0246249,4,0,41.39318630054685,-91.76457372453751,8856.348954572566,-70.82789651766274,2.586356424873922,-27.49622344040343,194.011,8736.853420967655,11026.390928219933,150,False,20.224078049188854,False,169.04168529168007,179.2569059186544,False,10.89700176405835,True,False
11,1970-07-23 11:25:40.801997454,2025-09-16,2025-09-26 14:48:00.199,HA,C,3079309774,JASSM,3,115,76,2,2,1,225,9,2,0,1,26,0,0,0,0,-179694.29138358062,-4778356.184541549,4211303.370573521,-2.36693,-0.400752,0.381194,74.5,-31.5,-32.25,0.0,0.0,0.0,0.0,0.0,0.0,2,0,41.56144858469001,-92.15364338765797,9999.998557447529,119.80984414879408,-0.0051465955499073,0.0024940244095981,,8736.853420967655,11026.390928219933,150,11,2025-09-16,2025-09-26 14:48:00.169,HA,C,3114392120,AMBUSH51,1,1,48,2,1,1,225,2,1,0,0,9,1,225,2,1,-147717.39595037667,-4791559.550247072,4197092.327136463,1.82682,2.94655,-0.249595,-113.236,23.9781,28.7723,-0.22082,-8.06422,7.25814,-0.0144154,0.0173969,-0.0597932,4,0,41.393487208637616,-91.76579326743844,8867.552896833033,-73.12134682902396,2.549590783494865,-27.529307275510664,194.121,8736.853420967655,11026.390928219933,150,False,20.11843894837171,False,166.99400610890027,179.2557761144328,False,13.000314675967914,True,False
11,1970-07-23 11:25:40.813175304,2025-09-16,2025-09-26 14:48:01.317,HA,C,3080620590,JASSM,3,115,76,2,2,1,225,9,2,0,1,26,0,0,0,0,-179612.40368826812,-4778390.887666549,4211267.727995396,-2.36693,-0.400752,0.381194,74.5,-31.5,-32.25,0.0,0.0,0.0,0.0,0.0,0.0,2,0,41.56101989711247,-92.15264726479433,9999.999020196918,119.81050499684952,-0.0042867631494154,0.0024925944166432,,8736.853420967655,11026.390928219933,150,11,2025-09-16,2025-09-26 14:48:01.202,HA,C,3115624884,AMBUSH51,1,1,48,2,1,1,225,2,1,0,0,9,1,225,2,1,-147835.52354888798,-4791536.04836581,4197119.873453966,1.79972,2.97677,-0.2074,-114.35,21.2381,24.6803,-0.0795375,-7.97875,7.17377,-0.0165917,0.0244459,-0.0302654,4,0,41.393791322638485,-91.76721311575324,8878.457766961057,-76.04942274665427,2.1832490511136067,-28.81011367937504,193.51,8736.853420967655,11026.390928219933,150,False,20.00264522227082,False,164.6539601090989,179.25043502554496,False,15.417096269540544,True,False
11,1970-07-23 11:25:40.822379029,2025-09-16,2025-09-26 14:48:02.237,HA,C,3081815032,JASSM,3,115,76,2,2,1,225,9,2,0,1,26,0,0,0,0,-179537.78650076812,-4778422.508760299,4211235.249479771,-2.36693,-0.400752,0.381194,74.5,-31.5,-32.25,0.0,0.0,0.0,0.0,0.0,0.0,2,0,41.56062926532703,-92.15173959587813,10000.000307240149,119.8111071578924,-0.0035032731725624,0.002491292717394,,8736.853420967655,11026.390928219933,150,11,2025-09-16,2025-09-26 14:48:02.135,HA,C,3116738350,AMBUSH51,1,1,48,2,1,1,225,2,1,0,0,9,1,225,2,1,-147941.76944527775,-4791517.795523247,4197140.895419601,1.79604,3.00618,-0.176303,-115.256,18.1517,21.2497,-0.0485274,-8.22811,7.42364,0.00744541,0.0222759,-0.04892,4,0,41.39402232689508,-91.76848909642855,8887.226881523446,-78.48287696233437,2.22943583386726,-28.793622113843902,193.547,8736.853420967655,11026.390928219933,150,False,19.899224001877208,False,162.3995756456944,179.2410769106813,False,17.727637621144172,True,False
11,1970-07-23 11:25:40.833392946,2025-09-16,2025-09-26 14:48:03.339,HA,C,3083068086,JASSM,3,115,76,2,2,1,225,9,2,0,1,26,0,0,0,0,-179459.50720389312,-4778455.680635299,4211201.175261021,-2.36693,-0.400752,0.381194,74.5,-31.5,-32.25,0.0,0.0,0.0,0.0,0.0,0.0,2,0,41.56021944947157,-92.15078739207696,9999.999369345118,119.81173885904376,-0.0026813285353709,0.002489922858541,,8736.853420967655,11026.390928219933,150,11,2025-09-16,2025-09-26 14:48:03.302,HA,C,3118130182,AMBUSH51,1,1,48,2,1,1,225,2,1,0,0,9,1,225,2,1,-148077.7779400269,-4791498.8480930375,4197162.211642839,1.79269,3.03965,-0.133287,-116.315,14.3607,16.2991,-0.116178,-8.0295,7.57514,0.0003485,0.020318,-0.0330034,4,0,41.39425396449373,-91.77012089710836,8897.1943352242,-81.58701662997912,2.010983112630142,-28.80481997073965,193.168,8736.853420967655,11026.390928219933,150,False,19.779690153185864,False,159.37947975791252,179.2212576324515,False,20.836506985532143,True,False
11,1970-07-23 11:25:40.843434781,2025-09-16,2025-09-26 14:48:04.343,HA,C,3084319254,JASSM,3,115,76,2,2,1,225,9,2,0,1,26,0,0,0,0,-179381.34607108062,-4778488.801729049,4211167.153776646,-2.36693,-0.400752,0.381194,74.5,-31.5,-32.25,0.0,0.0,0.0,0.0,0.0,0.0,2,0,41.55981025731203,-92.14983663796772,10000.003824501571,119.81236959335092,-0.0018606312339043,0.0024885661663869,,8736.853420967655,11026.390928219933,150,11,2025-09-16,2025-09-26 14:48:04.302,HA,C,3119323180,AMBUSH51,1,1,48,2,1,1,225,2,1,0,0,9,1,225,2,1,-148194.54028026608,-4791486.215519751,4197176.021493832,1.80305,3.06435,-0.103103,-116.988,11.0746,12.3009,-0.090367,-7.66385,7.1402,-0.0309977,-0.00199841,-0.0364593,4,0,41.39440087550612,-91.77152045197604,8904.957505337376,-83.81559913562971,1.919672992739383,-28.120340994100676,192.936,8736.853420967655,11026.390928219933,150,False,19.67182913297716,False,156.86531620211534,179.1953628894908,False,23.428924927812034,True,False
11,1970-07-23 11:25:40.853352804,2025-09-16,2025-09-26 14:48:05.335,HA,C,3085513944,JASSM,3,115,76,2,2,1,225,9,2,0,1,26,0,0,0,0,-179306.71325858062,-4778520.424775924,4211134.665495396,-2.36693,-0.400657,0.381194,74.5,-31.5,-32.25,0.0,0.0,0.0,0.0,0.0,0.0,2,0,41.559419529343394,-92.14892881494252,9999.99933879297,119.809327788597,-0.0046434229350371,0.0004438285844622,,8736.853420967655,11026.390928219933,150,11,2025-09-16,2025-09-26 14:48:05.335,HA,C,3120555946,AMBUSH51,1,1,48,2,1,1,225,2,1,0,0,9,1,225,2,1,-148316.24425315336,-4791475.841007277,4197185.899022914,1.79028,3.07699,-0.0674937,-117.485,8.94945,7.98178,-0.167529,-7.17269,6.62488,0.00284937,0.0111031,-0.0338461,4,0,41.39450687773121,-91.77297821189468,8910.12815345607,-85.82474076699708,1.1121594920299618,-28.84366045196113,192.777,8736.853420967655,11026.390928219933,150,False,19.565202723214167,False,154.63252450300055,179.15796498008987,False,25.76486421197965,True,False
11,1970-07-23 11:25:40.864368381,2025-09-16,2025-09-26 14:48:06.436,HA,C,3086764780,JASSM,3,115,76,2,2,1,225,9,2,0,1,26,0,0,0,0,-179228.57263358062,-4778553.536104049,4211100.649870396,-2.36693,-0.400657,0.381194,74.5,-31.5,-32.25,0.0,0.0,0.0,0.0,0.0,0.0,2,0,41.55901041489005,-92.14797833421494,10000.002877870813,119.8099583316639,-0.0038229341764378,0.0004424074640423,,8736.853420967655,11026.390928219933,150,11,2025-09-16,2025-09-26 14:48:06.502,HA,C,3121947778,AMBUSH51,1,1,48,2,1,1,225,2,1,0,0,9,1,225,2,1,-148453.73290994618,-4791466.369811401,4197191.535646581,1.79691,3.09495,-0.0218749,-117.966,7.07179,2.55997,-0.0469367,-7.31459,6.64472,0.0166208,0.0320838,-0.0438725,4,0,41.39457594586809,-91.77462421187344,8909.531377942087,-88.46599146362465,0.1551789904755463,-28.446788983839934,192.777,8736.853420967655,11026.390928219933,150,False,19.450248905121146,False,152.06563881801281,179.10125767735133,False,28.462606309929356,True,False
11,1970-07-23 11:25:40.874512777,2025-09-16,2025-09-26 14:48:07.451,HA,C,3087957826,JASSM,3,115,76,2,2,1,225,9,2,0,1,26,0,0,0,0,-179154.04236014312,-4778585.114229049,4211068.204557896,-2.36693,-0.400657,0.381194,74.5,-31.5,-32.25,0.0,0.0,0.0,0.0,0.0,0.0,2,0,41.55862020661677,-92.14707178147066,9999.999159504205,119.81055972842574,-0.0030403611167511,0.0004410610490641,,8736.853420967655,11026.390928219933,150,11,2025-09-16,2025-09-26 14:48:07.469,HA,C,3123101010,AMBUSH51,1,1,48,2,1,1,225,2,1,0,0,9,1,225,2,1,-148567.8456675612,-4791460.921854656,4197191.715017742,1.8043,3.12388,0.0103152,-118.212,4.26274,-1.21515,-0.113772,-7.77616,7.20846,0.0145756,0.00776582,-0.0450875,4,0,41.39458852465288,-91.77598946692,8905.219300607305,-90.94650677299194,0.1799653628963403,-28.021008878772797,192.936,8736.853420967655,11026.390928219933,150,False,19.35020126231827,False,149.78987179260125,179.04208811078905,False,30.83373209795389,False,False
11,1970-07-23 11:25:40.884390783,2025-09-16,2025-09-26 14:48:08.439,HA,C,3089210524,JASSM,3,115,76,2,2,1,225,9,2,0,1,26,0,0,0,0,-179075.78552420562,-4778618.272432174,4211034.136198521,-2.36684,-0.400657,0.381194,74.5,-31.5,-32.25,0.0,0.0,0.0,0.0,0.0,0.0,2,0,41.558210467967896,-92.14611991171618,10000.000631021418,119.8111911829843,-0.0022186525399458,0.0059311091642601,,8736.853420967655,11026.390928219933,150,11,2025-09-16,2025-09-26 14:48:08.335,HA,C,3124134942,AMBUSH51,1,1,48,2,1,1,225,2,1,0,0,9,1,225,2,1,-148670.34669906393,-4791458.399934594,4197188.708064277,1.81885,-3.14,0.0385885,-118.319,1.6633,-4.48307,-0.0861481,-7.84881,7.12307,0.0229084,0.00861262,-0.0410616,4,0,41.39456431208562,-91.777214920063,8900.313167966093,-92.89395153852328,-0.0610511601988733,-27.216428900258578,193.51,8736.853420967655,11026.390928219933,150,False,19.254383734901264,False,147.77039670256391,178.9799051508919,False,32.943330804487296,False,False
11,1970-07-23 11:25:40.894493947,2025-09-16,2025-09-26 14:48:09.449,HA,C,3090403572,JASSM,3,115,76,2,2,1,225,9,2,0,1,26,0,0,0,0,-179001.25525076812,-4778649.850557174,4211001.688932896,-2.36684,-0.400657,0.38129,74.5,-31.5,-32.25,0.0,0.0,0.0,0.0,0.0,0.0,2,0,41.557820231836445,-92.14521338132946,10000.00067273538,119.81563485798266,-0.005361850911202,0.0059295233363551,,8736.853420967655,11026.390928219933,150,11,2025-09-16,2025-09-26 14:48:09.341,HA,C,3125327942,AMBUSH51,1,1,48,2,1,1,225,2,1,0,0,9,1,225,2,1,-148787.79362775976,-4791458.1152154775,4197181.873085107,1.83992,-3.11598,0.0705925,-118.268,-1.07957,-8.37838,-0.022818,-7.58895,7.07838,0.0180148,0.00579134,-0.0353275,4,0,41.39449817236879,-91.77861809242236,8893.753042905124,-95.17855525802992,-0.2446876267705235,-26.078334881915357,193.742,8736.853420967655,11026.390928219933,150,False,19.155384940431585,False,145.47889108502824,178.89927505062593,False,35.34752049393936,False,False
11,1970-07-23 11:25:40.906851739,2025-09-16,2025-09-26 14:48:10.685,HA,C,3091716088,JASSM,3,115,76,2,2,1,225,9,2,0,1,26,0,0,0,0,-178919.26111014312,-4778684.588838424,4210965.993620396,-2.36684,-0.400657,0.38129,74.5,-31.5,-32.25,0.0,0.0,0.0,0.0,0.0,0.0,2,0,41.55739092988621,-92.144216079664,10000.002760028558,119.81629644082165,-0.0045009112630365,0.0059281065987803,,8736.853420967655,11026.390928219933,150,11,2025-09-16,2025-09-26 14:48:10.641,HA,C,3126878840,AMBUSH51,1,1,48,2,1,1,225,2,1,0,0,9,1,225,2,1,-148941.3593089416,-4791461.692955719,4197167.139179879,1.86704,-3.09033,0.108486,-118.04,-4.40632,-13.1434,-0.0122911,-7.63621,6.91301,0.025557,0.0197958,-0.0398923,4,0,41.3943490309918,-91.78045131613769,8882.327309762763,-97.77563807389572,-0.5878396779782281,-24.63710696384993,194.317,8736.853420967655,11026.390928219933,150,False,19.037751162756162,False,142.68814110299732,178.77822533030997,False,38.29567798178062,False,False
11,1970-07-23 11:25:40.919630662,2025-09-16,2025-09-26 14:48:11.963,HA,C,3093028274,JASSM,3,115,76,2,2,1,225,9,2,0,1,26,0,0,0,0,-178837.28747733062,-4778719.317354049,4210930.304167271,-2.36684,-0.400657,0.38129,74.5,-31.5,-32.375,0.0,0.0,0.0,0.0,0.0,0.0,2,0,41.55696171239372,-92.1432190411141,10000.00025382965,119.81695784350693,-0.0036401801167935,0.0059266776451062,,8736.853420967655,11026.390928219933,150,11,2025-09-16,2025-09-26 14:48:11.974,HA,C,3128469504,AMBUSH51,1,1,48,2,1,1,225,2,1,0,0,9,1,225,2,1,-149098.52862969975,-4791469.732817535,4197146.1172719365,1.92012,-3.06234,0.14564,-117.684,-7.6824,-17.5925,-0.0831201,-7.6121,6.86111,0.0442532,0.00515259,-0.0275731,4,0,41.39413019585087,-91.78232592493714,8868.525338283758,-100.42481081201268,-0.8143740758907583,-21.76700191979201,195.001,8736.853420967655,11026.390928219933,150,False,18.920831781527394,False,139.98059947828565,178.71209057185203,False,41.11892535661681,False,False
11,1970-07-23 11:25:40.927414917,2025-09-16,2025-09-26 14:48:12.741,HA,C,3094281584,JASSM,3,115,76,2,2,1,225,9,2,0,1,26,0,0,0,0,-178758.99255545562,-4778752.487275924,4210896.216276646,-2.36684,-0.400657,0.38129,74.5,-31.5,-32.375,0.0,0.0,0.0,0.0,0.0,0.0,2,0,41.55655174879537,-92.14226675878128,10000.001911489166,119.81758955114664,-0.0028180758133028,0.0059253128600033,,8736.853420967655,11026.390928219933,150,11,2025-09-16,2025-09-26 14:48:12.641,HA,C,3129264836,AMBUSH51,1,1,48,2,1,1,225,2,1,0,0,9,1,225,2,1,-149177.05149802417,-4791475.366035469,4197133.41471971,1.94446,-3.05015,0.160508,-117.533,-9.39084,-19.3626,-0.213243,-7.71362,7.14462,0.0308084,0.0114485,-0.0170411,4,0,41.39399638459753,-91.7832618873255,8860.838748133374,-101.52057848790416,-0.8674870745019974,-20.46284966432918,195.416,8736.853420967655,11026.390928219933,150,False,18.839785222648732,False,138.8061789356606,178.63326357033574,False,42.38158059121148,False,False
11,1970-07-23 11:25:40.937493992,2025-09-16,2025-09-26 14:48:13.749,HA,C,3095534796,JASSM,3,115,76,2,2,1,225,9,2,0,1,26,0,0,0,0,-178680.70349295562,-4778785.653291549,4210862.130339146,-2.36684,-0.400657,0.38129,74.5,-31.5,-32.375,0.0,0.0,0.0,0.0,0.0,0.0,2,0,41.55614181243108,-92.14131456038636,10000.00308641924,119.81822119798731,-0.0019960356108589,0.0059239517819999,,8736.853420967655,11026.390928219933,150,11,2025-09-16,2025-09-26 14:48:13.640,HA,C,3130457836,AMBUSH51,1,1,48,2,1,1,225,2,1,0,0,9,1,225,2,1,-149295.19465922768,-4791485.903272684,4197112.189269824,1.98589,-3.03032,0.180642,-117.195,-11.9026,-21.7141,-0.202809,-7.88022,7.26296,0.0390892,0.00864799,-0.0246207,4,0,41.39376850780422,-91.7846693350196,8849.766494235291,-103.1279318726866,-0.8051752164811231,-18.258361794001026,196.174,8736.853420967655,11026.390928219933,150,False,18.743630657763152,False,137.16707636859806,178.50946316334014,False,44.15615962676759,False,False
11,1970-07-23 11:25:40.948518158,2025-09-16,2025-09-26 14:48:14.851,HA,C,3096788200,JASSM,3,115,76,2,2,1,225,9,2,0,1,26,0,0,0,0,-178602.40173514312,-4778818.823213424,4210828.036589146,-2.36684,-0.400561,0.38129,74.5,-31.375,-32.375,0.0,0.0,0.0,0.0,0.0,0.0,2,0,41.55573179506784,-92.1403622202786,9999.999989982412,119.81520914812126,-0.0047402935331496,0.003878660198912,,8736.853420967655,11026.390928219933,150,11,2025-09-16,2025-09-26 14:48:14.674,HA,C,3131690602,AMBUSH51,1,1,48,2,1,1,225,2,1,0,0,9,1,225,2,1,-149415.16906364504,-4791499.003162095,4197088.194262948,2.03042,-3.01062,0.198655,-116.754,-14.064,-24.1115,0.484733,-8.06005,7.18187,0.120062,0.00669223,-0.0272631,4,0,41.3935063309025,-91.78609769609952,8839.138183309336,-104.6381369997808,-0.6742966471146467,-15.900191423873538,196.626,8736.853420967655,11026.390928219933,150,False,18.64785148702897,False,135.66004594347734,178.36129310251295,False,45.85371816065233,False,False
11,1970-07-23 11:25:40.959509956,2025-09-16,2025-09-26 14:48:15.950,HA,C,3098099758,JASSM,3,115,76,2,2,1,225,9,2,0,1,26,0,0,0,0,-178520.46716483062,-4778853.530244674,4210792.362761021,-2.36684,-0.400561,0.38129,74.5,-31.375,-32.375,0.0,0.0,0.0,0.0,0.0,0.0,2,0,41.55530276872434,-92.13936571001922,10000.000631990017,119.81587017877273,-0.0038799838368533,0.0038771937171066,,8736.853420967655,11026.390928219933,150,11,2025-09-16,2025-09-26 14:48:16.107,HA,C,3133400566,AMBUSH51,1,1,48,2,1,1,225,2,1,0,0,9,1,225,2,1,-149582.57214003845,-4791520.073179675,4197052.395461957,2.42566,-2.98961,0.214135,-116.909,-15.3235,-24.4735,-0.363146,-7.54619,6.81736,0.0749566,0.0116253,0.0129964,4,0,41.39310822422655,-91.78808966373916,8826.159726305319,-106.08868115528728,-0.3995439548007693,6.5123683140445,197.005,8736.853420967655,11026.390928219933,150,True,18.532648751549683,False,135.16803988698246,178.1630229887398,False,46.5517608031943,False,False
11,1970-07-23 11:25:40.970507580,2025-09-16,2025-09-26 14:48:17.050,HA,C,3099411984,JASSM,3,115,76,2,2,1,225,9,2,0,1,26,0,0,0,0,-178438.49157889312,-4778888.254854049,4210756.667448521,-2.36684,-0.400561,0.38129,74.5,-31.375,-32.375,0.0,0.0,0.0,0.0,0.0,0.0,2,0,41.55487349330068,-92.13836871401504,9999.99860917443,119.81653152603208,-0.003019230606001,0.0038757042519937,,8736.853420967655,11026.390928219933,150,11,2025-09-16,2025-09-26 14:48:16.940,HA,C,3134394732,AMBUSH51,1,1,48,2,1,1,225,2,1,0,0,9,1,225,2,1,-149681.0798186776,-4791532.4653776325,4197031.358637476,2.46229,-3.01267,0.187817,-117.402,-15.1508,-23.4181,-0.328719,-7.80016,7.01513,0.0571487,0.00117033,0.0476841,4,0,41.39287417617509,-91.7892618213928,8818.57662964518,-104.10287570927603,-0.3399228395376055,8.862108198524885,197.421,8736.853420967655,11026.390928219933,150,True,18.443747663765656,False,135.64195677331534,178.0417450487778,False,46.201199150307886,False,False
11,1970-07-23 11:25:40.980390459,2025-09-16,2025-09-26 14:48:18.039,HA,C,3100664974,JASSM,3,115,76,2,2,1,225,9,2,0,1,26,0,0,0,0,-178360.21618826812,-4778921.411104049,4210722.583464146,-2.36684,-0.400561,0.38129,74.5,-31.375,-32.375,0.0,0.0,0.0,0.0,0.0,0.0,2,0,41.55446359290602,-92.1374167329351,9999.998979179612,119.81716300785664,-0.0021973333558989,0.0038742875399229,,8736.853420967655,11026.390928219933,150,11,2025-09-16,2025-09-26 14:48:18.007,HA,C,3135667264,AMBUSH51,1,1,48,2,1,1,225,2,1,0,0,9,1,225,2,1,-149805.87366366538,-4791547.8531463565,4197006.61740941,2.45424,-3.01889,0.185219,-117.946,-15.8205,-21.1639,-0.205811,-7.33439,6.63281,-0.0216975,0.00547925,-0.00905787,4,0,41.39259239799198,-91.79074686746137,8812.353600766946,-103.75834699722664,-0.4983525152672611,8.464454862036538,197.909,8736.853420967655,11026.390928219933,150,True,18.346858935630237,False,136.26878325059138,177.88986454052437,False,45.71772689205092,False,False
11,1970-07-23 11:25:40.992468230,2025-09-16,2025-09-26 14:48:19.246,HA,C,3101977744,JASSM,3,115,76,2,2,1,225,9,2,0,1,26,0,0,0,0,-178278.20642264312,-4778956.147432174,4210686.872526646,-2.36684,-0.400561,0.381386,74.5,-31.375,-32.375,0.0,0.0,0.0,0.0,0.0,0.0,2,0,41.55403413299344,-92.1364193482709,9999.997816844392,119.82166704546351,-0.0052618677467211,0.0038725856251528,,8736.853420967655,11026.390928219933,150,11,2025-09-16,2025-09-26 14:48:19.141,HA,C,3137019328,AMBUSH51,1,1,48,2,1,1,225,2,1,0,0,9,1,225,2,1,-149940.28465909406,-4791562.460618913,4196981.238843918,2.4333,-3.02519,0.178434,-118.735,-13.2104,-21.1725,-0.16939,-7.65231,6.77744,0.000321452,0.010377,0.0205032,4,0,41.392309148483214,-91.79234707918792,8803.577143605813,-103.23317670238738,-0.4994043432244673,7.325361902703558,198.276,8736.853420967655,11026.390928219933,150,True,18.243434098951123,False,137.15038839555302,177.72613634885082,False,45.02236938835576,False,False
11,1970-07-23 11:25:41.012271799,2025-09-16,2025-09-26 14:48:21.227,HA,C,3103288474,JASSM,3,115,76,2,2,1,225,9,2,0,1,26,0,0,0,0,-178196.32361014312,-4778990.829072799,4210651.216276646,-2.36684,-0.400561,0.381386,74.5,-31.375,-32.375,0.0,0.0,0.0,0.0,0.0,0.0,2,0,41.55360533069012,-92.13542352116409,9999.997839779127,119.8223276008796,-0.004402095842611,0.0038711659816599,,8736.853420967655,11026.390928219933,150,11,2025-09-16,2025-09-26 14:48:21.374,HA,C,3139683692,AMBUSH51,1,1,48,2,1,1,225,2,1,0,0,9,1,225,2,1,-150206.9023757336,-4791589.398178658,4196935.384426142,2.40799,-3.0395,0.163828,-119.576,-11.546,-19.2212,-0.319063,-7.35086,6.51761,-0.0141678,-0.00787609,0.00670264,4,0,41.39178964227108,-91.79552198592812,8790.916266916298,-102.07273057532282,-0.5368509057236798,6.004263910072136,198.838,8736.853420967655,11026.390928219933,150,True,18.088135671458822,False,138.4134488711326,177.40745111350247,False,44.08915216627815,False,False
11,1970-07-23 11:25:41.016632688,2025-09-16,2025-09-26 14:48:21.663,HA,C,3104542224,JASSM,3,115,76,2,2,1,225,9,2,0,1,26,0,0,0,0,-178118.00036795562,-4779024.002900924,4210617.108854771,-2.36684,-0.400561,0.381386,74.5,-31.375,-32.375,0.0,0.0,0.0,0.0,0.0,0.0,2,0,41.55319515375972,-92.13447099655852,9999.999291542405,119.82295942749526,-0.0035796959246481,0.0038698017325663,,8736.853420967655,11026.390928219933,150,11,2025-09-16,2025-09-26 14:48:21.740,HA,C,3140121126,AMBUSH51,1,1,48,2,1,1,225,2,1,0,0,9,1,225,2,1,-150249.97198475242,-4791593.401114769,4196928.433474414,2.4073,-3.0427,0.161309,-119.71,-11.2577,-18.9607,-0.118969,-7.41434,6.60091,0.00187566,-0.00621994,0.015258,4,0,41.39171086759386,-91.79603498873084,8789.007124091175,-101.84469356666952,-0.5745838836156838,5.992038212001104,198.838,8736.853420967655,11026.390928219933,150,True,18.022033693579075,False,138.60357582205904,177.35015149596214,False,43.958046392339476,False,False
11,1970-07-23 11:25:41.024511735,2025-09-16,2025-09-26 14:48:22.451,HA,C,3105853524,JASSM,3,115,76,2,2,1,225,9,2,0,1,26,0,0,0,0,-178036.08142264312,-4779058.698213424,4210581.435026646,-2.36684,-0.400561,0.381386,74.5,-31.375,-32.375,0.0,0.0,0.0,0.0,0.0,0.0,2,0,41.55276614261123,-92.1334747565144,10000.000530571186,119.82362024586274,-0.0027195436387874,0.0038683787920646,,8736.853420967655,11026.390928219933,150,11,2025-09-16,2025-09-26 14:48:22.441,HA,C,3140956224,AMBUSH51,1,1,48,2,1,1,225,2,1,0,0,9,1,225,2,1,-150333.76827097937,-4791601.007630479,4196915.032992676,2.41711,-3.04476,0.154823,-119.939,-10.8024,-18.44,-0.207619,-7.38561,6.63583,0.0255279,-0.0035006,0.0117148,4,0,41.39155950957888,-91.79703315241932,8785.116229169615,-101.49076965911304,-0.4124628670973993,6.569516722610352,199.144,8736.853420967655,11026.390928219933,150,True,17.93768729996142,False,138.94285822027132,177.2441939483153,False,43.72742013988629,False,False
11,1970-07-23 11:25:41.036424018,2025-09-16,2025-09-26 14:48:23.642,HA,C,3107107274,JASSM,3,115,76,2,2,1,225,9,2,0,1,26,0,0,0,0,-177957.75915701812,-4779091.868135299,4210547.325651646,-2.36684,-0.400465,0.381386,74.5,-31.375,-32.375,0.0,0.0,0.0,0.0,0.0,0.0,2,0,41.55235595941015,-92.13252226998188,9999.997066463591,119.82060851918118,-0.0054635852385966,0.0018226509759206,,8736.853420967655,11026.390928219933,150,11,2025-09-16,2025-09-26 14:48:23.474,HA,C,3142188990,AMBUSH51,1,1,48,2,1,1,225,2,1,0,0,9,1,225,2,1,-150458.72807905797,-4791611.535718598,4196896.166707412,2.43241,-3.04823,0.147537,-120.325,-10.088,-17.3474,-0.0560478,-7.3939,6.59801,0.0630493,0.00554374,0.0177235,4,0,41.39134617270554,-91.79852194509296,8779.738931244045,-101.050074626838,-0.2784513743490858,7.473266681557821,199.29,8736.853420967655,11026.390928219933,150,True,17.839152500901957,False,139.5719193056754,177.09029804256937,False,43.25456042077841,False,False
11,1970-07-23 11:25:41.050224095,2025-09-16,2025-09-26 14:48:25.022,HA,C,3108418574,JASSM,3,115,76,2,2,1,225,9,2,0,1,26,0,0,0,0,-177875.84021170562,-4779126.561494674,4210511.649870396,-2.36684,-0.400465,0.381386,74.5,-31.375,-32.375,0.0,0.0,0.0,0.0,0.0,0.0,2,0,41.55192692981354,-92.13152605657838,9999.99849766016,119.82126930900988,-0.0046034327371944,0.0018211716358484,,8736.853420967655,11026.390928219933,150,11,2025-09-16,2025-09-26 14:48:24.907,HA,C,3143898954,AMBUSH51,1,1,48,2,1,1,225,2,1,0,0,9,1,225,2,1,-150631.79165199472,-4791624.868044912,4196872.0731939785,2.4726,-3.06106,0.133683,-120.972,-8.61362,-15.6684,-0.0161101,-7.54184,6.62448,0.00392296,0.00528367,0.0270904,4,0,41.39107184893751,-91.80058430837092,8773.648966763452,-99.97437078898218,-0.2897652877671216,9.8741161109296,199.584,8736.853420967655,11026.390928219933,150,True,17.7188808366976,False,140.65412066643106,176.88001943909984,False,42.38753788787121,False,False
11,1970-07-23 11:25:41.056409652,2025-09-16,2025-09-26 14:48:25.640,HA,C,3109672454,JASSM,3,115,76,2,2,1,225,9,2,0,1,26,0,0,0,0,-177797.50915701812,-4779159.733369674,4210477.536589146,-2.36684,-0.400465,0.381386,74.5,-31.375,-32.375,0.0,0.0,0.0,0.0,0.0,0.0,2,0,41.55151669440355,-92.13057348859064,9999.999351891984,119.82190114352716,-0.0037809595387986,0.0018197668102532,,8736.853420967655,11026.390928219933,150,11,2025-09-16,2025-09-26 14:48:25.607,HA,C,3144734054,AMBUSH51,1,1,48,2,1,1,225,2,1,0,0,9,1,225,2,1,-150716.4953875987,-4791630.841017502,4196861.128813738,2.4743,-3.07,0.123846,-121.218,-7.98033,-14.772,-0.187751,-7.44079,6.72057,0.00807375,0.00294092,0.0156388,4,0,41.39094658158351,-91.80159390716146,8771.154458901507,-99.21629605096588,-0.2925197415973549,10.033419808906585,199.73,8736.853420967655,11026.390928219933,150,False,17.635791152125766,False,141.17622531941308,176.77299440557547,False,41.9735411162673,False,False
11,1970-07-23 11:25:41.067449739,2025-09-16,2025-09-26 14:48:26.744,HA,C,3110983616,JASSM,3,115,76,2,2,1,225,9,2,0,1,26,0,0,0,0,-177715.59900076812,-4779194.420869674,4210441.862761021,-2.36684,-0.400465,0.381386,74.5,-31.375,-32.375,0.0,0.0,0.0,0.0,0.0,0.0,2,0,41.55108769401836,-92.12957740878996,10000.000693916249,119.82256183377476,-0.0029208998769723,0.0018182873086737,,8736.853420967655,11026.390928219933,150,11,2025-09-16,2025-09-26 14:48:26.740,HA,C,3146086120,AMBUSH51,1,1,48,2,1,1,225,2,1,0,0,9,1,225,2,1,-150853.21498817182,-4791639.22610743,4196845.126484893,2.46947,-3.07704,0.11013,-121.578,-6.9547,-13.1497,-0.187439,-7.49492,6.72107,-0.0247435,0.0124139,0.0219638,4,0,41.39076306762135,-91.80322395685856,8767.653795661667,-98.36414604235034,-0.0674053358689267,9.801014964420917,199.95,8736.853420967655,11026.390928219933,150,True,17.529136112245645,False,142.07703765701828,176.60612872113722,False,41.24013067599669,False,False
11,1970-07-23 11:25:41.079322352,2025-09-16,2025-09-26 14:48:27.932,HA,C,3112237064,JASSM,3,115,76,2,2,1,225,9,2,0,1,26,0,0,0,0,-177637.29431326812,-4779227.579072799,4210407.757292271,-2.36684,-0.400465,0.381386,74.5,-31.375,-32.375,0.0,0.0,0.0,0.0,0.0,0.0,2,0,41.55067757073117,-92.12862518719363,9999.99623859174,119.82319342805395,-0.0020986992771029,0.0018168739923101,,8736.853420967655,11026.390928219933,150,11,2025-09-16,2025-09-26 14:48:28.040,HA,C,3147637018,AMBUSH51,1,1,48,2,1,1,225,2,1,0,0,9,1,225,2,1,-151012.3828041224,-4791647.350414961,4196829.11867321,2.43809,-3.09447,0.0982718,-121.968,-7.76789,-10.0683,-0.256157,-7.33893,6.62252,-0.018071,-0.00523998,0.0105164,4,0,41.39057683692292,-91.80512225271404,8765.249789672685,-97.19762533084348,-0.3569286737173523,8.102250067184423,199.877,8736.853420967655,11026.390928219933,150,True,17.414941850648702,False,142.89984955685185,176.4156004472954,False,40.58448175495201,False,False
11,1970-07-23 11:25:41.088370186,2025-09-16,2025-09-26 14:48:28.837,HA,C,3113548670,JASSM,3,115,76,2,2,1,225,9,2,0,1,26,0,0,0,0,-177555.35681326812,-4779262.276338424,4210372.069792271,-2.36684,-0.400465,0.381482,74.5,-31.375,-32.375,0.0,0.0,0.0,0.0,0.0,0.0,2,0,41.550248409135335,-92.1276288014556,9999.998529715624,119.82769689473392,-0.0051638545363274,0.001815178024795,,8736.853420967655,11026.390928219933,150,11,2025-09-16,2025-09-26 14:48:28.741,HA,C,3148472116,AMBUSH51,1,1,48,2,1,1,225,2,1,0,0,9,1,225,2,1,-151097.13021843077,-4791650.6472835615,4196820.703978494,2.42552,-3.09609,0.0940353,-122.188,-4.88996,-11.0043,-0.134507,-7.31593,6.66251,-0.0185995,-0.00145538,0.00348188,4,0,41.390484519490926,-91.80613336588556,8761.679479745182,-96.95546230724352,-0.2640960691991898,7.3898655735706225,199.914,8736.853420967655,11026.390928219933,150,True,17.328717138408226,False,143.48940182749934,176.3085272458094,False,40.13153498446673,False,False
11,1970-07-23 11:25:41.099387582,2025-09-16,2025-09-26 14:48:29.938,HA,C,3114802938,JASSM,3,115,76,2,2,1,225,9,2,0,1,26,0,0,0,0,-177477.00036795562,-4779295.456025924,4210337.942839146,-2.36684,-0.400465,0.381482,74.5,-31.375,-32.375,0.0,0.0,0.0,0.0,0.0,0.0,2,0,41.54983800826623,-92.12667597530452,10000.004148340897,119.82832887960836,-0.0043411152197726,0.0018138272341121,,8736.853420967655,11026.390928219933,150,11,2025-09-16,2025-09-26 14:48:29.774,HA,C,3149704882,AMBUSH51,1,1,48,2,1,1,225,2,1,0,0,9,1,225,2,1,-151224.30357449065,-4791655.217860879,4196809.597530733,2.4064,-3.1003,0.0838131,-122.432,-4.189,-9.91159,-0.134251,-7.43156,6.84219,-0.0062345,0.00672552,0.011669,4,0,41.39035847921493,-91.80765079616413,8758.700880684451,-96.35902237655355,-0.0538784981496793,6.3140125609455175,200.024,8736.853420967655,11026.390928219933,150,True,17.227015199051564,False,144.09541598524606,176.15409895724403,False,39.680337872118365,False,False
11,1970-07-23 11:25:41.110409447,2025-09-16,2025-09-26 14:48:31.040,HA,C,3116113724,JASSM,3,115,76,2,2,1,225,9,2,0,1,26,0,0,0,0,-177395.11462576812,-4779330.127900924,4210302.274870396,-2.36684,-0.400465,0.381482,74.5,-31.375,-32.375,0.0,0.0,0.0,0.0,0.0,0.0,2,0,41.54940910125711,-92.1256802462645,10000.000594731002,119.8289893153784,-0.0034813127769146,0.0018124042789205,,8736.853420967655,11026.390928219933,150,11,2025-09-16,2025-09-26 14:48:30.907,HA,C,3151056948,AMBUSH51,1,1,48,2,1,1,225,2,1,0,0,9,1,225,2,1,-151362.165352453,-4791659.271477183,4196799.146881743,2.40007,-3.10369,0.0730431,-122.559,-3.62772,-8.56346,-0.153079,-7.36466,6.62101,-0.00347355,-0.00625115,0.00185901,4,0,41.39023791366233,-91.80929609439464,8756.712042799645,-95.76977480994869,0.2116474740501037,5.967268327909328,200.097,8736.853420967655,11026.390928219933,150,True,17.11827888273475,False,144.7412271047018,175.9875838701555,False,39.19870705835573,False,False
11,1970-07-23 11:25:41.120446722,2025-09-16,2025-09-26 14:48:32.044,HA,C,3117368246,JASSM,3,115,76,2,2,1,225,9,2,0,1,26,0,0,0,0,-177316.74255545562,-4779363.311494674,4210268.138151646,-2.36684,-0.400465,0.381482,74.5,-31.375,-32.375,0.0,0.0,0.0,0.0,0.0,0.0,2,0,41.548998598568296,-92.12472725596938,10000.00195799724,119.82962139863776,-0.0026584081837216,0.0018110494273309,,8736.853420967655,11026.390928219933,150,11,2025-09-16,2025-09-26 14:48:32.074,HA,C,3152448780,AMBUSH51,1,1,48,2,1,1,225,2,1,0,0,9,1,225,2,1,-151505.8406956382,-4791662.944331102,4196789.444516837,2.39206,-3.10851,0.0642872,-122.612,-2.77694,-7.67022,-0.269245,-7.29957,6.50821,-0.0102563,0.00585583,-0.00163223,4,0,41.39012354855292,-91.81101097630268,8755.871709148692,-95.21276077206706,0.3394474044074337,5.530127097913248,200.317,8736.853420967655,11026.390928219933,150,True,17.00910041923113,False,145.31643630150717,175.81459268398294,False,38.79933416460337,False,False
11,1970-07-23 11:25:41.132473199,2025-09-16,2025-09-26 14:48:33.247,HA,C,3118740324,JASSM,3,115,76,2,2,1,225,9,2,0,1,26,0,0,0,0,-177231.02673514312,-4779399.602510299,4210230.800261021,-2.36674,-0.400369,0.381482,74.5,-31.375,-32.375,0.0,0.0,0.0,0.0,0.0,0.0,2,0,41.54854961673336,-92.12368498168736,9999.998181514637,119.82666944541477,-0.0053248143908117,0.005256170712325,,8736.853420967655,11026.390928219933,150,11,2025-09-16,2025-09-26 14:48:33.240,HA,C,3153840612,AMBUSH51,1,1,48,2,1,1,225,2,1,0,0,9,1,225,2,1,-151648.37818432425,-4791665.872261198,4196780.557044181,2.39156,-3.11488,0.0584518,-122.786,-2.08987,-6.90625,-0.16759,-7.27815,6.54695,0.00335288,-0.00895384,0.00182156,4,0,41.39001930507048,-91.81271254181192,8754.888507194151,-94.72190295253664,0.2893415209169251,5.5266703916073,200.353,8736.853420967655,11026.390928219933,150,True,16.895627876701628,False,145.79915315111893,175.64078928001734,False,38.492612026262634,False,False
11,1970-07-23 11:25:41.143488285,2025-09-16,2025-09-26 14:48:34.348,HA,C,3120111866,JASSM,3,115,76,2,2,1,225,9,2,0,1,26,0,0,0,0,-177145.34411795562,-4779435.879854049,4210193.476042271,-2.36674,-0.400369,0.381482,74.5,-31.375,-32.375,0.0,0.0,0.0,0.0,0.0,0.0,2,0,41.54810079170849,-92.12264312538623,9999.998796878102,119.82736045830852,-0.0044251436634389,0.00525462143274,,8736.853420967655,11026.390928219933,150,11,2025-09-16,2025-09-26 14:48:34.240,HA,C,3155033610,AMBUSH51,1,1,48,2,1,1,225,2,1,0,0,9,1,225,2,1,-151771.08168600505,-4791667.607071387,4196773.666635266,2.39335,-3.12214,0.0544792,-122.824,-1.24613,-6.41583,-0.188716,-6.98338,6.33164,0.0102251,-0.00041924,0.00080623,4,0,41.38993935427476,-91.81417762877722,8753.767006035885,-94.27714984977048,0.1300132898399574,5.654067390495031,200.317,8736.853420967655,11026.390928219933,150,True,16.790270826494986,False,146.23158554430123,175.48875410215797,False,38.21709139645624,False,False
11,1970-07-23 11:25:41.154370013,2025-09-16,2025-09-26 14:48:35.437,HA,C,3121422780,JASSM,3,115,76,2,2,1,225,9,2,0,1,26,0,0,0,0,-177063.44958670562,-4779470.551729049,4210157.802214146,-2.36674,-0.400369,0.381482,74.5,-31.375,-32.375,0.0,0.0,0.0,0.0,0.0,0.0,2,0,41.5476718121288,-92.12164734444026,10000.000799600586,119.82802090591552,-0.0035652540764951,0.0052531502704297,,8736.853420967655,11026.390928219933,150,11,2025-09-16,2025-09-26 14:48:35.274,HA,C,3156266376,AMBUSH51,1,1,48,2,1,1,225,2,1,0,0,9,1,225,2,1,-151898.98401356634,-4791668.383054687,4196767.145486586,2.41487,-3.12818,0.0482592,-122.956,-0.333274,-5.71104,-0.287772,-7.31462,6.65089,0.0329056,0.00721862,0.011694,4,0,41.38986660083607,-91.81570517728942,8751.50085769433,-93.78257332700984,0.1085214303270595,6.90624478070517,200.317,8736.853420967655,11026.390928219933,150,True,16.68485606239597,False,146.7611838497184,175.33102160652777,False,37.849050740602195,False,False
11,1970-07-23 11:25:41.165388829,2025-09-16,2025-09-26 14:48:36.538,HA,C,3122676962,JASSM,3,115,76,2,2,1,225,9,2,0,1,26,0,0,0,0,-176985.09900076812,-4779503.721650924,4210123.671354771,-2.36674,-0.400369,0.381482,74.5,-31.375,-32.375,0.0,0.0,0.0,0.0,0.0,0.0,2,0,41.54726139216383,-92.12069466842964,10000.001603587436,119.82865275910828,-0.0027425780790352,0.0052517458102637,,8736.853420967655,11026.390928219933,150,11,2025-09-16,2025-09-26 14:48:36.511,HA,C,3157737740,AMBUSH51,1,1,48,2,1,1,225,2,1,0,0,9,1,225,2,1,-152050.43293870916,-4791668.345858306,4196760.345543846,2.43793,3.14131,0.0395421,-123.285,0.53619,-4.53621,-0.151956,-7.31812,6.55982,0.0269864,-0.000302727,0.0105455,4,0,41.38979233747248,-91.81751430325382,8748.475869891612,-92.8902285574278,-0.1476140976853849,8.261147049440874,200.696,8736.853420967655,11026.390928219933,150,True,16.57145481753675,False,147.4425512349003,175.14682312658877,False,37.35227825896487,False,False
11,1970-07-23 11:25:41.175407170,2025-09-16,2025-09-26 14:48:37.540,HA,C,3123929972,JASSM,3,115,76,2,2,1,225,9,2,0,1,26,0,0,0,0,-176906.82165701812,-4779536.860322799,4210089.569792271,-2.36674,-0.400369,0.381482,74.5,-31.375,-32.375,0.0,0.0,0.0,0.0,0.0,0.0,2,0,41.546851331826765,-92.11974289512196,10000.000447289922,119.82928400847226,-0.0019206631113663,0.0052503286022715,,8736.853420967655,11026.390928219933,150,11,2025-09-16,2025-09-26 14:48:37.440,HA,C,3158851206,AMBUSH51,1,1,48,2,1,1,225,2,1,0,0,9,1,225,2,1,-152165.61806421206,-4791667.194337422,4196756.39746609,2.45159,3.13057,0.030445,-123.456,1.63515,-3.54772,-0.196134,-7.41279,6.67821,-0.00403531,0.00550421,0.0203264,4,0,41.38975078019645,-91.81889066539436,8746.074152276547,-92.09355527896366,-0.2628940752713634,9.06265877946574,200.952,8736.853420967655,11026.390928219933,150,True,16.47308386622046,False,148.12546865544437,175.00391357749962,False,36.81530310388295,False,False
11,1970-07-23 11:25:41.186445612,2025-09-16,2025-09-26 14:48:38.644,HA,C,3125240658,JASSM,3,115,76,2,2,1,225,9,2,0,1,26,0,0,0,0,-176824.94079764312,-4779571.522432174,4210053.899870396,-2.36674,-0.400369,0.381482,74.5,-31.375,-32.375,0.0,0.0,0.0,0.0,0.0,0.0,2,0,41.546422408582096,-92.1187473205149,10000.00196994738,119.82994430291323,-0.0010609229710035,0.0052488655266146,,8736.853420967655,11026.390928219933,150,11,2025-09-16,2025-09-26 14:48:38.639,HA,C,3160282804,AMBUSH51,1,1,48,2,1,1,225,2,1,0,0,9,1,225,2,1,-152314.6826333555,-4791664.412647879,4196752.782923129,2.44431,3.12159,0.0182861,-123.619,2.70137,-2.02002,-0.129073,-7.5288,6.61749,-0.00290555,0.00227513,0.00973614,4,0,41.38971474974409,-91.82067234569136,8743.041449037435,-91.23209504152946,-0.1866096697385166,8.654493487678852,200.916,8736.853420967655,11026.390928219933,150,True,16.357472818757255,False,148.98390369764735,174.82308907049003,False,36.136921220572404,False,False
11,1970-07-23 11:25:41.197468102,2025-09-16,2025-09-26 14:48:39.746,HA,C,3126553818,JASSM,3,115,76,2,2,1,225,9,2,0,1,26,0,0,0,0,-176742.90564139312,-4779606.248994674,4210018.159636021,-2.36674,-0.400369,0.381578,74.5,-31.375,-32.375,0.0,0.0,0.0,0.0,0.0,0.0,2,0,41.54599265269988,-92.11774988341983,9999.999367844855,119.83444855256036,-0.0041249191429034,0.0052472408802235,,8736.853420967655,11026.390928219933,150,11,2025-09-16,2025-09-26 14:48:39.774,HA,C,3161634870,AMBUSH51,1,1,48,2,1,1,225,2,1,0,0,9,1,225,2,1,-152455.3527768267,-4791660.656412479,4196750.942409632,2.43809,3.1121,0.00853518,-123.783,3.97373,-0.831903,-0.19631,-7.58267,6.93473,-0.00413934,0.00132222,0.00267044,4,0,41.38969805535685,-91.822354120992,8740.813815832458,-90.45456478998088,-0.223846558172646,8.303032579835115,201.209,8736.853420967655,11026.390928219933,150,True,16.244924121998828,False,149.78540372992515,174.65199320307397,False,35.50976743894686,False,False
11,1970-07-23 11:25:41.209491478,2025-09-16,2025-09-26 14:48:40.949,HA,C,3127926400,JASSM,3,115,76,2,2,1,225,9,2,0,1,26,0,0,0,0,-176657.15759451812,-4779642.545869674,4209980.802214146,-2.36674,-0.400369,0.381578,74.5,-31.375,-32.375,0.0,0.0,0.0,0.0,0.0,0.0,2,0,41.54554344799877,-92.11670731731242,9999.999150398751,119.83514000137316,-0.0032245717427011,0.0052457640319287,,8736.853420967655,11026.390928219933,150,11,2025-09-16,2025-09-26 14:48:41.106,HA,C,3163225534,AMBUSH51,1,1,48,2,1,1,225,2,1,0,0,9,1,225,2,1,-152619.58927482134,-4791654.7531721685,4196750.885331754,2.42422,3.10321,-0.00299319,-123.881,4.92553,0.845834,-0.0845805,-7.43871,6.47774,-0.0282701,-0.0020213,0.0192923,4,0,41.38970168433303,-91.82431821955032,8739.029553160095,-89.6235862078245,-0.1677263812528454,7.506929981773517,201.356,8736.853420967655,11026.390928219933,150,True,16.119162904028833,False,150.65662374752245,174.4552205152841,False,34.832289976572824,False,False
11,1970-07-23 11:25:41.220487157,2025-09-16,2025-09-26 14:48:42.048,HA,C,3129237234,JASSM,3,115,76,2,2,1,225,9,2,0,1,26,0,0,0,0,-176575.26794608062,-4779677.209932174,4209945.124479771,-2.36674,-0.400273,0.381578,74.5,-31.375,-32.375,0.0,0.0,0.0,0.0,0.0,0.0,2,0,41.545114436043214,-92.11571167675416,10000.002050723117,119.83215734135436,-0.0059311467261671,0.0031990289229294,,8736.853420967655,11026.390928219933,150,11,2025-09-16,2025-09-26 14:48:41.906,HA,C,3164179934,AMBUSH51,1,1,48,2,1,1,225,2,1,0,0,9,1,225,2,1,-152718.5768114773,-4791650.55316952,4196751.71026757,2.39476,3.09663,-0.0096329,-123.881,5.56284,1.54419,-0.0431189,-7.14908,6.41049,-0.0226941,0.00422881,0.00223976,4,0,41.38971347653877,-91.82550225275548,8738.24543369544,-89.08974405255024,-0.1980594140340656,5.814897349356201,201.246,8736.853420967655,11026.390928219933,150,True,16.024201189472016,False,151.0931774421028,174.3301298238464,False,34.52182722489181,False,False
11,1970-07-23 11:25:41.230369030,2025-09-16,2025-09-26 14:48:43.036,HA,C,3130490842,JASSM,3,115,76,2,2,1,225,9,2,0,1,26,0,0,0,0,-176496.95251639312,-4779710.358369674,4209911.001432896,-2.36674,-0.400273,0.381578,74.5,-31.375,-32.375,0.0,0.0,0.0,0.0,0.0,0.0,2,0,41.544704139746045,-92.11475950617712,9999.997227633125,119.83278882757496,-0.0051088358417366,0.0031976169779659,,8736.853420967655,11026.390928219933,150,11,2025-09-16,2025-09-26 14:48:43.107,HA,C,3165611532,AMBUSH51,1,1,48,2,1,1,225,2,1,0,0,9,1,225,2,1,-152868.29220197495,-4791644.022162362,4196754.054457898,2.37676,3.09071,-0.0159557,-124.078,3.70459,4.24758,-0.22233,-7.40138,6.65196,-0.0134542,-0.00319683,0.00593282,4,0,41.389739755093984,-91.82729313305826,8739.008125278611,-88.59486663000534,-0.2115996192369922,4.777275888616967,201.392,8736.853420967655,11026.390928219933,150,True,15.908926173563874,False,151.41675507846568,174.15003842356924,False,34.33367277073524,False,False
11,1970-07-23 11:25:41.241406619,2025-09-16,2025-09-26 14:48:44.140,HA,C,3131803466,JASSM,3,115,76,2,2,1,225,9,2,0,1,26,0,0,0,0,-176414.95056326812,-4779745.067354049,4209875.272917271,-2.36674,-0.400273,0.381578,74.5,-31.375,-32.375,0.0,0.0,0.0,0.0,0.0,0.0,2,0,41.54427452561386,-92.11376252713464,9999.998925069403,119.83345002559368,-0.0042478186069139,0.0031961423967952,,8736.853420967655,11026.390928219933,150,11,2025-09-16,2025-09-26 14:48:44.174,HA,C,3166884064,AMBUSH51,1,1,48,2,1,1,225,2,1,0,0,9,1,225,2,1,-153000.6711884577,-4791636.630815135,4196756.634369034,2.51383,3.08752,-0.0252384,-124.076,7.1849,3.37928,-0.441544,-7.44486,6.73326,0.246098,0.0115275,-0.00732473,4,0,41.389776007146985,-91.82887725475528,8736.815216143612,-88.07598934582377,0.0041199792179942,12.626243504566984,201.722,8736.853420967655,11026.390928219933,150,False,15.798671394322929,False,152.21754971791472,173.98750638885448,False,33.742369180171416,False,False
11,1970-07-23 11:25:41.252429048,2025-09-16,2025-09-26 14:48:45.242,HA,C,3133056896,JASSM,3,115,76,2,2,1,225,9,2,0,1,26,0,0,0,0,-176336.64685233062,-4779778.209932174,4209841.155729771,-2.36674,-0.400273,0.381578,74.5,-31.375,-32.375,0.0,0.0,0.0,0.0,0.0,0.0,2,0,41.54386428495324,-92.1128105240722,10000.002366162817,119.83408139023076,-0.0034256360991573,0.0031947394993365,,8736.853420967655,11026.390928219933,150,11,2025-09-16,2025-09-26 14:48:45.307,HA,C,3168236130,AMBUSH51,1,1,48,2,1,1,225,2,1,0,0,9,1,225,2,1,-153140.0216304841,-4791627.491818977,4196761.679233968,2.64153,3.07412,-0.0484941,-123.845,9.03189,5.97258,-0.245594,-7.73492,7.04295,0.134736,0.0159779,0.062138,4,0,41.38983795078063,-91.83054532167982,8736.227054120121,-86.57028516068571,0.31144725903795,19.91842239518201,201.172,8736.853420967655,11026.390928219933,150,False,15.686904930641086,False,153.6798389213372,173.82010052351905,False,32.444406600190916,False,False
11,1970-07-23 11:25:41.263447458,2025-09-16,2025-09-26 14:48:46.344,HA,C,3134368578,JASSM,3,115,76,2,2,1,225,9,2,0,1,26,0,0,0,0,-176254.70349295562,-4779812.891572799,4209805.450651646,-2.36674,-0.400273,0.381578,74.5,-31.375,-32.375,0.0,0.0,0.0,0.0,0.0,0.0,2,0,41.5434349619288,-92.11181428431377,10000.002510151158,119.83474208698412,-0.0025652352347281,0.0031932664128574,,8736.853420967655,11026.390928219933,150,11,2025-09-16,2025-09-26 14:48:46.306,HA,C,3169429128,AMBUSH51,1,1,48,2,1,1,225,2,1,0,0,9,1,225,2,1,-153264.46730780657,-4791616.906586388,4196769.075510329,2.7958,3.04761,-0.0784885,-123.442,11.771,9.16819,-0.384074,-8.07968,7.07141,0.135949,0.0122391,0.0133189,4,0,41.389927185066725,-91.83203590288174,8736.018845056762,-84.27961917955625,0.3146648482713209,28.673644743110145,201.356,8736.853420967655,11026.390928219933,150,False,15.578457236921404,False,155.62785541495035,173.67139700980715,False,30.64531997788441,False,False
11,1970-07-23 11:25:41.274472143,2025-09-16,2025-09-26 14:48:47.447,HA,C,3135741008,JASSM,3,115,76,2,2,1,225,9,2,0,1,26,0,0,0,0,-176168.96521170562,-4779849.176729049,4209768.091276646,-2.36674,-0.400273,0.381578,74.5,-31.375,-32.375,0.0,0.0,0.0,0.0,0.0,0.0,2,0,41.542985757810285,-92.11077192244936,9999.999618788634,119.83543336547524,-0.001664993948187,0.0031917339849264,,8736.853420967655,11026.390928219933,150,11,2025-09-16,2025-09-26 14:48:47.273,HA,C,3170582360,AMBUSH51,1,1,48,2,1,1,225,2,1,0,0,9,1,225,2,1,-153382.62099683535,-4791603.344672546,4196779.360252921,2.8736,3.01822,-0.106619,-122.741,15.6514,12.6533,-0.323748,-8.01468,7.08481,-0.0027391,0.0219055,0.0644599,4,0,41.39005480617231,-91.83345246677888,8734.265950279982,-81.96233198018555,0.1315218813992836,32.9847918630152,201.026,8736.853420967655,11026.390928219933,150,False,15.469053054162492,False,158.0376305342163,173.5335116031447,False,28.383644329896807,True,False
11,1970-07-23 11:25:41.285509183,2025-09-16,2025-09-26 14:48:48.550,HA,C,3137053644,JASSM,3,115,76,2,2,1,225,9,2,0,1,26,0,0,0,0,-176086.96228201812,-4779883.881807174,4209732.356901646,-2.36674,-0.400273,0.381674,74.5,-31.375,-32.375,0.0,0.0,0.0,0.0,0.0,0.0,2,0,41.5425560930255,-92.10977498623156,9999.99781404248,119.83993737912652,-0.00472918811202,0.0031900635686731,,8736.853420967655,11026.390928219933,150,11,2025-09-16,2025-09-26 14:48:48.607,HA,C,3172173026,AMBUSH51,1,1,48,2,1,1,225,2,1,0,0,9,1,225,2,1,-153545.50677620043,-4791578.73078694,4196799.119369285,2.85345,2.95907,-0.145882,-121.474,21.3323,17.6668,-0.227923,-7.90313,7.05873,-0.0305463,0.00340281,0.0328869,4,0,41.39030359296582,-91.83540760564188,8729.40945951078,-78.0443031015736,-0.8691443551332259,31.37803181729552,201.466,8736.853420967655,11026.390928219933,150,False,15.338312110282288,False,161.53967870414655,173.36243720789088,False,25.06949452544059,True,False
11,1970-07-23 11:25:41.296374835,2025-09-16,2025-09-26 14:48:49.637,HA,C,3138365224,JASSM,3,115,76,2,2,1,225,9,2,0,1,26,0,0,0,0,-176005.02575858062,-4779918.557588424,4209696.651823521,-2.36674,-0.400273,0.381674,74.5,-31.375,-32.375,0.0,0.0,0.0,0.0,0.0,0.0,2,0,41.54212677705183,-92.1087788710444,9999.998590276038,119.8405979762722,-0.0038688584004977,0.0031886456484285,,8736.853420967655,11026.390928219933,150,11,2025-09-16,2025-09-26 14:48:49.706,HA,C,3173485324,AMBUSH51,1,1,48,2,1,1,225,2,1,0,0,9,1,225,2,1,-153679.12534927612,-4791553.041579116,4196820.528936774,2.80018,2.92526,-0.177095,-120.231,25.1985,21.5987,-0.177436,-7.89243,7.20133,-0.0359038,0.0124492,0.0489782,4,0,41.39057547024334,-91.83701356466716,8723.192497423212,-75.43569129260055,-1.0789694323676904,27.969952488895974,201.466,8736.853420967655,11026.390928219933,150,False,15.219494171704678,False,164.12762595197358,173.22757534620237,False,22.62413447101847,True,False
11,1970-07-23 11:25:41.309238146,2025-09-16,2025-09-26 14:48:50.923,HA,C,3139737652,JASSM,3,115,76,2,2,1,225,9,2,0,1,26,0,0,0,0,-175919.28698904935,-4779954.840791549,4209659.290495396,-2.36674,-0.400273,0.381674,74.5,-31.375,-32.375,0.0,0.0,0.0,0.0,0.0,0.0,2,0,41.541677543918055,-92.10773654621168,10000.001671618596,119.84128921242322,-0.0029686128757116,0.0031871741226047,,8736.853420967655,11026.390928219933,150,11,2025-09-16,2025-09-26 14:48:50.773,HA,C,3174757856,AMBUSH51,1,1,48,2,1,1,225,2,1,0,0,9,1,225,2,1,-153805.9504464617,-4791524.3535954,4196845.251733488,2.7819,2.89489,-0.211123,-118.979,28.5327,25.529,-0.281743,-8.34956,7.62084,-0.00854604,0.0198458,0.027365,4,0,41.39088882997354,-91.83853953697005,8716.258870011965,-72.84545111265079,-1.0125238380272024,26.539644535093053,201.759,8736.853420967655,11026.390928219933,150,False,15.099769895902714,False,166.55814365633563,173.105046884914,False,20.31895849623894,True,False
11,1970-07-23 11:25:41.320050405,2025-09-16,2025-09-26 14:48:52.005,HA,C,3141050074,JASSM,3,115,76,2,2,1,225,9,2,0,1,26,0,0,0,0,-175837.29773123687,-4779989.536104049,4209623.560026646,-2.36674,-0.400177,0.381674,74.5,-31.375,-32.375,0.0,0.0,0.0,0.0,0.0,0.0,2,0,41.54124793427748,-92.10673981813864,10000.000038650742,119.83830749162294,-0.0056741392907253,0.0011399349504667,,8736.853420967655,11026.390928219933,150,11,2025-09-16,2025-09-26 14:48:51.839,HA,C,3176030388,AMBUSH51,1,1,48,2,1,1,225,2,1,0,0,9,1,225,2,1,-153933.11777838223,-4791491.587558895,4196874.747317756,2.77195,2.87114,-0.239547,-117.582,31.9028,29.4902,-0.306995,-8.59624,7.7596,-0.02011,0.0163795,0.0491905,4,0,41.39125858642985,-91.84007117810616,8709.682562236867,-70.75059917348082,-0.8700198012855274,25.630777535897664,201.685,8736.853420967655,11026.390928219933,150,False,14.980218780939099,False,169.01659581590553,172.9913182412311,False,17.97785153039659,True,False
