Subject_cm,Timestamp,SampleDate_cm,SampleTime_cm,Configuration_cm,Scenario_cm,DisTime_cm,MarkingTxt_cm,Application_cm,EntId_cm,Site_cm,ExerciseId_cm,ForceId_cm,Category_cm,Country_cm,Domain_cm,Kind_cm,Extra_cm,Specific_cm,Subcategory_cm,AltCategory_cm,AltCountry_cm,AltDomain_cm,AltKind_cm,ECEF_X_cm,ECEF_Y_cm,ECEF_Z_cm,OriPhi_cm,OriPsi_cm,OriTheta_cm,LinVelX_cm,LinVelY_cm,LinVelZ_cm,LinAccX_cm,LinAccY_cm,LinAccZ_cm,AngVelX_cm,AngVelY_cm,AngVelZ_cm,DrAlg_cm,Appearance_cm,Latitude_cm,Longitude_cm,Altitude_cm,Heading_cm,Pitch_cm,Roll_cm,CalibratedAirspeed_cm,CM_Altitude_Lead_cm,CM_Altitude_Wing_cm,CM_Airspeed_cm,Subject_ac,SampleDate_ac,SampleTime_ac,Configuration_ac,Scenario_ac,DisTime_ac,MarkingTxt_ac,Application_ac,EntId_ac,Site_ac,ExerciseId_ac,ForceId_ac,Category_ac,Country_ac,Domain_ac,Kind_ac,Extra_ac,Specific_ac,Subcategory_ac,AltCategory_ac,AltCountry_ac,AltDomain_ac,AltKind_ac,ECEF_X_ac,ECEF_Y_ac,ECEF_Z_ac,OriPhi_ac,OriPsi_ac,OriTheta_ac,LinVelX_ac,LinVelY_ac,LinVelZ_ac,LinAccX_ac,LinAccY_ac,LinAccZ_ac,AngVelX_ac,AngVelY_ac,AngVelZ_ac,DrAlg_ac,Appearance_ac,Latitude_ac,Longitude_ac,Altitude_ac,Heading_ac,Pitch_ac,Roll_ac,CalibratedAirspeed_ac,CM_Altitude_Lead_ac,CM_Altitude_Wing_ac,CM_Airspeed_ac,Bank_Angle_Condition,distance_nm,Distance_Condition,angle_between_vel,angle_between_pos,Cone_Condition,angle_between_pos_nose,Nose_Cone_Condition,Intercept_Criteria
11,1970-07-23 11:25:40.682336714,2025-09-16,2025-09-26 14:47:48.233,HA,C,3065053276,JASSM,3,114,76,2,2,1,225,9,2,0,1,26,0,0,0,0,-172977.72448904935,-4769816.594697799,4221187.144011021,-2.51458,-0.703426,0.607361,54.375,-46.0,-49.375,0.0,0.0,0.0,0.0,0.0,0.0,2,0,41.68043313997824,-92.07692518231742,10000.007222493816,139.8284881639779,-0.0008319277507091,0.0009610606706508,,8736.853420967655,11026.390928219933,150,11,2025-09-16,2025-09-26 14:47:48.125,HA,C,2415968894,HAWK11,1,1,73,2,1,1,225,2,1,0,0,12,1,225,2,1,-145132.15857108062,-4790146.940400924,4199777.911589146,2.59808,2.3212,-0.717232,-98.625,61.25,65.125,-0.46875,-7.32812,6.65625,-0.015625,0.00195312,-0.00195312,4,0,41.420489705573786,-91.7354200627484,11026.390928219933,-32.051274812077395,1.9127042473089972,0.732035089920219,212.769,8736.853420967655,11026.390928219933,150,True,21.850657357792038,False,171.05048493975565,175.51771438668868,False,4.488123613482726,True,False
11,1970-07-23 11:25:40.693356534,2025-09-16,2025-09-26 14:47:49.335,HA,C,3066425178,JASSM,3,114,76,2,2,1,225,9,2,0,1,26,0,0,0,0,-172915.22986014312,-4769869.610322799,4221130.179167271,-2.51458,-0.703426,0.607456,54.375,-46.0,-49.375,0.0,0.0,0.0,0.0,0.0,0.0,2,0,41.67974676489356,-92.07615241688032,10000.002375320211,139.8322239664154,-0.0043821006169995,0.0009591916512284,,8736.853420967655,11026.390928219933,150,11,2025-09-16,2025-09-26 14:47:49.423,HA,C,2417678858,HAWK11,1,1,73,2,1,1,225,2,1,0,0,12,1,225,2,1,-145274.32849295562,-4790058.398408736,4199871.909636021,2.51295,2.31113,-0.709658,-98.75,61.25,65.0,0.0,-6.82812,6.21875,-0.0136719,-0.00390625,-0.0136719,4,0,41.421625296122365,-91.73715111091106,11023.286521491016,-31.90918881267661,1.3160105664765052,-4.5188353848579785,212.953,8736.853420967655,11026.390928219933,150,True,21.694160161099763,False,170.9844071667133,175.52730480828262,False,4.561607281002632,True,False
11,1970-07-23 11:25:40.704415858,2025-09-16,2025-09-26 14:47:50.441,HA,C,3067736870,JASSM,3,114,76,2,2,1,225,9,2,0,1,26,0,0,0,0,-172855.47839529935,-4769920.293916549,4221075.718229771,-2.51458,-0.703426,0.607456,54.375,-46.0,-49.375,0.0,0.0,0.0,0.0,0.0,0.0,2,0,41.67909056576505,-92.07541358902162,9999.997998305636,139.83271525905718,-0.0035247249576097,0.0009576017936846,,8736.853420967655,11026.390928219933,150,11,2025-09-16,2025-09-26 14:47:50.329,HA,C,2418871858,HAWK11,1,1,73,2,1,1,225,2,1,0,0,12,1,225,2,1,-145373.31677420562,-4789997.127900924,4199936.448698521,2.5188,2.31526,-0.706686,-99.125,61.25,64.5,-0.171875,-6.92188,6.34375,0.0332031,-0.00195312,-0.0136719,4,0,41.42240757150947,-91.73835628198496,11020.09423112786,-32.152052315400944,1.266010001352163,-4.035225945867831,213.087,8736.853420967655,11026.390928219933,150,True,21.571650184933624,False,170.75494492452933,175.53206609689906,False,4.787937331487767,True,False
11,1970-07-23 11:25:40.715434086,2025-09-16,2025-09-26 14:47:51.543,HA,C,3069048040,JASSM,3,114,76,2,2,1,225,9,2,0,1,26,0,0,0,0,-172795.75036795562,-4769970.961885299,4221021.276823521,-2.51458,-0.703426,0.607456,54.375,-46.0,-49.375,0.0,0.0,0.0,0.0,0.0,0.0,2,0,41.678434581452336,-92.07467506412026,10000.004731545012,139.833206343905,-0.0026676557620747,0.0009559892340711,,8736.853420967655,11026.390928219933,150,11,2025-09-16,2025-09-26 14:47:51.921,HA,C,2420701122,HAWK11,1,1,73,2,1,1,225,2,1,0,0,12,1,225,2,1,-145526.35388358062,-4789903.195283736,4200034.948698521,2.55302,2.31171,-0.707932,-99.75,61.125,64.0,-0.109375,-7.0625,6.48438,0.0195312,-0.00390625,0.00390625,4,0,41.4236036136652,-91.74021926135929,11014.350661713435,-31.98422855800004,1.2476875580499245,-2.201961865117517,213.087,8736.853420967655,11026.390928219933,150,True,21.41079301264143,False,170.42697402812476,175.54698381494987,False,5.126895185454924,True,False
11,1970-07-23 11:25:40.726797818,2025-09-16,2025-09-26 14:47:52.679,HA,C,3070300738,JASSM,3,114,76,2,2,1,225,9,2,0,1,26,0,0,0,0,-172738.68542654935,-4770019.368135299,4220969.261198521,-2.51448,-0.703426,0.607456,54.375,-46.0,-49.375,0.0,0.0,0.0,0.0,0.0,0.0,2,0,41.677807845736886,-92.0739694828722,10000.00571841392,139.83367551682784,-0.001848804729303,0.0064459231004147,,8736.853420967655,11026.390928219933,150,11,2025-09-16,2025-09-26 14:47:52.921,HA,C,2421973654,HAWK11,1,1,73,2,1,1,225,2,1,0,0,12,1,225,2,1,-145632.42224295562,-4789838.518525924,4200102.731901646,2.56156,2.31343,-0.703618,-100.0,61.125,63.75,-0.171875,-7.125,6.5,-0.015625,0.0,-0.00585938,4,0,41.42442673926849,-91.74151035772871,11010.377143706475,-32.17859019087539,1.0776225429212958,-1.6524819156594943,212.977,8736.853420967655,11026.390928219933,150,True,21.286135775497236,False,170.29333237147145,175.5552295188965,False,5.266678099938484,True,False
11,1970-07-23 11:25:40.736337991,2025-09-16,2025-09-26 14:47:53.633,HA,C,3071554434,JASSM,3,114,76,2,2,1,225,9,2,0,1,26,0,0,0,0,-172681.57556326812,-4770067.809541549,4220917.202604771,-2.51448,-0.70333,0.607456,54.375,-46.0,-49.375,0.0,0.0,0.0,0.0,0.0,0.0,2,0,41.677180616294656,-92.0732633611743,9999.999350917276,139.83049371133467,-0.0036749526922354,0.0033101089021656,,8736.853420967655,11026.390928219933,150,11,2025-09-16,2025-09-26 14:47:53.719,HA,C,2422848520,HAWK11,1,1,73,2,1,1,225,2,1,0,0,12,1,225,2,1,-145705.79724295562,-4789793.601533736,4200149.733854771,2.59243,2.30778,-0.706111,-100.0,61.25,63.75,-0.28125,-7.45312,7.03125,0.107422,0.0,0.00195312,4,0,41.42499794211033,-91.74240358374163,11007.444931673588,-31.89401542122234,1.0713581358453692,-0.0880727487461971,213.429,8736.853420967655,11026.390928219933,150,True,21.184714973628836,False,170.3184541675272,175.5575557095577,False,5.24284132621077,True,False
11,1970-07-23 11:25:40.747976722,2025-09-16,2025-09-26 14:47:54.797,HA,C,3072866398,JASSM,3,114,76,2,2,1,225,9,2,0,1,26,0,0,0,0,-172621.81140311187,-4770118.504854049,4220862.722136021,-2.51448,-0.70333,0.607456,54.375,-46.0,-49.375,0.0,0.0,0.0,0.0,0.0,0.0,2,0,41.6765241996904,-92.07252443463628,9999.99825849847,139.83098504486077,-0.0028173491622884,0.0033084260059908,,8736.853420967655,11026.390928219933,150,11,2025-09-16,2025-09-26 14:47:54.421,HA,C,2423763152,HAWK11,1,1,73,2,1,1,225,2,1,0,0,12,1,225,2,1,-145782.61755545562,-4789746.667939986,4200198.923307896,2.70307,2.30711,-0.706015,-99.75,61.375,64.125,-0.21875,-6.875,6.8125,0.175781,0.00195312,-0.00585938,4,0,41.42559527666469,-91.74333873446058,11004.565439732523,-31.8724986706352,1.05231711610015,6.22677895424759,213.6,8736.853420967655,11026.390928219933,150,True,21.078583296350907,False,170.5088098407651,175.56008660268213,False,5.0568981196188885,True,False
11,1970-07-23 11:25:40.758794881,2025-09-16,2025-09-26 14:47:55.879,HA,C,3074120114,JASSM,3,114,76,2,2,1,225,9,2,0,1,26,0,0,0,0,-172564.70007498687,-4770166.946260299,4220810.663542271,-2.51448,-0.70333,0.607456,54.375,-46.0,-49.375,0.0,0.0,0.0,0.0,0.0,0.0,2,0,41.67589696154669,-92.07181832342728,10000.000519834086,139.8314545525973,-0.0019978488383888,0.0033068463808929,,8736.853420967655,11026.390928219933,150,11,2025-09-16,2025-09-26 14:47:55.719,HA,C,2425314050,HAWK11,1,1,73,2,1,1,225,2,1,0,0,12,1,225,2,1,-145913.03943045562,-4789665.093721236,4200283.802214146,2.95387,2.27566,-0.709658,-98.125,63.0,65.5,-0.328125,-6.92188,6.89062,0.148438,0.0117188,0.0332031,4,0,41.42662987647839,-91.74492711780772,10998.003903693363,-30.59049840176641,0.5326832465142013,19.443576644637176,214.26,8736.853420967655,11026.390928219933,150,False,20.935497920109874,False,171.63909084729102,175.5704473473105,False,3.9326945812765013,True,False
11,1970-07-23 11:25:40.769574313,2025-09-16,2025-09-26 14:47:56.957,HA,C,3075490490,JASSM,3,114,76,2,2,1,225,9,2,0,1,26,0,0,0,0,-172502.27478201812,-4770219.895479049,4220753.757292271,-2.51448,-0.70333,0.607456,54.375,-46.0,-49.375,0.0,0.0,0.0,0.0,0.0,0.0,2,0,41.67521132754348,-92.07104652703728,10000.000878582732,139.83196772911973,-0.0011020751428859,0.0033051011839028,,8736.853420967655,11026.390928219933,150,11,2025-09-16,2025-09-26 14:47:56.921,HA,C,2426745648,HAWK11,1,1,73,2,1,1,225,2,1,0,0,12,1,225,2,1,-146029.87146170562,-4789587.006807174,4200363.901823521,3.09289,2.23453,-0.704768,-94.75,65.75,67.375,-0.046875,-6.95312,7.03125,0.0976562,0.0117188,0.0449219,4,0,41.42761391678256,-91.74635186323512,10988.63889351519,-29.168974431117373,-0.5902329641723588,25.87715988082495,215.189,8736.853420967655,11026.390928219933,150,False,20.795156565351995,False,173.59963796947545,175.5713911713051,False,1.9939692801926627,True,False
11,1970-07-23 11:25:40.780435650,2025-09-16,2025-09-26 14:47:58.043,HA,C,3076743338,JASSM,3,114,76,2,2,1,225,9,2,0,1,26,0,0,0,0,-172445.20349295562,-4770268.301729049,4220701.733854771,-2.51448,-0.70333,0.607552,54.375,-46.0,-49.375,0.0,0.0,0.0,0.0,0.0,0.0,2,0,41.67458451806114,-92.07034094005402,10000.006236929614,139.83566106020618,-0.0047326898170982,0.0033033799888791,,8736.853420967655,11026.390928219933,150,11,2025-09-16,2025-09-26 14:47:58.125,HA,C,2427938648,HAWK11,1,1,73,2,1,1,225,2,1,0,0,12,1,225,2,1,-146124.79724295562,-4789518.872041549,4200433.083464146,-3.10689,2.22648,-0.689141,-91.75,68.625,69.625,-0.25,-7.60938,7.35938,0.0527344,0.0214844,0.0253906,4,0,41.42846901574263,-91.74751120842124,10978.412301863338,-29.286408119980557,-1.544721709198294,30.36253154832307,216.692,8736.853420967655,11026.390928219933,150,False,20.673252190570118,False,175.5094713338788,175.56474549773114,False,0.7788098363386866,True,False
11,1970-07-23 11:25:40.790299186,2025-09-16,2025-09-26 14:47:59.029,HA,C,3077997356,JASSM,3,114,76,2,2,1,225,9,2,0,1,26,0,0,0,0,-172388.07849295562,-4770316.750947799,4220649.655729771,-2.51448,-0.70333,0.607552,54.375,-46.0,-49.375,0.0,0.0,0.0,0.0,0.0,0.0,2,0,41.673957091243615,-92.06963470386108,9999.99705053822,139.83613063323875,-0.0039129747183431,0.0033018290435687,,8736.853420967655,11026.390928219933,150,11,2025-09-16,2025-09-26 14:47:59.016,HA,C,2429131646,HAWK11,1,1,73,2,1,1,225,2,1,0,0,12,1,225,2,1,-146215.68786795562,-4789448.012666549,4200504.429167271,-3.05598,2.212,-0.673993,-88.0,71.875,72.5,0.09375,-7.71875,7.64062,0.0722656,0.0214844,0.0429688,4,0,41.42935565552989,-91.74862335202448,10965.89120127248,-29.12780001106376,-2.6125782219358764,32.75132340889088,217.89,8736.853420967655,11026.390928219933,150,False,20.55142950823696,False,177.65960897878938,175.5501577272663,False,2.690346517349408,True,False
11,1970-07-23 11:25:40.801997143,2025-09-16,2025-09-26 14:48:00.199,HA,C,3079309774,JASSM,3,114,76,2,2,1,225,9,2,0,1,26,0,0,0,0,-172328.29333670562,-4770367.457979049,4220595.155729771,-2.51448,-0.70333,0.607552,54.375,-46.0,-49.375,0.0,0.0,0.0,0.0,0.0,0.0,2,0,41.67330045411824,-92.06889559413322,10000.003212590844,139.8366220575153,-0.0030550964211807,0.0033002139846952,,8736.853420967655,11026.390928219933,150,11,2025-09-16,2025-09-26 14:48:00.328,HA,C,2430762078,HAWK11,1,1,73,2,1,1,225,2,1,0,0,12,1,225,2,1,-146334.51989920562,-4789344.396455611,4200608.446745396,-3.00056,2.20567,-0.653668,-82.25,77.0,77.5,-0.1875,-8.35938,8.25,0.0136719,0.0332031,0.0390625,4,0,41.43065262278053,-91.75008144344538,10945.86888322212,-29.41858708990159,-3.7745226561678766,35.719439030972254,219.368,8736.853420967655,11026.390928219933,150,False,20.3988967945502,False,177.61991035249173,175.51791740003944,False,6.426007281820711,True,False
11,1970-07-23 11:25:40.813174870,2025-09-16,2025-09-26 14:48:01.317,HA,C,3080620590,JASSM,3,114,76,2,2,1,225,9,2,0,1,26,0,0,0,0,-172268.58093436187,-4770418.098604049,4220540.718229771,-2.51448,-0.70333,0.607552,54.375,-46.0,-49.375,0.0,0.0,0.0,0.0,0.0,0.0,2,0,41.67264461365898,-92.06815740087688,9999.994201173822,139.83711286610256,-0.0021982648192582,0.0032986012547103,,8736.853420967655,11026.390928219933,150,11,2025-09-16,2025-09-26 14:48:01.327,HA,C,2431955076,HAWK11,1,1,73,2,1,1,225,2,1,0,0,12,1,225,2,1,-146414.84802420562,-4789264.942354049,4200688.374479771,-2.96336,2.16569,-0.6622,-76.875,80.25,81.375,-0.25,-9.14062,8.79688,0.0273438,0.0429688,0.046875,4,0,41.43165022440639,-91.75107055808284,10930.07671760143,-27.577177703801976,-4.156617864283839,36.32273144475295,220.419,8736.853420967655,11026.390928219933,150,False,20.273975668283093,False,174.89488489132273,175.4781212025719,False,9.476085119137974,True,False
11,1970-07-23 11:25:40.823975753,2025-09-16,2025-09-26 14:48:02.397,HA,C,3081934190,JASSM,3,114,76,2,2,1,225,9,2,0,1,26,0,0,0,0,-172208.74157889312,-4770468.848604049,4220486.167448521,-2.51448,-0.70333,0.607552,54.375,-46.0,-49.375,0.0,0.0,0.0,0.0,0.0,0.0,2,0,41.67198738029766,-92.06741765245866,9999.9994096291,139.83760470232704,-0.0013396158845136,0.0032969895516812,,8736.853420967655,11026.390928219933,150,11,2025-09-16,2025-09-26 14:48:02.327,HA,C,2433108308,HAWK11,1,1,73,2,1,1,225,2,1,0,0,12,1,225,2,1,-146486.71521170562,-4789184.778291549,4200769.452604771,-2.90181,2.11718,-0.676294,-70.75,83.125,85.125,-0.015625,-9.28125,8.67188,0.015625,0.0429688,0.0410156,4,0,41.43266134704129,-91.75195883560622,10914.410156918208,-25.25507902835589,-4.35161217399467,37.95250595946677,221.311,8736.853420967655,11026.390928219933,150,False,20.151547725832547,False,171.8023761946869,175.42700144955413,False,12.694667283765387,True,False
11,1970-07-23 11:25:40.834394934,2025-09-16,2025-09-26 14:48:03.439,HA,C,3083245804,JASSM,3,114,76,2,2,1,225,9,2,0,1,26,0,0,0,0,-172148.99304373687,-4770519.520479049,4220431.694792271,-2.51448,-0.703234,0.607552,54.375,-46.0,-49.375,0.0,0.0,0.0,0.0,0.0,0.0,2,0,41.67133111481102,-92.06667904227444,9999.99642052659,139.83444256184524,-0.0031295609698681,0.0001586706685499,,8736.853420967655,11026.390928219933,150,11,2025-09-16,2025-09-26 14:48:03.515,HA,C,2434380840,HAWK11,1,1,73,2,1,1,225,2,1,0,0,12,1,225,2,1,-146558.27185233062,-4789093.533174361,4200862.690886021,-2.83154,2.04288,-0.702947,-63.25,85.625,89.25,-0.375,-10.0469,9.26562,0.0371094,0.0429688,0.0507812,4,0,41.43382052454829,-91.75284748340457,10897.887081834604,-21.626727416063574,-4.211096413473657,38.99853908405704,221.984,8736.853420967655,11026.390928219933,150,False,20.02287742661842,False,168.20339043779677,175.3575036662159,False,16.402830850432107,True,False
11,1970-07-23 11:25:40.845414774,2025-09-16,2025-09-26 14:48:04.541,HA,C,3084499342,JASSM,3,114,76,2,2,1,225,9,2,0,1,26,0,0,0,0,-172091.89001639312,-4770567.950166549,4220379.636198521,-2.51448,-0.703234,0.607552,54.375,-46.0,-49.375,0.0,0.0,0.0,0.0,0.0,0.0,2,0,41.670703908475474,-92.06597314920748,10000.006147613698,139.83491187675529,-0.0023101625133184,0.0001570690072175,,8736.853420967655,11026.390928219933,150,11,2025-09-16,2025-09-26 14:48:04.421,HA,C,2435573840,HAWK11,1,1,73,2,1,1,225,2,1,0,0,12,1,225,2,1,-146617.31286795562,-4789005.623018111,4200954.177214146,-2.74909,1.96896,-0.727586,-55.0,87.625,93.375,-0.4375,-10.6562,9.6875,0.0234375,0.0527344,0.03125,4,0,41.43495030582053,-91.75358534670886,10884.828609549317,-18.13273317402186,-3.9603021009634154,40.6952652574096,222.607,8736.853420967655,11026.390928219933,150,False,19.902510145969313,False,164.38271334550373,175.27726691294035,False,20.32382234657012,True,False
11,1970-07-23 11:25:40.856454096,2025-09-16,2025-09-26 14:48:05.645,HA,C,3085869994,JASSM,3,114,76,2,2,1,225,9,2,0,1,26,0,0,0,0,-172029.45153983062,-4770620.899385299,4220322.710417271,-2.51448,-0.703234,0.607552,54.375,-46.0,-49.375,0.0,0.0,0.0,0.0,0.0,0.0,2,0,41.67001810615698,-92.06520131875018,10000.00147014675,139.83542502368465,-0.0014142136766543,0.000155324290973,,8736.853420967655,11026.390928219933,150,11,2025-09-16,2025-09-26 14:48:05.625,HA,C,2437005438,HAWK11,1,1,73,2,1,1,225,2,1,0,0,12,1,225,2,1,-146675.65661795562,-4788898.034150924,4201068.224089146,-2.64391,1.86216,-0.757211,-43.625,89.75,97.625,-0.15625,-11.0156,10.125,0.015625,0.0546875,0.0410156,4,0,41.43634956291695,-91.75432210647242,10872.3319601765,-13.322074053512283,-3.5696835204179487,42.26566792145237,222.802,8736.853420967655,11026.390928219933,150,False,19.766177167953735,False,159.34636037846008,175.16185188201038,False,25.48410729659394,True,False
11,1970-07-23 11:25:40.867596874,2025-09-16,2025-09-26 14:48:06.759,HA,C,3087123316,JASSM,3,114,76,2,2,1,225,9,2,0,1,26,0,0,0,0,-171972.35827811187,-4770669.313447799,4220270.659636021,-2.51448,-0.703234,0.607648,54.375,-46.0,-49.375,0.0,0.0,0.0,0.0,0.0,0.0,2,0,41.669391034441325,-92.06449557826062,9999.99978906056,139.83911664967437,-0.0050415839230636,0.0001535861208486,,8736.853420967655,11026.390928219933,150,11,2025-09-16,2025-09-26 14:48:06.515,HA,C,2438198436,HAWK11,1,1,73,2,1,1,225,2,1,0,0,12,1,225,2,1,-146713.74255545562,-4788805.995088424,4201167.886198521,-2.55091,1.77002,-0.77351,-33.25,91.125,101.125,-0.390625,-11.4062,10.4219,0.0195312,0.0625,0.0390625,4,0,41.4375628967298,-91.75481105569752,10865.318407081004,-9.398505524983792,-3.4335199669373493,43.69570994367579,222.912,8736.853420967655,11026.390928219933,150,False,19.65024498769482,False,154.85165942532223,175.04583530198096,False,30.098983348228778,False,False
11,1970-07-23 11:25:40.878316984,2025-09-16,2025-09-26 14:48:07.831,HA,C,3088435044,JASSM,3,114,76,2,2,1,225,9,2,0,1,26,0,0,0,0,-171912.60388358062,-4770719.985322799,4220216.179167271,-2.51448,-0.703234,0.607648,54.375,-46.0,-49.375,0.0,0.0,0.0,0.0,0.0,0.0,2,0,41.66873469862476,-92.06375695715316,9999.997775390148,139.83960770513912,-0.0041841459586782,0.0001519610738318,,8736.853420967655,11026.390928219933,150,11,2025-09-16,2025-09-26 14:48:07.719,HA,C,2439431202,HAWK11,1,1,73,2,1,1,225,2,1,0,0,12,1,225,2,1,-146742.01989920562,-4788710.690400924,4201273.856901646,-2.44775,1.65622,-0.790671,-21.875,91.75,103.75,-0.265625,-11.3906,10.6094,0.0136719,0.0664062,0.0527344,4,0,41.438840019376,-91.75518397234993,10863.24603874042,-4.678464747081812,-3.055491147715808,44.74116562280589,222.448,8736.853420967655,11026.390928219933,150,False,19.533093730527874,False,150.08496363007998,174.90899719560323,False,35.00446375949036,False,False
11,1970-07-23 11:25:40.889601693,2025-09-16,2025-09-26 14:48:08.960,HA,C,3089747896,JASSM,3,114,76,2,2,1,225,9,2,0,1,26,0,0,0,0,-171852.79870779935,-4770770.700166549,4220161.651823521,-2.51448,-0.703234,0.607648,54.375,-46.0,-49.375,0.0,0.0,0.0,0.0,0.0,0.0,2,0,41.66807779689576,-92.0630177234049,9999.998965661993,139.84009916155156,-0.0033259767077106,0.0001503324608528,,8736.853420967655,11026.390928219933,150,11,2025-09-16,2025-09-26 14:48:09.225,HA,C,2441419534,HAWK11,1,1,73,2,1,1,225,2,1,0,0,12,1,225,2,1,-146762.95544608062,-4788556.780244674,4201449.813932896,-2.29972,1.4568,-0.800163,-3.625,90.625,106.625,-0.5625,-11.4219,10.4531,-0.00195312,0.0585938,0.0429688,4,0,41.44093952027252,-91.75549061267256,10868.529498534514,3.3283003113385563,-2.6091207808857515,44.65338991393984,222.045,8736.853420967655,11026.390928219933,150,False,19.383396139554506,False,142.54709364252332,174.66086320498215,False,42.79203063087073,False,False
11,1970-07-23 11:25:40.906056081,2025-09-16,2025-09-26 14:48:10.605,HA,C,3091060938,JASSM,3,114,76,2,2,1,225,9,2,0,1,26,0,0,0,0,-171792.984498815,-4770821.422822799,4220107.116667271,-2.51439,-0.703234,0.607648,54.375,-46.0,-49.375,0.0,0.0,0.0,0.0,0.0,0.0,2,0,41.66742079305166,-92.06227839296687,10000.006147317314,139.84059067588822,-0.0024676791856265,0.0056401769531376,,8736.853420967655,11026.390928219933,150,11,2025-09-16,2025-09-26 14:48:10.428,HA,C,2442652298,HAWK11,1,1,73,2,1,1,225,2,1,0,0,12,1,225,2,1,-146757.77185233062,-4788459.852510299,4201559.321745396,-2.19781,1.35019,-0.797574,8.875,90.625,106.875,-0.328125,-11.5,10.5938,-0.00390625,0.0742188,0.0566406,4,0,41.44225627054228,-91.7554641594765,10867.655117864952,7.584776990798536,-2.319900111836265,45.93050753365572,221.25,8736.853420967655,11026.390928219933,150,False,19.277610661274693,False,137.44343441473114,174.47733085032263,False,48.079104261048506,False,False
11,1970-07-23 11:25:40.912051455,2025-09-16,2025-09-26 14:48:11.205,HA,C,3092374038,JASSM,3,114,76,2,2,1,225,9,2,0,1,26,0,0,0,0,-171733.16784842435,-4770872.141572799,4220052.577604771,-2.51439,-0.703234,0.607648,54.375,-46.0,-49.375,0.0,0.0,0.0,0.0,0.0,0.0,2,0,41.66676378199706,-92.0615390499669,9999.999721032456,139.8410821922181,-0.0016093664522283,0.0056385635447778,,8736.853420967655,11026.390928219933,150,11,2025-09-16,2025-09-26 14:48:11.333,HA,C,2443924830,HAWK11,1,1,73,2,1,1,225,2,1,0,0,12,1,225,2,1,-146740.72497733062,-4788363.270479049,4201671.501432896,-2.11181,1.23351,-0.785015,21.0,89.125,106.25,-0.59375,-11.1406,10.1875,0.0,0.0566406,0.046875,4,0,41.443591151208594,-91.7552957601238,10872.549912078175,12.33835456990169,-2.1592923143885296,45.91442731523683,220.749,8736.853420967655,11026.390928219933,150,False,19.175818436596867,False,132.44763072104018,174.2760344226418,False,53.27624688052628,False,False
11,1970-07-23 11:25:40.922474117,2025-09-16,2025-09-26 14:48:12.247,HA,C,3093745010,JASSM,3,114,76,2,2,1,225,9,2,0,1,26,0,0,0,0,-171670.71472342435,-4770925.098604049,4219995.632292271,-2.51439,-0.703234,0.607648,54.375,-46.0,-49.375,0.0,0.0,0.0,0.0,0.0,0.0,2,0,41.66607777457438,-92.06076713456588,9999.999679092383,139.84159535594517,-0.0007131969996072,0.0056368585079904,,8736.853420967655,11026.390928219933,150,11,2025-09-16,2025-09-26 14:48:12.224,HA,C,2444918996,HAWK11,1,1,73,2,1,1,225,2,1,0,0,12,1,225,2,1,-146719.45349295562,-4788289.319307174,4201759.270964146,-2.05563,1.13812,-0.769387,29.875,87.5,105.125,-0.296875,-10.8125,10.0156,-0.00585938,0.0546875,0.0585938,4,0,41.44462739642144,-91.75506856041758,10879.759226493205,16.335420823186702,-2.0085551658326195,45.15350441753556,219.943,8736.853420967655,11026.390928219933,150,False,19.086373318339806,False,128.73088461015962,174.1048626208131,False,57.1641756217078,False,False
11,1970-07-23 11:25:40.933536023,2025-09-16,2025-09-26 14:48:13.353,HA,C,3094997906,JASSM,3,114,76,2,2,1,225,9,2,0,1,26,0,0,0,0,-171613.64050467435,-4770973.493135299,4219943.589323521,-2.51439,-0.703138,0.607648,54.375,-46.0,-49.375,0.0,0.0,0.0,0.0,0.0,0.0,2,0,41.6654508404033,-92.0600617169596,9999.995751285132,139.8384137520659,-0.0025398964364807,0.002500082568668,,8736.853420967655,11026.390928219933,150,11,2025-09-16,2025-09-26 14:48:13.427,HA,C,2446231296,HAWK11,1,1,73,2,1,1,225,2,1,0,0,12,1,225,2,1,-146677.16052420562,-4788190.936494674,4201873.226042271,-2.04125,1.03477,-0.744364,41.75,85.375,103.0,-0.171875,-10.4844,9.8125,-0.0429688,0.0566406,0.0566406,4,0,41.4459895774859,-91.75459899359709,10882.20222186608,20.87416701416642,-1.9456885379897189,41.75258596938096,219.539,8736.853420967655,11026.390928219933,150,False,18.995958171781044,False,123.72175962152356,173.86851604245936,False,62.40954956129795,False,False
11,1970-07-23 11:25:40.944554122,2025-09-16,2025-09-26 14:48:14.455,HA,C,3096309152,JASSM,3,114,76,2,2,1,225,9,2,0,1,26,0,0,0,0,-171553.90808279935,-4771024.141572799,4219889.124479771,-2.51439,-0.703138,0.607648,54.375,-46.0,-49.375,0.0,0.0,0.0,0.0,0.0,0.0,2,0,41.66479471609224,-92.05932345955816,10000.000471043537,139.83890452773534,-0.0016827735866469,0.0024984015707725,,8736.853420967655,11026.390928219933,150,11,2025-09-16,2025-09-26 14:48:14.333,HA,C,2447424294,HAWK11,1,1,73,2,1,1,225,2,1,0,0,12,1,225,2,1,-146629.83435233062,-4788106.159150924,4201973.890104771,-2.09743,0.951739,-0.726628,50.875,82.625,101.625,-0.15625,-10.0469,9.84375,-0.244141,0.0429688,0.0449219,4,0,41.44718201089307,-91.7540642537314,10888.857937121396,24.519971223031654,-1.5045616409327571,35.23097394079012,219.271,8736.853420967655,11026.390928219933,150,False,18.912744113575744,False,119.80278288472644,173.6452135306822,False,66.55199836292775,False,False
11,1970-07-23 11:25:40.954432592,2025-09-16,2025-09-26 14:48:15.443,HA,C,3097562522,JASSM,3,114,76,2,2,1,225,9,2,0,1,26,0,0,0,0,-171496.81213553375,-4771072.551729049,4219837.061979771,-2.51439,-0.703138,0.607744,54.375,-46.0,-49.375,0.0,0.0,0.0,0.0,0.0,0.0,2,0,41.66416755286826,-92.05861780262398,9999.999052570156,139.84259829861088,-0.0053126745833147,0.0024966238236991,,8736.853420967655,11026.390928219933,150,11,2025-09-16,2025-09-26 14:48:15.521,HA,C,2448816126,HAWK11,1,1,73,2,1,1,225,2,1,0,0,12,1,225,2,1,-146565.14880545562,-4788010.756807174,4202091.153776646,-2.38611,0.868808,-0.711192,58.125,78.75,101.5,-0.171875,-9.71875,9.5625,-0.384766,0.0253906,0.0195312,4,0,41.44855283936312,-91.75332584677648,10904.151201821132,28.119315978837687,-0.7176135258713472,15.491021315194152,219.539,8736.853420967655,11026.390928219933,150,False,18.831346349424717,False,116.61011053285206,173.37785603933256,False,70.01097953474618,False,False
11,1970-07-23 11:25:40.965463277,2025-09-16,2025-09-26 14:48:16.546,HA,C,3098875190,JASSM,3,114,76,2,2,1,225,9,2,0,1,26,0,0,0,0,-171437.0147722525,-4771123.250947799,4219782.538542271,-2.51439,-0.703138,0.607744,54.375,-46.0,-49.375,0.0,0.0,0.0,0.0,0.0,0.0,2,0,41.66351073556729,-92.05787877378955,10000.003807497602,139.84308957481718,-0.0044546432338844,0.0024950073898266,,8736.853420967655,11026.390928219933,150,11,2025-09-16,2025-09-26 14:48:16.429,HA,C,2450009124,HAWK11,1,1,73,2,1,1,225,2,1,0,0,12,1,225,2,1,-146505.26794608062,-4787932.864229049,4202191.448698521,-2.66539,0.850976,-0.734873,60.125,76.25,102.75,-0.03125,-8.875,8.78125,-0.107422,0.00976562,-0.00585938,4,0,41.449704067433,-91.7526384469856,10926.005301146995,28.155620143655607,0.8413547449853612,-1.1865363537476457,219.271,8736.853420967655,11026.390928219933,150,True,18.75539939313171,False,115.69125423305937,173.14130227063845,False,71.1627427443775,False,False
11,1970-07-23 11:25:40.976449923,2025-09-16,2025-09-26 14:48:17.644,HA,C,3100187646,JASSM,3,114,76,2,2,1,225,9,2,0,1,26,0,0,0,0,-171377.22717459625,-4771173.942354049,4219728.019011021,-2.51439,-0.703138,0.607744,54.375,-46.0,-49.375,0.0,0.0,0.0,0.0,0.0,0.0,2,0,41.66285398431104,-92.05713988046342,10000.00349642424,139.84358075459298,-0.0035967239994206,0.0024933678360956,,8736.853420967655,11026.390928219933,150,11,2025-09-16,2025-09-26 14:48:17.631,HA,C,2451440724,HAWK11,1,1,73,2,1,1,225,2,1,0,0,12,1,225,2,1,-146431.99450858062,-4787841.967744674,4202312.647917271,-2.66452,0.860563,-0.771401,60.375,74.25,103.75,-0.109375,-7.98438,8.0,0.0449219,0.015625,0.0,4,0,41.45107616132616,-91.7517956614181,10960.301164801564,26.810497673476725,2.4956038937745424,-0.8004566741154149,218.391,8736.853420967655,11026.390928219933,150,True,18.675863484158516,False,115.44379136813515,172.85830961749522,False,71.68811282730687,False,False
11,1970-07-23 11:25:40.988112397,2025-09-16,2025-09-26 14:48:18.811,HA,C,3101499498,JASSM,3,114,76,2,2,1,225,9,2,0,1,26,0,0,0,0,-171317.46692069,-4771224.606416549,4219673.526823521,-2.51439,-0.703138,0.607744,54.375,-46.0,-49.375,0.0,0.0,0.0,0.0,0.0,0.0,2,0,41.66219756966604,-92.05640134186608,10000.00293728846,139.844071692214,-0.0027392292864069,0.0024917544656513,,8736.853420967655,11026.390928219933,150,11,2025-09-16,2025-09-26 14:48:18.833,HA,C,2452832554,HAWK11,1,1,73,2,1,1,225,2,1,0,0,12,1,225,2,1,-146361.93982108062,-4787755.895479049,4202431.165495396,-2.5606,0.841388,-0.77677,60.75,73.125,103.75,0.046875,-6.78125,6.70312,0.00195312,-0.0078125,0.0,4,0,41.45240084420266,-91.75098956319384,11000.886374717888,27.355242977299355,3.1422860999873232,4.412946089186212,217.413,8736.853420967655,11026.390928219933,150,True,18.59752546809244,False,115.15153651909829,172.58266388764238,False,72.25364524521746,False,False
11,1970-07-23 11:25:41.008429231,2025-09-16,2025-09-26 14:48:20.842,HA,C,3104005348,JASSM,3,114,76,2,2,1,225,9,2,0,1,26,0,0,0,0,-171203.31506522125,-4771321.383760299,4219569.429167271,-2.51439,-0.703138,0.607744,54.375,-45.875,-49.375,0.0,0.0,0.0,0.0,0.0,0.0,2,0,41.660943634501386,-92.0549906537898,9999.997705159012,139.84500941818578,-0.0011012260211919,0.0024886324722022,,8736.853420967655,11026.390928219933,150,11,2025-09-16,2025-09-26 14:48:20.926,HA,C,2455377618,HAWK11,1,1,73,2,1,1,225,2,1,0,0,12,1,225,2,1,-146231.91052420562,-4787596.959932174,4202646.065886021,-2.68293,0.842443,-0.767757,61.375,74.875,100.5,0.3125,-5.23438,5.32812,-0.0449219,-0.0273438,-0.00195312,4,0,41.45482039332796,-91.7494929755304,11067.241486548584,27.56774167396941,2.6717918948214425,-2.5433197839832373,215.91,8736.853420967655,11026.390928219933,150,True,18.45210947430197,False,114.75299440063851,172.09945689602472,False,73.14586245316525,False,False
11,1970-07-23 11:25:41.015770273,2025-09-16,2025-09-26 14:48:21.577,HA,C,3102752566,JASSM,3,114,76,2,2,1,225,9,2,0,1,26,0,0,0,0,-171260.38464529935,-4771273.000947799,4219621.472136021,-2.51439,-0.703138,0.607744,54.375,-45.875,-49.375,0.0,0.0,0.0,0.0,0.0,0.0,2,0,41.66157053122172,-92.05569591233623,9999.999199717906,139.8445406149231,-0.0019201339676759,0.0024901912762197,,8736.853420967655,11026.390928219933,150,11,2025-09-16,2025-09-26 14:48:21.521,HA,C,2455934352,HAWK11,1,1,73,2,1,1,225,2,1,0,0,12,1,225,2,1,-146203.43591483062,-4787562.383760299,4202691.183073521,-2.69789,0.852893,-0.765073,61.375,75.625,99.625,-0.015625,-5.14062,5.26562,-0.0234375,-0.0234375,-0.0175781,4,0,41.455335770587,-91.74916514661088,11078.11969652207,27.26271251031517,2.330725917696156,-2.998291824494568,215.678,8736.853420967655,11026.390928219933,150,True,18.490880751256245,False,114.74930687564718,172.01895075881293,False,73.23117884085559,False,False
11,1970-07-23 11:25:41.019493801,2025-09-16,2025-09-26 14:48:21.949,HA,C,3105258442,JASSM,3,114,76,2,2,1,225,9,2,0,1,26,0,0,0,0,-171146.2315691275,-4771369.778291549,4219517.374479771,-2.51439,-0.703138,0.607744,54.375,-45.875,-49.375,0.0,0.0,0.0,0.0,0.0,0.0,2,0,41.66031658752411,-92.05428523699004,10000.002410617582,139.8454783208542,-0.0002821236703853,0.0024870777603853,,8736.853420967655,11026.390928219933,150,11,2025-09-16,2025-09-26 14:48:22.130,HA,C,2456689918,HAWK11,1,1,73,2,1,1,225,2,1,0,0,12,1,225,2,1,-146164.15075858062,-4787512.975557174,4202754.185026646,-2.75666,0.869671,-0.756253,61.25,77.0,98.75,0.203125,-5.10938,5.26562,-0.0898438,-0.0078125,0.0,4,0,41.45606206189704,-91.74871347001007,11090.582467528777,26.88650251057932,1.557774746531493,-5.715607765350585,215.47,8736.853420967655,11026.390928219933,150,True,18.379722555481763,False,114.87452397989544,171.83256364283213,False,73.29291179420645,False,False
11,1970-07-23 11:25:41.030469334,2025-09-16,2025-09-26 14:48:23.046,HA,C,3106570386,JASSM,3,114,76,2,2,1,225,9,2,0,1,26,0,0,0,0,-171086.46692069,-4771420.442354049,4219462.870573521,-2.51439,-0.703043,0.607744,54.375,-45.875,-49.375,0.0,0.0,0.0,0.0,0.0,0.0,2,0,41.65966007640048,-92.05354670367306,9999.994022529769,139.84231679512263,-0.0020719020885192,-0.0006521816258106,,8736.853420967655,11026.390928219933,150,11,2025-09-16,2025-09-26 14:48:23.042,HA,C,2457365950,HAWK11,1,1,73,2,1,1,225,2,1,0,0,12,1,225,2,1,-146129.92810233062,-4787469.485322799,4202808.382292271,-2.75906,0.872356,-0.752897,61.125,78.0,98.0,-0.125,-5.46875,5.57812,0.0292969,-0.0136719,0.00390625,4,0,41.45669280511996,-91.7483201550324,11098.84907448593,26.87698616572377,1.33615338502215,-5.747806381147473,215.849,8736.853420967655,11026.390928219933,150,True,18.31685598704063,False,114.96177191704086,171.68439957803682,False,73.35343890161928,False,False
11,1970-07-23 11:25:41.044231497,2025-09-16,2025-09-26 14:48:24.423,HA,C,3107823528,JASSM,3,114,76,2,2,1,225,9,2,0,1,26,0,0,0,0,-171029.38098319,-4771468.836885299,4219410.811979771,-2.51439,-0.703043,0.60784,54.375,-45.875,-49.375,0.0,0.0,0.0,0.0,0.0,0.0,2,0,41.659032994681375,-92.0528412856096,9999.998747274783,139.84600860033805,-0.0056990108595475,-0.0006539840065701,,8736.853420967655,11026.390928219933,150,11,2025-09-16,2025-09-26 14:48:24.224,HA,C,2459155448,HAWK11,1,1,73,2,1,1,225,2,1,0,0,12,1,225,2,1,-146038.63122733062,-4787348.858369674,4202953.558073521,-2.81687,0.90083,-0.735736,60.375,81.125,96.5,-0.09375,-5.40625,5.46875,-0.0332031,-0.0214844,-0.0214844,4,0,41.45840687647748,-91.7472725405987,11110.88167690405,26.25767106367749,-0.0840716804132917,-7.961532197012446,216.423,8736.853420967655,11026.390928219933,150,True,18.235386221732327,False,115.45932390416276,171.32260720206207,False,73.21307062192496,False,False
11,1970-07-23 11:25:41.052604084,2025-09-16,2025-09-26 14:48:25.260,HA,C,3109135682,JASSM,3,114,76,2,2,1,225,9,2,0,1,26,0,0,0,0,-170969.60681326812,-4771519.508760299,4219356.300261021,-2.51439,-0.703043,0.60784,54.375,-45.875,-49.375,0.0,0.0,0.0,0.0,0.0,0.0,2,0,41.658376376942485,-92.05210266407909,10000.000787665724,139.8464995563482,-0.0048412997840864,-0.000655619623509,,8736.853420967655,11026.390928219933,150,11,2025-09-16,2025-09-26 14:48:25.683,HA,C,2460030314,HAWK11,1,1,73,2,1,1,225,2,1,0,0,12,1,225,2,1,-145995.12927420562,-4787289.110322799,4203022.714323521,-2.79884,0.91339,-0.724902,59.875,83.0,95.5,0.0,-5.14062,5.26562,0.0761719,-0.0175781,-0.0195312,4,0,41.45923700680449,-91.74677417289332,11111.002725547336,26.052791787536968,-0.877240911000764,-6.447007319600813,217.816,8736.853420967655,11026.390928219933,150,True,18.168614195978787,False,115.75509473665193,171.1336219509391,False,73.10071955841609,False,False
11,1970-07-23 11:25:41.065770490,2025-09-16,2025-09-26 14:48:26.577,HA,C,3110507730,JASSM,3,114,76,2,2,1,225,9,2,0,1,26,0,0,0,0,-170907.10437186187,-4771572.493135299,4219299.300261021,-2.51439,-0.703043,0.60784,54.375,-45.875,-49.375,0.0,0.0,0.0,0.0,0.0,0.0,2,0,41.65768978457088,-92.05133034584162,10000.006717960185,139.8470129035086,-0.0039444405711237,-0.0006573296688629,,8736.853420967655,11026.390928219933,150,11,2025-09-16,2025-09-26 14:48:26.630,HA,C,2462098178,HAWK11,1,1,73,2,1,1,225,2,1,0,0,12,1,225,2,1,-145890.67810233062,-4787141.842744674,4203186.397917271,-2.71965,0.930647,-0.717136,59.875,86.0,94.5,-0.015625,-6.25,6.125,0.0683594,-0.0078125,0.00390625,4,0,41.461236927441824,-91.74557889383028,11096.817471898776,25.577870477904405,-1.5984952406619235,-1.2465638388739766,218.599,8736.853420967655,11026.390928219933,150,True,18.077499142808986,False,115.99384473971864,170.70990179258368,False,73.27464406223952,False,False
11,1970-07-23 11:25:41.079272428,2025-09-16,2025-09-26 14:48:27.927,HA,C,3111878408,JASSM,3,114,76,2,2,1,225,9,2,0,1,26,0,0,0,0,-170844.66394217435,-4771625.422822799,4219242.354948521,-2.51429,-0.703043,0.60784,54.375,-45.875,-49.375,0.0,0.0,0.0,0.0,0.0,0.0,2,0,41.65700386826597,-92.0505588111502,10000.008502707957,139.847525722928,-0.0030484716054996,0.0048324336076849,,8736.853420967655,11026.390928219933,150,11,2025-09-16,2025-09-26 14:48:27.832,HA,C,2463291178,HAWK11,1,1,73,2,1,1,225,2,1,0,0,12,1,225,2,1,-145830.76794608062,-4787055.331025924,4203280.411589146,-2.78111,0.941097,-0.718095,60.0,86.875,94.625,-0.078125,-6.78125,6.67188,-0.15625,-0.0078125,0.00195312,4,0,41.46239706217904,-91.7448940269606,11083.954951527214,25.14664268954577,-1.7397294736197988,-4.361332336607421,219.808,8736.853420967655,11026.390928219933,150,True,18.002627348992522,False,116.06675650764711,170.4510049298208,False,73.45836366319634,False,False
11,1970-07-23 11:25:41.087234054,2025-09-16,2025-09-26 14:48:28.723,HA,C,3113132984,JASSM,3,114,76,2,2,1,225,9,2,0,1,26,0,0,0,0,-170787.51257498687,-4771673.864229049,4219190.229948521,-2.51429,-0.703043,0.60784,54.375,-45.875,-49.375,0.0,0.0,0.0,0.0,0.0,0.0,2,0,41.65637605521814,-92.04985264629754,9999.995623689658,139.8479950866117,-0.0022284024707303,0.0048308727265491,,8736.853420967655,11026.390928219933,150,11,2025-09-16,2025-09-26 14:48:28.723,HA,C,2464683010,HAWK11,1,1,73,2,1,1,225,2,1,0,0,12,1,225,2,1,-145761.58044608062,-4786953.469697799,4203390.425261021,-2.91015,0.946562,-0.722888,59.0,87.75,95.375,0.125,-6.92188,6.79688,-0.0898438,0.0,-0.0234375,4,0,41.46375819821762,-91.74410378519732,11067.445913800508,24.817941503542183,-1.5882295324785107,-11.538960788675782,220.981,8736.853420967655,11026.390928219933,150,False,17.928439557140365,False,116.62642208398171,170.1534077303446,False,73.19630384336133,False,False
11,1970-07-23 11:25:41.096430406,2025-09-16,2025-09-26 14:48:29.643,HA,C,3114443458,JASSM,3,114,76,2,2,1,225,9,2,0,1,26,0,0,0,0,-170727.81482108062,-4771724.469697799,4219135.784636021,-2.51429,-0.703043,0.60784,54.375,-45.875,-49.375,0.0,0.0,0.0,0.0,0.0,0.0,2,0,41.6557202450836,-92.04911503035451,10000.005462477426,139.84848534856516,-0.0013717784088815,0.0048292307296253,,8736.853420967655,11026.390928219933,150,11,2025-09-16,2025-09-26 14:48:29.630,HA,C,2465677174,HAWK11,1,1,73,2,1,1,225,2,1,0,0,12,1,225,2,1,-145713.27771170562,-4786880.032197799,4203469.688932896,-3.06681,0.977242,-0.73516,57.125,88.75,96.125,0.09375,-7.65625,7.04688,-0.166016,0.0136719,-0.00585938,4,0,41.46473888254256,-91.74355290938604,11055.558940999445,23.33379144765752,-1.4831444047858449,-19.303950615323927,221.421,8736.853420967655,11026.390928219933,150,False,17.858987309683,False,117.51607561241478,169.9301212548101,False,72.52927391833478,False,False
11,1970-07-23 11:25:41.106477372,2025-09-16,2025-09-26 14:48:30.647,HA,C,3115636504,JASSM,3,114,76,2,2,1,225,9,2,0,1,26,0,0,0,0,-170673.46692069,-4771770.536104049,4219086.218229771,-2.51429,-0.703043,0.60784,54.375,-45.875,-49.375,0.0,0.0,0.0,0.0,0.0,0.0,2,0,41.65512322399969,-92.0484435310881,10000.00810087953,139.84893166006822,-0.0005919391243432,0.0048277492996287,,8736.853420967655,11026.390928219933,150,11,2025-09-16,2025-09-26 14:48:30.520,HA,C,2466591808,HAWK11,1,1,73,2,1,1,225,2,1,0,0,12,1,225,2,1,-145670.50622733062,-4786812.500947799,4203542.790495396,-3.11341,0.991719,-0.741488,54.875,89.625,97.0,-0.1875,-7.4375,6.75,0.0292969,0.0136719,-0.0273438,4,0,41.46564182932493,-91.74306601213291,11045.219587073849,22.627047559250705,-1.3918572984687108,-21.397603334685652,222.375,8736.853420967655,11026.390928219933,150,False,17.7951059980033,False,118.54050584114063,169.72516015676632,False,71.71001288615179,False,False
11,1970-07-23 11:25:41.116486802,2025-09-16,2025-09-26 14:48:31.648,HA,C,3116831510,JASSM,3,114,76,2,2,1,225,9,2,0,1,26,0,0,0,0,-170619.0284441275,-4771816.676729049,4219036.565886021,-2.51429,-0.703043,0.60784,54.375,-45.875,-49.375,0.0,0.0,0.0,0.0,0.0,0.0,2,0,41.6545251968096,-92.04777092623036,10000.00110698899,139.84937870114064,0.0001892048325911,0.0048262601631241,,8736.853420967655,11026.390928219933,150,11,2025-09-16,2025-09-26 14:48:31.723,HA,C,2468262006,HAWK11,1,1,73,2,1,1,225,2,1,0,0,12,1,225,2,1,-145596.66638358062,-4786685.575166549,4203679.741667271,-3.13776,1.06084,-0.762772,50.25,91.0,98.625,0.03125,-7.98438,7.26562,0.0664062,0.0136719,-0.0136719,4,0,41.46733474371912,-91.74222917102004,11025.327745233444,19.48914090606516,-1.3225479968226994,-20.01191064915255,222.705,8736.853420967655,11026.390928219933,150,False,17.71339504801708,False,120.57485857920041,169.36858206404588,False,70.03366932053773,False,False
11,1970-07-23 11:25:41.126828888,2025-09-16,2025-09-26 14:48:32.682,HA,C,3118083184,JASSM,3,114,76,2,2,1,225,9,2,0,1,26,0,0,0,0,-170562.0089128775,-4771865.004854049,4218984.558073521,-2.51429,-0.702947,0.607936,54.375,-45.875,-49.375,0.0,0.0,0.0,0.0,0.0,0.0,2,0,41.653898803294325,-92.04706644501228,9999.994709459634,139.84942230879727,-0.0060871792717471,0.0016883422643559,,8736.853420967655,11026.390928219933,150,11,2025-09-16,2025-09-26 14:48:32.682,HA,C,2468977804,HAWK11,1,1,73,2,1,1,225,2,1,0,0,12,1,225,2,1,-145567.29333670562,-4786631.565400924,4203738.458464146,-3.05301,1.08165,-0.776098,48.5,90.875,99.5,-0.453125,-8.04688,7.3125,0.146484,0.00976562,-0.03125,4,0,41.468057718654414,-91.74189754806974,11017.980730505846,18.42487191127588,-0.8935549084286211,-14.306018436496846,223.206,8736.853420967655,11026.390928219933,150,False,17.649314088720057,False,121.30760395357792,169.19980437581847,False,69.47357207187906,False,False
11,1970-07-23 11:25:41.136834016,2025-09-16,2025-09-26 14:48:33.683,HA,C,3119276732,JASSM,3,114,76,2,2,1,225,9,2,0,1,26,0,0,0,0,-170507.63757498687,-4771911.090791549,4218934.968229771,-2.51429,-0.702947,0.607936,54.375,-45.875,-49.375,0.0,0.0,0.0,0.0,0.0,0.0,2,0,41.65330150071934,-92.04639469416018,10000.003862237249,139.84986877168288,-0.0053069944468578,0.001686846612092,,8736.853420967655,11026.390928219933,150,11,2025-09-16,2025-09-26 14:48:33.631,HA,C,2470449170,HAWK11,1,1,73,2,1,1,225,2,1,0,0,12,1,225,2,1,-145509.26794608062,-4786518.586885299,4203861.929167271,-2.95847,1.10312,-0.786453,46.125,91.25,100.625,-0.3125,-7.90625,7.125,0.0605469,0.0136719,0.00976562,4,0,41.4695737845771,-91.74124470125513,11004.282848924106,17.406308730039623,-0.6144394441048845,-8.0098267732481,223.242,8736.853420967655,11026.390928219933,150,True,17.56891700590339,False,122.34499644196907,168.88150514043093,False,68.75741882340951,False,False
11,1970-07-23 11:25:41.147447150,2025-09-16,2025-09-26 14:48:34.744,HA,C,3120528152,JASSM,3,114,76,2,2,1,225,9,2,0,1,26,0,0,0,0,-170450.62951834625,-4771959.407197799,4218882.972136021,-2.51429,-0.702947,0.607936,54.375,-45.875,-49.375,0.0,0.0,0.0,0.0,0.0,0.0,2,0,41.65267524503073,-92.04569038222556,10000.0036465114,139.85033686985926,-0.0044889887729045,0.0016852883697274,,8736.853420967655,11026.390928219933,150,11,2025-09-16,2025-09-26 14:48:34.832,HA,C,2471801236,HAWK11,1,1,73,2,1,1,225,2,1,0,0,12,1,225,2,1,-145458.51989920562,-4786416.110322799,4203975.288542271,-2.96327,1.113,-0.795944,44.625,91.0,101.5,-0.15625,-7.45312,6.70312,-0.0644531,0.00390625,-0.0136719,4,0,41.47095779176305,-91.74067503950356,10994.9806417891,16.8582934969581,-0.2215471583800867,-7.878099842053836,223.438,8736.853420967655,11026.390928219933,150,True,17.488872190577748,False,122.97000471215955,168.5865813765689,False,68.43116295919532,False,False
11,1970-07-23 11:25:41.157486999,2025-09-16,2025-09-26 14:48:35.748,HA,C,3121780680,JASSM,3,114,76,2,2,1,225,9,2,0,1,26,0,0,0,0,-170393.57116873687,-4772007.766572799,4218830.925261021,-2.51429,-0.702947,0.607936,54.375,-45.875,-49.375,0.0,0.0,0.0,0.0,0.0,0.0,2,0,41.652048397395646,-92.044985462456,9999.997836521943,139.85080536623303,-0.0036702344818255,0.001683706199578,,8736.853420967655,11026.390928219933,150,11,2025-09-16,2025-09-26 14:48:35.722,HA,C,2473034000,HAWK11,1,1,73,2,1,1,225,2,1,0,0,12,1,225,2,1,-145413.71325858062,-4786321.213838424,4204080.454557896,-3.11341,1.12326,-0.801793,42.375,91.25,102.0,0.109375,-7.51562,6.75,-0.0605469,0.0078125,-0.00976562,4,0,41.47224032049859,-91.74017365632211,10986.95825732154,16.365553266961292,-0.0272255033959581,-16.058136411508887,223.866,8736.853420967655,11026.390928219933,150,False,17.410622657569714,False,123.8911533937081,168.31082692444403,False,67.78681922246034,False,False
11,1970-07-23 11:25:41.167348441,2025-09-16,2025-09-26 14:48:36.734,HA,C,3122975162,JASSM,3,114,76,2,2,1,225,9,2,0,1,26,0,0,0,0,-170339.15710623687,-4772053.883760299,4218781.292448521,-2.51429,-0.702947,0.607936,54.375,-45.875,-49.375,0.0,0.0,0.0,0.0,0.0,0.0,2,0,41.65145061586484,-92.0443132243571,9999.998138373743,139.85125213666842,-0.0028894394794012,0.0016822098693127,,8736.853420967655,11026.390928219933,150,11,2025-09-16,2025-09-26 14:48:36.722,HA,C,2474227000,HAWK11,1,1,73,2,1,1,225,2,1,0,0,12,1,225,2,1,-145372.09021170562,-4786230.008760299,4204182.341276646,3.05387,1.16966,-0.807257,39.75,91.875,102.625,0.078125,-7.32812,6.67188,-0.0957031,0.0136719,-0.0332031,4,0,41.47347817001815,-91.7397089876414,10981.129590409388,14.51012053231826,-0.256318574700155,-20.779006640883715,223.633,8736.853420967655,11026.390928219933,150,False,17.335359516401113,False,124.99787247942245,168.04444240731112,False,66.94671633015449,False,False
11,1970-07-23 11:25:41.178387905,2025-09-16,2025-09-26 14:48:37.838,HA,C,3124228218,JASSM,3,114,76,2,2,1,225,9,2,0,1,26,0,0,0,0,-170282.07458670562,-4772102.258760299,4218729.226042271,-2.51429,-0.702947,0.607936,54.375,-45.875,-49.375,0.0,0.0,0.0,0.0,0.0,0.0,2,0,41.65082354007891,-92.04360803477898,9999.994255268755,139.85172080105087,-0.0020703743258512,0.0016806554291238,,8736.853420967655,11026.390928219933,150,11,2025-09-16,2025-09-26 14:48:37.628,HA,C,2475221164,HAWK11,1,1,73,2,1,1,225,2,1,0,0,12,1,225,2,1,-145339.99646170562,-4786153.360322799,4204267.735807896,3.00622,1.19698,-0.812722,36.75,92.625,103.0,-0.09375,-7.67188,6.89062,0.0625,0.0117188,-0.00976562,4,0,41.47451637565456,-91.73935298611184,10975.953351629543,13.38658412654788,-0.2358063468617075,-22.37035972624952,223.633,8736.853420967655,11026.390928219933,150,False,17.261722971513233,False,126.23865502211802,167.81536564292537,False,65.93413612899154,False,False
11,1970-07-23 11:25:41.188425784,2025-09-16,2025-09-26 14:48:38.842,HA,C,3125479136,JASSM,3,114,76,2,2,1,225,9,2,0,1,26,0,0,0,0,-170225.08947928375,-4772150.555635299,4218677.245573521,-2.51429,-0.702947,0.607936,54.375,-45.875,-49.375,0.0,0.0,0.0,0.0,0.0,0.0,2,0,41.65019748396051,-92.0429040603654,9999.999135698645,139.8521886520693,-0.0012526707071267,0.0016790749988026,,8736.853420967655,11026.390928219933,150,11,2025-09-16,2025-09-26 14:48:38.832,HA,C,2476414164,HAWK11,1,1,73,2,1,1,225,2,1,0,0,12,1,225,2,1,-145304.74646170562,-4786060.610322799,4204370.976042271,3.02837,1.24003,-0.816653,33.375,93.25,103.625,0.09375,-7.84375,6.96875,0.0566406,0.00195312,-0.0273438,4,0,41.475771399834734,-91.7389650700032,10969.764570306774,11.6895260437746,-0.4168764542866253,-19.29728764523433,224.0,8736.853420967655,11026.390928219933,150,False,17.181652976118954,False,127.6332879959702,167.54720088818368,False,64.80794805748485,False,False
11,1970-07-23 11:25:41.198445424,2025-09-16,2025-09-26 14:48:39.844,HA,C,3126673304,JASSM,3,114,76,2,2,1,225,9,2,0,1,26,0,0,0,0,-170170.68957694,-4772196.657197799,4218627.624479771,-2.51429,-0.702947,0.607936,54.375,-45.875,-49.375,0.0,0.0,0.0,0.0,0.0,0.0,2,0,41.64959985923904,-92.04223203722616,9999.999974481758,139.8526352633581,-0.0004720897891402,0.0016775868764844,,8736.853420967655,11026.390928219933,150,11,2025-09-16,2025-09-26 14:48:40.022,HA,C,2478124128,HAWK11,1,1,73,2,1,1,225,2,1,0,0,12,1,225,2,1,-145259.97497733062,-4785926.553682174,4204520.159636021,3.03201,1.28404,-0.826528,29.0,93.625,104.625,-0.234375,-7.625,6.875,-0.0644531,0.0078125,-0.0292969,4,0,41.47758399934249,-91.73847825125792,10961.222495496924,9.893016519320415,-0.2149939016905245,-17.2322878968185,223.829,8736.853420967655,11026.390928219933,150,False,17.08743428078583,False,129.42363236944803,167.18019482294184,False,63.38691254376926,False,False
11,1970-07-23 11:25:41.209490738,2025-09-16,2025-09-26 14:48:40.949,HA,C,3127926400,JASSM,3,114,76,2,2,1,225,9,2,0,1,26,0,0,0,0,-170113.60510428375,-4772245.032197799,4218575.554167271,-2.51429,-0.702947,0.607936,54.375,-45.875,-49.375,0.0,0.0,0.0,0.0,0.0,0.0,2,0,41.64897274463198,-92.04152686459511,10000.000021827043,139.85310389939158,0.0003470066721932,0.0016760290704618,,8736.853420967655,11026.390928219933,150,11,2025-09-16,2025-09-26 14:48:40.926,HA,C,2479237594,HAWK11,1,1,73,2,1,1,225,2,1,0,0,12,1,225,2,1,-145234.38318045562,-4785839.247041549,4204617.296354771,2.93604,1.31635,-0.830267,26.125,93.75,105.0,0.09375,-7.5,6.67188,-0.0742188,0.0,-0.015625,4,0,41.47876369416948,-91.73820384482968,10955.889976286331,8.623564912608781,-0.2261238773246348,-21.361964509338677,223.963,8736.853420967655,11026.390928219933,150,False,17.00683286805005,False,130.57844258566084,166.92869520579748,False,62.484639451572434,False,False
11,1970-07-23 11:25:41.219346298,2025-09-16,2025-09-26 14:48:41.934,HA,C,3129177580,JASSM,3,114,76,2,2,1,225,9,2,0,1,26,0,0,0,0,-170056.60778983062,-4772293.332979049,4218523.561979771,-2.51429,-0.702947,0.608032,54.375,-45.875,-49.375,0.0,0.0,0.0,0.0,0.0,0.0,2,0,41.64834657601643,-92.04082278244108,10000.000453569017,139.856794963892,-0.003281209076029,0.0016744094118834,,8736.853420967655,11026.390928219933,150,11,2025-09-16,2025-09-26 14:48:41.833,HA,C,2480271526,HAWK11,1,1,73,2,1,1,225,2,1,0,0,12,1,225,2,1,-145213.60193045562,-4785757.053682174,4204708.243620396,2.82118,1.35431,-0.829788,22.5,94.875,105.0,-0.078125,-7.60938,6.8125,-0.0664062,0.0117188,-0.0273438,4,0,41.479870324847006,-91.73798511217232,10950.037451535136,7.177102387373337,-0.4761687684366109,-26.328564212751782,223.866,8736.853420967655,11026.390928219933,150,False,16.92725140164965,False,132.06420782971153,166.69179351693788,False,61.23264787455122,False,False
11,1970-07-23 11:25:41.230368450,2025-09-16,2025-09-26 14:48:43.036,HA,C,3130430280,JASSM,3,114,76,2,2,1,225,9,2,0,1,26,0,0,0,0,-169999.54138358062,-4772341.692354049,4218471.503386021,-2.51429,-0.702851,0.608032,54.375,-45.875,-49.5,0.0,0.0,0.0,0.0,0.0,0.0,2,0,41.64771962097185,-92.0401178604444,9999.997890732986,139.85361200864452,-0.0051095791291866,-0.0014658508032505,,8736.853420967655,11026.390928219933,150,11,2025-09-16,2025-09-26 14:48:43.020,HA,C,2481663358,HAWK11,1,1,73,2,1,1,225,2,1,0,0,12,1,225,2,1,-145190.58239920562,-4785646.504854049,4204829.919401646,2.75906,1.42353,-0.829212,17.125,95.875,105.25,-0.109375,-8.17188,7.32812,0.0566406,0.0117188,-0.0371094,4,0,41.48135347361685,-91.7377498890853,10941.140125572532,4.520224934006851,-0.81025331887302,-26.93244857291129,224.525,8736.853420967655,11026.390928219933,150,False,16.83509506979425,False,134.28096313807367,166.34791112479644,False,59.3547724864093,False,False
11,1970-07-23 11:25:41.239428183,2025-09-16,2025-09-26 14:48:43.942,HA,C,3131504022,JASSM,3,114,76,2,2,1,225,9,2,0,1,26,0,0,0,0,-169950.62732108062,-4772383.141572799,4218426.882292271,-2.51419,-0.702851,0.608032,54.375,-45.875,-49.5,0.0,0.0,0.0,0.0,0.0,0.0,2,0,41.647182241196525,-92.0395136531838,9999.996210105124,139.85401353184727,-0.0044077096070781,0.0040379332628524,,8736.853420967655,11026.390928219933,150,11,2025-09-16,2025-09-26 14:48:43.333,HA,C,2482100790,HAWK11,1,1,73,2,1,1,225,2,1,0,0,12,1,225,2,1,-145184.61755545562,-4785611.459932174,4204868.386198521,2.76634,1.44712,-0.832952,15.375,95.75,105.5,-0.15625,-8.29688,7.5,0.0585938,0.0234375,-0.0351562,4,0,41.48182269262628,-91.73769125830567,10938.192686668666,3.595281635624143,-0.667839539816457,-25.504863772500723,224.55,8736.853420967655,11026.390928219933,150,False,16.779713293337764,False,134.97937545670584,166.2313768109949,False,58.77463713440577,False,False
11,1970-07-23 11:25:41.248467201,2025-09-16,2025-09-26 14:48:44.846,HA,C,3132639070,JASSM,3,114,76,2,2,1,225,9,2,0,1,26,0,0,0,0,-169898.92028983062,-4772426.957979049,4218379.714323521,-2.51419,-0.702851,0.608032,54.375,-45.875,-49.5,0.0,0.0,0.0,0.0,0.0,0.0,2,0,41.6466141775645,-92.03887495671032,10000.001077197669,139.8544379700782,-0.0036657663991037,0.0040365103868278,,8736.853420967655,11026.390928219933,150,11,2025-09-16,2025-09-26 14:48:44.833,HA,C,2483611922,HAWK11,1,1,73,2,1,1,225,2,1,0,0,12,1,225,2,1,-145169.15661795562,-4785489.526338424,4205003.294401646,2.73921,1.51135,-0.845511,9.125,95.375,106.625,-0.109375,-8.78125,7.92188,0.015625,0.015625,-0.0273438,4,0,41.48346151911336,-91.73755056655132,10930.66551675897,1.106519336425648,-0.060254328356598,-24.30446551025303,224.489,8736.853420967655,11026.390928219933,150,False,16.683771544203065,False,137.48209415350917,165.91064954560147,False,56.598808737257166,False,False
11,1970-07-23 11:25:41.258345979,2025-09-16,2025-09-26 14:48:45.834,HA,C,3133772198,JASSM,3,114,76,2,2,1,225,9,2,0,1,26,0,0,0,0,-169847.300905065,-4772470.700166549,4218332.624479771,-2.51419,-0.702851,0.608032,54.375,-45.875,-49.5,0.0,0.0,0.0,0.0,0.0,0.0,2,0,41.64604706063406,-92.03823735403518,10000.005579904127,139.85486167670058,-0.0029250711101602,0.0040350817883905,,8736.853420967655,11026.390928219933,150,11,2025-09-16,2025-09-26 14:48:45.727,HA,C,2484486788,HAWK11,1,1,73,2,1,1,225,2,1,0,0,12,1,225,2,1,-145163.64880545562,-4785420.788057174,4205080.552214146,2.71917,1.55507,-0.850496,5.875,94.75,107.0,-0.265625,-8.57812,7.64062,0.0332031,0.0117188,-0.0371094,4,0,41.48439292953744,-91.73750962527065,10929.28823929949,-0.5518429078784048,0.217269476344023,-23.57613455567484,223.963,8736.853420967655,11026.390928219933,150,False,16.60954802163858,False,138.77080350441267,165.7138564225836,False,55.51022823050703,False,False
11,1970-07-23 11:25:41.267410952,2025-09-16,2025-09-26 14:48:46.741,HA,C,3134905588,JASSM,3,114,76,2,2,1,225,9,2,0,1,26,0,0,0,0,-169795.66931326812,-4772514.450166549,4218285.522917271,-2.51419,-0.702851,0.608032,54.375,-45.875,-49.5,0.0,0.0,0.0,0.0,0.0,0.0,2,0,41.64547981720815,-92.03759961284554,10000.006107418329,139.85528547063376,-0.0021842096777125,0.004033659442375,,8736.853420967655,11026.390928219933,150,11,2025-09-16,2025-09-26 14:48:45.727,HA,C,2484486788,HAWK11,1,1,73,2,1,1,225,2,1,0,0,12,1,225,2,1,-145163.64880545562,-4785420.788057174,4205080.552214146,2.71917,1.55507,-0.850496,5.875,94.75,107.0,-0.265625,-8.57812,7.64062,0.0332031,0.0117188,-0.0371094,4,0,41.48439292953744,-91.73750962527065,10929.28823929949,-0.5518429078784048,0.217269476344023,-23.57613455567484,223.963,8736.853420967655,11026.390928219933,150,False,16.566561197977226,False,138.77080350441267,165.67576871433556,False,55.54830849796577,False,False
11,1970-07-23 11:25:41.276450596,2025-09-16,2025-09-26 14:48:47.645,HA,C,3135982300,JASSM,3,114,76,2,2,1,225,9,2,0,1,26,0,0,0,0,-169746.61987479156,-4772556.008760299,4218240.772917271,-2.51419,-0.702851,0.608032,54.375,-45.875,-49.5,0.0,0.0,0.0,0.0,0.0,0.0,2,0,41.6449409322052,-92.03699377762248,9999.992662951545,139.85568805791914,-0.0014803950454145,0.0040323030430377,,8736.853420967655,11026.390928219933,150,11,2025-09-16,2025-09-26 14:48:48.128,HA,C,2487747652,HAWK11,1,1,73,2,1,1,225,2,1,0,0,12,1,225,2,1,-145164.37536795562,-4785162.305635299,4205373.501432896,2.5397,1.6939,-0.848963,-6.25,93.875,106.875,0.15625,-8.03125,7.14062,-0.0898438,0.015625,-0.03125,4,0,41.48790789784344,-91.73761211522566,10931.037705977986,-5.795958759747168,0.4630323198874849,-27.91208489553619,224.098,8736.853420967655,11026.390928219933,150,False,16.39993145418795,False,143.63109925832492,165.05190479465418,False,51.31504199656351,False,False
11,1970-07-23 11:25:41.286555884,2025-09-16,2025-09-26 14:48:48.655,HA,C,3137113328,JASSM,3,114,76,2,2,1,225,9,2,0,1,26,0,0,0,0,-169695.09582694,-4772599.668916549,4218193.769011021,-2.51419,-0.702851,0.608032,54.375,-45.875,-49.5,0.0,0.0,0.0,0.0,0.0,0.0,2,0,41.64437485259478,-92.03635738600032,10000.002151741675,139.85611094582143,-0.000741068166388,0.0040308770265017,,8736.853420967655,11026.390928219933,150,11,2025-09-16,2025-09-26 14:48:48.722,HA,C,2488383918,HAWK11,1,1,73,2,1,1,225,2,1,0,0,12,1,225,2,1,-145169.22302420562,-4785111.762666549,4205430.231901646,2.47604,1.72132,-0.843306,-9.25,94.125,106.375,-0.109375,-8.07812,7.25,-0.0292969,0.00976562,-0.0371094,4,0,41.48859063301754,-91.73768844888411,10930.539811190998,-6.869700416699322,0.2719421150014691,-30.390131597650257,223.927,8736.853420967655,11026.390928219933,150,False,16.33088081205562,False,144.8475530086355,164.90126081356468,False,50.24809708703189,False,False
11,1970-07-23 11:25:41.295365947,2025-09-16,2025-09-26 14:48:49.536,HA,C,3138245734,JASSM,3,114,76,2,2,1,225,9,2,0,1,26,0,0,0,0,-169643.50915701812,-4772643.377900924,4218146.706511021,-2.51419,-0.702851,0.608032,54.375,-45.875,-49.5,0.0,0.0,0.0,0.0,0.0,0.0,2,0,41.643808096850464,-92.03572023387746,10000.00156747424,139.85653433435772,-8.55329821685031e-07,0.0040294581928482,,8736.853420967655,11026.390928219933,150,11,2025-09-16,2025-09-26 14:48:49.332,HA,C,2489219016,HAWK11,1,1,73,2,1,1,225,2,1,0,0,12,1,225,2,1,-145177.33630545562,-4785046.655244674,4205503.479948521,2.44306,1.76849,-0.837937,-13.25,94.125,105.625,-0.28125,-8.15625,7.32812,0.0449219,0.0214844,-0.03125,4,0,41.48947091393693,-91.73780913659746,10930.41190866417,-8.698170443128253,0.2429527128095959,-30.274236665769767,223.902,8736.853420967655,11026.390928219933,150,False,16.25350344329805,False,146.4771030036552,164.71906988308365,False,48.799467254607855,False,False
11,1970-07-23 11:25:41.304462640,2025-09-16,2025-09-26 14:48:50.446,HA,C,3139319758,JASSM,3,114,76,2,2,1,225,9,2,0,1,26,0,0,0,0,-169594.5820329947,-4772684.832979049,4218102.069792271,-2.51419,-0.702851,0.608128,54.375,-45.875,-49.5,0.0,0.0,0.0,0.0,0.0,0.0,2,0,41.64327055627337,-92.03511594060036,10000.001893149933,139.86016129186572,-0.0037474583155895,0.0040280262656936,,8736.853420967655,11026.390928219933,150,11,2025-09-16,2025-09-26 14:48:50.520,HA,C,2490451782,HAWK11,1,1,73,2,1,1,225,2,1,0,0,12,1,225,2,1,-145194.16052420562,-4784949.758760299,4205612.181120396,2.42187,1.83129,-0.829308,-18.625,93.375,105.125,0.0,-8.42188,7.54688,-0.0253906,0.0175781,-0.0332031,4,0,41.49077804361474,-91.73804557678558,10929.90959954859,-11.1666105210145,0.2238915974039585,-28.834037078302188,223.438,8736.853420967655,11026.390928219933,150,False,16.15970590635034,False,148.66864718627787,164.47320795307067,False,46.85533679494323,False,False
11,1970-07-23 11:25:41.314469215,2025-09-16,2025-09-26 14:48:51.446,HA,C,3140512516,JASSM,3,114,76,2,2,1,225,9,2,0,1,26,0,0,0,0,-169540.24585135406,-4772730.870088424,4218052.495573521,-2.51419,-0.702851,0.608128,54.375,-45.875,-49.5,0.0,0.0,0.0,0.0,0.0,0.0,2,0,41.64267357220911,-92.03444485285868,9999.997548093044,139.86060722094925,-0.002967782788016,0.0040265666436128,,8736.853420967655,11026.390928219933,150,11,2025-09-16,2025-09-26 14:48:51.722,HA,C,2491644780,HAWK11,1,1,73,2,1,1,225,2,1,0,0,12,1,225,2,1,-145215.63122733062,-4784856.821260299,4205716.747526646,2.42091,1.88143,-0.822022,-23.75,92.625,104.5,-0.140625,-8.1875,7.28125,-0.00390625,0.00390625,-0.0390625,4,0,41.492032867683314,-91.73833617677546,10930.50212574125,-13.15840663425882,0.2724927163533115,-26.785828603934345,223.071,8736.853420967655,11026.390928219933,150,False,16.061496399943838,False,150.77233951263446,164.23403550482806,False,44.99188765578317,False,False
11,1970-07-23 11:25:41.326029605,2025-09-16,2025-09-26 14:48:52.602,HA,C,3141705450,JASSM,3,114,76,2,2,1,225,9,2,0,1,26,0,0,0,0,-169485.9016130728,-4772776.915010299,4218002.913542271,-2.51419,-0.702755,0.608128,54.375,-45.875,-49.5,0.0,0.0,0.0,0.0,0.0,0.0,2,0,41.64207648664528,-92.0337736775828,9999.998487130835,139.85740444818583,-0.0048335938830582,0.000887872741381,,8736.853420967655,11026.390928219933,150,11,2025-09-16,2025-09-26 14:48:52.628,HA,C,2493155912,HAWK11,1,1,73,2,1,1,225,2,1,0,0,12,1,225,2,1,-145250.16247733062,-4784739.500947799,4205848.220182896,2.28285,1.94298,-0.809367,-30.25,92.0,102.875,-0.03125,-8.07812,7.25,-0.0820312,0.00976562,-0.0195312,4,0,41.49361200289452,-91.73879189452866,10930.672085602186,-15.681583538387503,0.234068421742643,-32.13869444367069,222.741,8736.853420967655,11026.390928219933,150,False,15.946549429473514,False,153.4894890834513,163.94904161515575,False,42.55854467486953,False,False
