Subject_cm,Timestamp,SampleDate_cm,SampleTime_cm,Configuration_cm,Scenario_cm,DisTime_cm,MarkingTxt_cm,Application_cm,EntId_cm,Site_cm,ExerciseId_cm,ForceId_cm,Category_cm,Country_cm,Domain_cm,Kind_cm,Extra_cm,Specific_cm,Subcategory_cm,AltCategory_cm,AltCountry_cm,AltDomain_cm,AltKind_cm,ECEF_X_cm,ECEF_Y_cm,ECEF_Z_cm,OriPhi_cm,OriPsi_cm,OriTheta_cm,LinVelX_cm,LinVelY_cm,LinVelZ_cm,LinAccX_cm,LinAccY_cm,LinAccZ_cm,AngVelX_cm,AngVelY_cm,AngVelZ_cm,DrAlg_cm,Appearance_cm,Latitude_cm,Longitude_cm,Altitude_cm,Heading_cm,Pitch_cm,Roll_cm,CalibratedAirspeed_cm,CM_Altitude_Lead_cm,CM_Altitude_Wing_cm,CM_Airspeed_cm,Subject_ac,SampleDate_ac,SampleTime_ac,Configuration_ac,Scenario_ac,DisTime_ac,MarkingTxt_ac,Application_ac,EntId_ac,Site_ac,ExerciseId_ac,ForceId_ac,Category_ac,Country_ac,Domain_ac,Kind_ac,Extra_ac,Specific_ac,Subcategory_ac,AltCategory_ac,AltCountry_ac,AltDomain_ac,AltKind_ac,ECEF_X_ac,ECEF_Y_ac,ECEF_Z_ac,OriPhi_ac,OriPsi_ac,OriTheta_ac,LinVelX_ac,LinVelY_ac,LinVelZ_ac,LinAccX_ac,LinAccY_ac,LinAccZ_ac,AngVelX_ac,AngVelY_ac,AngVelZ_ac,DrAlg_ac,Appearance_ac,Latitude_ac,Longitude_ac,Altitude_ac,Heading_ac,Pitch_ac,Roll_ac,CalibratedAirspeed_ac,CM_Altitude_Lead_ac,CM_Altitude_Wing_ac,CM_Airspeed_ac,Bank_Angle_Condition,distance_nm,Distance_Condition,angle_between_vel,angle_between_pos,Cone_Condition,angle_between_pos_nose,Nose_Cone_Condition,Intercept_Criteria
11,1970-07-23 11:25:48.323235987,2025-09-16,2025-09-26 15:00:32.323,AH,C,3976659848,JASSM,3,126,76,2,2,1,225,9,2,0,1,26,0,0,0,0,-180555.10095389312,-4777991.319307174,4211677.991667271,-2.36693,-0.400848,0.381002,74.5,-31.5,-32.25,0.0,0.0,0.0,0.0,0.0,0.0,2,0,41.56595445517626,-92.16411553090111,10000.00097520134,119.79885651929348,-0.0027668148023581,0.0045527749152734,,8582.48906893005,10960.61793957396,150,11,2025-09-16,2025-09-26 15:00:32.335,AH,C,3327936904,HAWK11,1,1,73,2,1,1,225,2,1,0,0,12,1,225,2,1,-145791.52380545562,-4790647.928682174,4199157.362761021,2.30739,2.78149,-0.410915,-100.75,30.25,31.375,-0.1875,-7.1875,7.03125,0.015625,0.00976562,-0.00390625,4,0,41.41320152342609,-91.74311738338676,10960.842957177016,-60.24302072672896,2.3870059891648427,-2.5458926834033875,178.051,8582.48906893005,10960.61793957396,150,True,21.004342985117948,False,172.2118251510139,175.91121231800122,False,3.769967062845248,True,False
11,1970-07-23 11:25:48.333275045,2025-09-16,2025-09-26 15:00:33.327,AH,C,3977910842,JASSM,3,126,76,2,2,1,225,9,2,0,1,26,0,0,0,0,-180476.95153983065,-4778024.450166549,4211643.985807896,-2.36693,-0.400848,0.381098,74.5,-31.5,-32.25,0.0,0.0,0.0,0.0,0.0,0.0,2,0,41.56554541794219,-92.16316474457132,10000.004239972895,119.80332936694136,-0.0058722825816328,0.0045510866036566,,8582.48906893005,10960.61793957396,150,11,2025-09-16,2025-09-26 15:00:33.430,AH,C,3329090136,HAWK11,1,1,73,2,1,1,225,2,1,0,0,12,1,225,2,1,-145889.16052420562,-4790618.878877486,4199187.727995396,2.30203,2.78667,-0.414654,-101.0,28.375,32.875,-0.15625,-7.23438,7.10938,0.00390625,0.0136719,0.00195312,4,0,41.41356162465198,-91.74429460042698,10962.609018077956,-60.282620170943,2.7317774577091702,-2.736125593408388,178.186,8582.48906893005,10960.61793957396,150,True,20.89835815425455,False,171.92776245944899,175.91155174575104,False,4.303294948068946,True,False
11,1970-07-23 11:25:48.343319490,2025-09-16,2025-09-26 15:00:34.331,AH,C,3979103882,JASSM,3,126,76,2,2,1,225,9,2,0,1,26,0,0,0,0,-180402.4222429556,-4778056.043916549,4211611.554167271,-2.36693,-0.400848,0.381098,74.5,-31.5,-32.25,0.0,0.0,0.0,0.0,0.0,0.0,2,0,41.56515532847353,-92.16225801379214,10000.00324500686,119.80393095923624,-0.0050897126707015,0.0045497848507393,,8582.48906893005,10960.61793957396,150,11,2025-09-16,2025-09-26 15:00:34.335,AH,C,3330243368,HAWK11,1,1,73,2,1,1,225,2,1,0,0,12,1,225,2,1,-145986.25622733062,-4790589.851533736,4199217.659636021,2.30088,2.79031,-0.418681,-101.125,29.375,31.5,-0.0625,-7.32812,7.15625,0.0175781,0.00390625,-0.00585938,4,0,41.41391875187802,-91.74546535751216,10963.454565445789,-60.25305145405078,3.030622364280857,-2.715904278606095,178.43,8582.48906893005,10960.61793957396,150,True,20.794981701281678,False,171.86937805355956,175.91246391232747,False,4.1669947180655065,True,False
11,1970-07-23 11:25:48.353359495,2025-09-16,2025-09-26 15:00:35.335,AH,C,3980296932,JASSM,3,126,76,2,2,1,225,9,2,0,1,26,0,0,0,0,-180327.89196951807,-4778087.637666549,4211579.120573521,-2.36693,-0.400848,0.381098,74.5,-31.5,-32.25,0.0,0.0,0.0,0.0,0.0,0.0,2,0,41.56476521889704,-92.16135128222676,10000.001815933878,119.80453254741651,-0.0043071286871915,0.0045484761946851,,8582.48906893005,10960.61793957396,150,11,2025-09-16,2025-09-26 15:00:35.336,AH,C,3331515900,HAWK11,1,1,73,2,1,1,225,2,1,0,0,12,1,225,2,1,-146095.03552420562,-4790558.011689986,4199251.563932896,2.30174,2.79597,-0.414558,-101.25,29.0,31.5,-0.09375,-7.21875,6.96875,0.00195312,0.00585938,0.00585938,4,0,41.41431729343653,-91.74677675980158,10966.8870228347,-60.6306420662013,3.0775627290310665,-2.555248912738267,178.393,8582.48906893005,10960.61793957396,150,True,20.684838340319,False,171.70863102761547,175.91478804412628,False,4.35144804509603,True,False
11,1970-07-23 11:25:48.363234309,2025-09-16,2025-09-26 15:00:36.323,AH,C,3981491492,JASSM,3,126,76,2,2,1,225,9,2,0,1,26,0,0,0,0,-180253.26794608065,-4778119.268525924,4211546.645964146,-2.36693,-0.400848,0.381098,74.5,-31.5,-32.25,0.0,0.0,0.0,0.0,0.0,0.0,2,0,41.56437462565373,-92.1604434222208,9999.997369895096,119.80513487963546,-0.0035235681017208,0.0045471777699987,,8582.48906893005,10960.61793957396,150,11,2025-09-16,2025-09-26 15:00:36.131,AH,C,3332390766,HAWK11,1,1,73,2,1,1,225,2,1,0,0,12,1,225,2,1,-146169.41247733062,-4790536.612275924,4199274.446745396,2.31075,2.79261,-0.42079,-101.375,29.0,31.25,0.0,-7.04688,6.85938,0.0175781,0.00585938,0.00195312,4,0,41.414585560055016,-91.74767329415744,10969.50117163726,-60.25274292047544,3.2029650778925425,-2.0960407557652605,178.015,8582.48906893005,10960.61793957396,150,True,20.594804376049392,False,171.60441429059776,175.91398218761978,False,4.437308138514513,True,False
11,1970-07-23 11:25:48.373301686,2025-09-16,2025-09-26 15:00:37.330,AH,C,3982683174,JASSM,3,126,76,2,2,1,225,9,2,0,1,26,0,0,0,0,-180178.82263358065,-4778150.825166549,4211514.249479771,-2.36693,-0.400848,0.381098,74.5,-31.5,-32.25,0.0,0.0,0.0,0.0,0.0,0.0,2,0,41.563984953889545,-92.15953774657795,10000.00136566323,119.8057357579772,-0.0027418801426712,0.0045458768222556,,8582.48906893005,10960.61793957396,150,11,2025-09-16,2025-09-26 15:00:37.335,AH,C,3333901898,HAWK11,1,1,73,2,1,1,225,2,1,0,0,12,1,225,2,1,-146297.63318045562,-4790499.334932174,4199315.298307896,2.82051,2.79683,-0.432487,-100.5,29.875,32.75,-0.328125,-7.04688,6.85938,0.619141,0.03125,-0.00195312,4,0,41.41505978464156,-91.74921901488094,10976.111100311153,-59.92863727763294,3.830494506030365,27.231238422344592,178.98,8582.48906893005,10960.61793957396,150,False,20.47326659820054,False,172.56876868659737,175.91772872836322,False,3.562280437791145,True,False
11,1970-07-23 11:25:48.383315117,2025-09-16,2025-09-26 15:00:38.331,AH,C,3983816568,JASSM,3,126,76,2,2,1,225,9,2,0,1,26,0,0,0,0,-180108.02087576812,-4778180.834932174,4211483.436979771,-2.36693,-0.400848,0.381098,74.5,-31.5,-32.25,0.0,0.0,0.0,0.0,0.0,0.0,2,0,41.56361435075068,-92.1586764083314,9999.99942229423,119.80630721599732,-0.001998452589303,0.0045446423059173,,8582.48906893005,10960.61793957396,150,11,2025-09-16,2025-09-26 15:00:38.335,AH,C,3335094896,HAWK11,1,1,73,2,1,1,225,2,1,0,0,12,1,225,2,1,-146397.83435233062,-4790466.278291549,4199349.216276646,3.12491,2.74477,-0.484546,-97.375,34.125,36.0,-0.265625,-8.65625,8.45312,-0.0449219,0.0742188,0.134766,4,0,41.41546717547947,-91.7504284041508,10975.956672647118,-55.919476281218834,4.041378596925026,43.626598992068594,177.294,8582.48906893005,10960.61793957396,150,False,20.369348243558072,False,175.795206504676,175.91371910672558,False,0.8676945240595085,True,False
11,1970-07-23 11:25:48.393339833,2025-09-16,2025-09-26 15:00:39.333,AH,C,3985070806,JASSM,3,126,76,2,2,1,225,9,2,0,1,26,0,0,0,0,-180029.66638358062,-4778214.045869674,4211449.337370396,-2.36693,-0.400752,0.381098,74.5,-31.5,-32.25,0.0,0.0,0.0,0.0,0.0,0.0,2,0,41.56320420542647,-92.15772319887226,10000.000687774653,119.80329529978772,-0.0047421668091135,0.002500328954679,,8582.48906893005,10960.61793957396,150,11,2025-09-16,2025-09-26 15:00:39.335,AH,C,3336248128,HAWK11,1,1,73,2,1,1,225,2,1,0,0,12,1,225,2,1,-146490.76599295562,-4790429.585908736,4199386.913542271,-3.07228,2.62733,-0.50142,-92.875,39.75,41.125,-0.140625,-8.89062,8.96875,0.123047,0.0449219,0.0625,4,0,41.41592301620178,-91.75155227138448,10974.52304012963,-50.928660214336105,0.6960561709416357,45.5730756814387,180.068,8582.48906893005,10960.61793957396,150,False,20.262879585971987,False,179.52615339722212,175.89662683267073,False,4.566679462006118,True,False
11,1970-07-23 11:25:48.404373888,2025-09-16,2025-09-26 15:00:40.437,AH,C,3986382574,JASSM,3,126,76,2,2,1,225,9,2,0,1,26,0,0,0,0,-179947.72009451812,-4778248.778291549,4211413.673307896,-2.36693,-0.400752,0.381098,74.5,-31.5,-32.25,0.0,0.0,0.0,0.0,0.0,0.0,2,0,41.56277524702587,-92.15672630727398,10000.001520901998,119.8039566806854,-0.0038817184306708,0.0024988415065158,,8582.48906893005,10960.61793957396,150,11,2025-09-16,2025-09-26 15:00:40.632,AH,C,3337799028,HAWK11,1,1,73,2,1,1,225,2,1,0,0,12,1,225,2,1,-146607.67810233062,-4790371.643525924,4199444.837370396,-3.03565,2.61036,-0.536797,-86.375,48.0,47.125,-0.1875,-8.625,8.39062,-0.0742188,0.046875,0.078125,4,0,41.41663743024945,-91.75297047721904,10966.540660383156,-48.95582055801773,1.6602004211575956,47.22974146547638,178.173,8582.48906893005,10960.61793957396,150,False,20.135506592462075,False,173.23431090427795,175.85593299789824,False,10.845114022391105,True,False
11,1970-07-23 11:25:48.415239443,2025-09-16,2025-09-26 15:00:41.523,AH,C,3987693820,JASSM,3,126,76,2,2,1,225,9,2,0,1,26,0,0,0,0,-179865.80603201812,-4778283.495088424,4211378.020964146,-2.36693,-0.400752,0.381098,74.5,-31.5,-32.25,0.0,0.0,0.0,0.0,0.0,0.0,2,0,41.56234644484732,-92.1557298217821,9999.997231645022,119.80461778655132,-0.0030216070571132,0.0024973509765427,,8582.48906893005,10960.61793957396,150,11,2025-09-16,2025-09-26 15:00:41.522,AH,C,3338594360,HAWK11,1,1,73,2,1,1,225,2,1,0,0,12,1,225,2,1,-146665.51794608062,-4790337.539033736,4199477.778776646,-3.03536,2.54209,-0.547056,-83.125,51.875,50.375,-0.25,-9.125,8.96875,-0.0117188,0.0644531,0.117188,4,0,41.41705214532263,-91.75367410684645,10958.520249754249,-46.01687800178207,-0.0519658216674979,45.269611238733965,179.738,8582.48906893005,10960.61793957396,150,False,20.04487113259826,False,170.11949123360841,175.82088117617252,False,13.991622755553669,True,False
11,1970-07-23 11:25:48.426279943,2025-09-16,2025-09-26 15:00:42.627,AH,C,3988948354,JASSM,3,126,76,2,2,1,225,9,2,0,1,26,0,0,0,0,-179787.43493826812,-4778316.709932174,4211343.911589146,-2.36693,-0.400752,0.381098,74.5,-31.5,-32.25,0.0,0.0,0.0,0.0,0.0,0.0,2,0,41.5619361896693,-92.1547764490457,9999.998642940987,119.8052502845531,-0.0021987016967637,0.0024959321485781,,8582.48906893005,10960.61793957396,150,11,2025-09-16,2025-09-26 15:00:42.725,AH,C,3340185024,HAWK11,1,1,73,2,1,1,225,2,1,0,0,12,1,225,2,1,-146771.97107108062,-4790262.408174361,4199550.481901646,-3.01207,2.44708,-0.598924,-75.25,58.5,57.0,-0.203125,-9.29688,9.0,-0.0625,0.0566406,0.03125,4,0,41.41797046275415,-91.75497367471294,10939.57381523267,-40.58259592023918,-0.4982838960769764,43.6245563449861,180.361,8582.48906893005,10960.61793957396,150,False,19.919247509807946,False,163.80933343787964,175.74184561036543,False,20.396004064779365,True,False
11,1970-07-23 11:25:48.437292920,2025-09-16,2025-09-26 15:00:43.729,AH,C,3990259364,JASSM,3,126,76,2,2,1,225,9,2,0,1,26,0,0,0,0,-179705.53552420562,-4778351.418916549,4211308.265104771,-2.36693,-0.400752,0.381194,74.5,-31.5,-32.25,0.0,0.0,0.0,0.0,0.0,0.0,2,0,41.56150745331099,-92.15378016824955,9999.998530225896,119.80975340534552,-0.0052646634720056,0.0024942254247668,,8582.48906893005,10960.61793957396,150,11,2025-09-16,2025-09-26 15:00:43.725,AH,C,3341457556,HAWK11,1,1,73,2,1,1,225,2,1,0,0,12,1,225,2,1,-146848.53747733062,-4790196.628877486,4199614.061979771,-3.07237,2.37067,-0.640916,-68.75,62.75,62.125,-0.125,-9.48438,9.3125,-0.0722656,0.0429688,0.0839844,4,0,41.41877700408013,-91.7559127142192,10921.580901047571,-36.28473143957407,-0.5646692224793397,37.58461422023336,181.277,8582.48906893005,10960.61793957396,150,False,19.80894473751922,False,159.07344418711259,175.65840638403634,False,25.229623730882743,True,False
11,1970-07-23 11:25:48.447333664,2025-09-16,2025-09-26 15:00:44.733,AH,C,3991512192,JASSM,3,126,76,2,2,1,225,9,2,0,1,26,0,0,0,0,-179627.27087576812,-4778384.586885299,4211274.198698521,-2.36693,-0.400752,0.381194,74.5,-31.5,-32.25,0.0,0.0,0.0,0.0,0.0,0.0,2,0,41.561097727044285,-92.15282811581956,9999.997127060671,119.81038501703748,-0.0044428700816623,0.0024928527594521,,8582.48906893005,10960.61793957396,150,11,2025-09-16,2025-09-26 15:00:44.631,AH,C,3342531256,HAWK11,1,1,73,2,1,1,225,2,1,0,0,12,1,225,2,1,-146908.89489920562,-4790137.188447799,4199672.981901646,-3.06394,2.298,-0.674472,-63.25,65.375,66.375,-0.046875,-9.71875,9.48438,-0.015625,0.0507812,0.0429688,4,0,41.41951732716456,-91.75665575849546,10907.845806161198,-32.472974063635,-0.7019217002213627,35.4795270006941,182.634,8582.48906893005,10960.61793957396,150,False,19.710615317288713,False,155.3512969518113,175.57376431880158,False,29.04985911898069,True,False
11,1970-07-23 11:25:48.458353944,2025-09-16,2025-09-26 15:00:45.835,AH,C,3992764952,JASSM,3,126,76,2,2,1,225,9,2,0,1,26,0,0,0,0,-179549.01013358062,-4778417.752900924,4211240.134245396,-2.36693,-0.400752,0.381194,74.5,-31.5,-32.25,0.0,0.0,0.0,0.0,0.0,0.0,2,0,41.56068801679486,-92.15187612306764,9999.999852957602,119.81101658402405,-0.0036211194653391,0.0024914830969189,,8582.48906893005,10960.61793957396,150,11,2025-09-16,2025-09-26 15:00:45.835,AH,C,3344002620,HAWK11,1,1,73,2,1,1,225,2,1,0,0,12,1,225,2,1,-146981.93005545562,-4790053.169893111,4199758.229948521,-3.08196,2.23386,-0.723176,-55.5,68.25,71.5,-0.078125,-9.3125,9.125,-0.0625,0.0546875,0.0566406,4,0,41.42057926538888,-91.7575593332298,10891.779696863863,-28.64508022535164,0.3192084025370376,32.06874438860117,182.426,8582.48906893005,10960.61793957396,150,False,19.597538943796604,False,150.4889491296143,175.4466824524905,False,34.05031241198951,False,False
11,1970-07-23 11:25:48.468232269,2025-09-16,2025-09-26 15:00:46.823,AH,C,3994017744,JASSM,3,126,76,2,2,1,225,9,2,0,1,26,0,0,0,0,-179470.74743826812,-4778450.916963424,4211206.069792271,-2.36693,-0.400752,0.381194,74.5,-31.5,-32.25,0.0,0.0,0.0,0.0,0.0,0.0,2,0,41.560278310725074,-92.15092411983464,10000.001916323,119.81164815284946,-0.0027993601885919,0.0024901322631134,,8582.48906893005,10960.61793957396,150,11,2025-09-16,2025-09-26 15:00:46.726,AH,C,3345036552,HAWK11,1,1,73,2,1,1,225,2,1,0,0,12,1,225,2,1,-147027.69568045562,-4789992.156221236,4199821.720182896,-3.07026,2.15543,-0.754143,-50.5,69.375,74.875,-0.125,-9.60938,9.29688,-0.0078125,0.0429688,0.0546875,4,0,41.42136244942991,-91.75812861967536,10883.00761251902,-24.88024491686706,0.3819863921643241,29.73537701860606,183.037,8582.48906893005,10960.61793957396,150,False,19.505274268391084,False,147.48499719498693,175.3433059892545,False,37.16457306505058,False,False
11,1970-07-23 11:25:48.479253224,2025-09-16,2025-09-26 15:00:47.925,AH,C,3995270462,JASSM,3,126,76,2,2,1,225,9,2,0,1,26,0,0,0,0,-179392.48962576812,-4778484.079072799,4211172.003386021,-2.36693,-0.400752,0.381194,74.5,-31.5,-32.25,0.0,0.0,0.0,0.0,0.0,0.0,2,0,41.55986859415111,-92.14997218797004,9999.999695864137,119.8122796692165,-0.001977638091276,0.0024887570691585,,8582.48906893005,10960.61793957396,150,11,2025-09-16,2025-09-26 15:00:47.927,AH,C,3346547684,HAWK11,1,1,73,2,1,1,225,2,1,0,0,12,1,225,2,1,-147086.10583670562,-4789902.207979049,4199918.370573521,-3.04495,2.09417,-0.787412,-43.25,70.75,78.75,-0.234375,-8.76562,8.42188,-0.0253906,0.0410156,0.0351562,4,0,41.42253928432941,-91.75885964613347,10876.023567283317,-21.79974167781249,1.0760475076550375,28.77860898888432,182.842,8582.48906893005,10960.61793957396,150,False,19.396460481389585,False,143.36099354315695,175.1852097072549,False,41.45095879070083,False,False
11,1970-07-23 11:25:48.489295745,2025-09-16,2025-09-26 15:00:48.929,AH,C,3996464006,JASSM,3,126,76,2,2,1,225,9,2,0,1,26,0,0,0,0,-179317.92810233062,-4778515.672822799,4211139.546354771,-2.36693,-0.400657,0.381194,74.5,-31.5,-32.25,0.0,0.0,0.0,0.0,0.0,0.0,2,0,41.559478236519055,-92.14906523004964,9999.99733186609,119.80923729123644,-0.0047611760922133,0.0004440249332249,,8582.48906893005,10960.61793957396,150,11,2025-09-16,2025-09-26 15:00:48.879,AH,C,3347064650,HAWK11,1,1,73,2,1,1,225,2,1,0,0,12,1,225,2,1,-147103.92419608062,-4789869.678682174,4199953.073698521,-3.0415,2.06455,-0.800834,-40.875,70.875,80.125,-0.375,-8.98438,8.65625,-0.0546875,0.0332031,0.0429688,4,0,41.42296379664632,-91.7590845235295,10872.70825782374,-20.405494497043968,1.3280064897577677,27.79487608567207,183.0,8582.48906893005,10960.61793957396,150,False,19.32979815396365,False,142.03589699345633,175.1180711046667,False,42.84464091944043,False,False
11,1970-07-23 11:25:48.499333138,2025-09-16,2025-09-26 15:00:49.933,AH,C,3997657000,JASSM,3,126,76,2,2,1,225,9,2,0,1,26,0,0,0,0,-179243.40173514312,-4778547.252900924,4211107.104948521,-2.36693,-0.400657,0.381194,74.5,-31.5,-32.25,0.0,0.0,0.0,0.0,0.0,0.0,2,0,41.55908805062489,-92.1481587101235,10000.00258124395,119.8098386717882,-0.0039786397429379,0.0004426734390024,,8582.48906893005,10960.61793957396,150,11,2025-09-16,2025-09-26 15:00:49.725,AH,C,3348575782,HAWK11,1,1,73,2,1,1,225,2,1,0,0,12,1,225,2,1,-147149.63513358062,-4789777.437471236,4200055.374479771,-2.97199,1.95583,-0.836595,-33.375,71.875,83.125,-0.109375,-9.48438,9.1875,0.00390625,0.03125,0.0253906,4,0,41.4241947231096,-91.75966466178656,10871.40640658701,-15.70738220217014,1.809799581472096,27.354333321159203,183.416,8582.48906893005,10960.61793957396,150,False,19.22831410895854,False,137.99490810345335,174.94050868235246,False,47.06424337580156,False,False
11,1970-07-23 11:25:48.509353150,2025-09-16,2025-09-26 15:00:50.935,AH,C,3998848806,JASSM,3,126,76,2,2,1,225,9,2,0,1,26,0,0,0,0,-179168.94861014312,-4778578.799775924,4211074.692839146,-2.36693,-0.400657,0.381194,74.5,-31.5,-32.25,0.0,0.0,0.0,0.0,0.0,0.0,2,0,41.55869823654934,-92.1472530929595,10000.000783061054,119.81043944882148,-0.0031968707969918,0.0004413189913991,,8582.48906893005,10960.61793957396,150,11,2025-09-16,2025-09-26 15:00:50.927,AH,C,3350086914,HAWK11,1,1,73,2,1,1,225,2,1,0,0,12,1,225,2,1,-147186.43005545562,-4789683.742158736,4200162.308073521,-2.92645,1.88354,-0.860947,-26.0,72.625,85.25,-0.171875,-8.04688,7.84375,-0.0195312,0.0175781,0.0527344,4,0,41.42546719271525,-91.76013880038924,10875.922920334166,-12.688835457337008,2.390020303324337,26.96511777340655,182.463,8582.48906893005,10960.61793957396,150,False,19.13034532868759,False,134.1559261864019,174.7482337291029,False,51.09575893871374,False,False
11,1970-07-23 11:25:48.519240982,2025-09-16,2025-09-26 15:00:51.924,AH,C,4000041854,JASSM,3,126,76,2,2,1,225,9,2,0,1,26,0,0,0,0,-179094.41833670562,-4778610.377900924,4211042.247526646,-2.36693,-0.400657,0.381194,74.5,-31.5,-32.25,0.0,0.0,0.0,0.0,0.0,0.0,2,0,41.5583080225372,-92.14634654894012,10000.000190919542,119.81104083608456,-0.0024142976946119,0.0004399725515941,,8582.48906893005,10960.61793957396,150,11,2025-09-16,2025-09-26 15:00:51.835,AH,C,3351001546,HAWK11,1,1,73,2,1,1,225,2,1,0,0,12,1,225,2,1,-147204.04528983062,-4789627.676729049,4200226.690886021,-2.86883,1.8076,-0.867754,-21.875,73.0,86.0,-0.203125,-8.0,7.67188,0.0292969,0.0195312,0.046875,4,0,41.426232088495965,-91.76036991378608,10879.157472051578,-9.847917234080422,2.133379501319804,27.068602376566837,182.707,8582.48906893005,10960.61793957396,150,False,19.055121372732135,False,132.05770488957324,174.62329210249914,False,53.318929044244214,False,False
11,1970-07-23 11:25:48.528292686,2025-09-16,2025-09-26 15:00:52.829,AH,C,4001177226,JASSM,3,126,76,2,2,1,225,9,2,0,1,26,0,0,0,0,-179023.49060233062,-4778640.428682174,4211011.370573521,-2.36684,-0.400657,0.38129,74.5,-31.5,-32.25,0.0,0.0,0.0,0.0,0.0,0.0,2,0,41.55793666966281,-92.1454838347257,10000.001027698236,119.81545544557574,-0.0055953329185082,0.005929924869373,,8582.48906893005,10960.61793957396,150,11,2025-09-16,2025-09-26 15:00:52.725,AH,C,3352154778,HAWK11,1,1,73,2,1,1,225,2,1,0,0,12,1,225,2,1,-147222.26403983062,-4789555.698213424,4200309.618620396,-2.7975,1.75353,-0.873314,-16.75,73.625,86.75,-0.171875,-7.96875,7.65625,0.00195312,0.015625,0.0214844,4,0,41.42721671756241,-91.76061409120491,10883.572087962328,-7.825558602697842,2.0910304246724363,28.860789982772516,182.341,8582.48906893005,10960.61793957396,150,False,18.97625694853224,False,129.46044117822652,174.46267621854437,False,56.07673015743935,False,False
11,1970-07-23 11:25:48.539310851,2025-09-16,2025-09-26 15:00:53.931,AH,C,4002427946,JASSM,3,126,76,2,2,1,225,9,2,0,1,26,0,0,0,0,-178945.35681326812,-4778673.532197799,4210977.354948521,-2.36684,-0.400657,0.38129,74.5,-31.5,-32.25,0.0,0.0,0.0,0.0,0.0,0.0,2,0,41.55752757171064,-92.14453348280306,10000.001597748336,119.8160858848078,-0.0047749216834908,0.00592856600548,,8582.48906893005,10960.61793957396,150,11,2025-09-16,2025-09-26 15:00:53.927,AH,C,3353626144,HAWK11,1,1,73,2,1,1,225,2,1,0,0,12,1,225,2,1,-147238.75232108062,-4789462.265596236,4200416.413542271,-2.74698,1.65459,-0.864686,-10.5,74.75,86.875,-0.375,-7.26562,6.875,-0.0488281,0.00390625,0.0507812,4,0,41.428490397809846,-91.76084547673972,10886.92451336238,-4.253330814556456,1.1539820720747789,27.52611693929109,181.803,8582.48906893005,10960.61793957396,150,False,18.886442300606404,False,126.34043993227976,174.25089271170353,False,59.40776181822944,False,False
11,1970-07-23 11:25:48.548378994,2025-09-16,2025-09-26 15:00:54.837,AH,C,4003562972,JASSM,3,126,76,2,2,1,225,9,2,0,1,26,0,0,0,0,-178874.45056326812,-4778703.573213424,4210946.483854771,-2.36684,-0.400657,0.38129,74.5,-31.5,-32.375,0.0,0.0,0.0,0.0,0.0,0.0,2,0,41.55715629810381,-92.1436710509565,10000.00063938132,119.81665799569237,-0.0040303946651487,0.0059273229911204,,8582.48906893005,10960.61793957396,150,11,2025-09-16,2025-09-26 15:00:54.927,AH,C,3354819142,HAWK11,1,1,73,2,1,1,225,2,1,0,0,12,1,225,2,1,-147246.89685233062,-4789385.773408736,4200502.550261021,-2.95435,1.59083,-0.853469,-6.625,75.5,86.875,0.0625,-6.9375,6.625,-0.222656,0.0,0.03125,4,0,41.42952538574551,-91.76097092346272,10886.4607726961,-1.911901620876365,0.3660657394997094,12.908895972657158,182.011,8582.48906893005,10960.61793957396,150,False,18.811580488491593,False,124.46658166262245,174.01660453825414,False,61.51350318131444,False,False
11,1970-07-23 11:25:48.558232167,2025-09-16,2025-09-26 15:00:55.823,AH,C,4004696582,JASSM,3,126,76,2,2,1,225,9,2,0,1,26,0,0,0,0,-178803.63318045562,-4778733.575166549,4210915.651823521,-2.36684,-0.400657,0.38129,74.5,-31.5,-32.375,0.0,0.0,0.0,0.0,0.0,0.0,2,0,41.5567854942618,-92.1428097104858,10000.000557383377,119.81722937840097,-0.0032868065617418,0.0059260907504674,,8582.48906893005,10960.61793957396,150,11,2025-09-16,2025-09-26 15:00:55.835,AH,C,3355733776,HAWK11,1,1,73,2,1,1,225,2,1,0,0,12,1,225,2,1,-147250.92614920562,-4789327.257783736,4200568.034636021,-3.08436,1.57962,-0.852989,-5.125,76.125,86.875,-0.140625,-7.0,6.8125,-0.185547,0.00390625,-0.00976562,4,0,41.43031478097463,-91.76104058316656,10885.055895998456,-1.4905030622708992,0.3250986576172089,4.978518156161372,182.06,8582.48906893005,10960.61793957396,150,True,18.74521096195974,False,123.72113370774369,173.874661686522,False,62.399879638693655,False,False
11,1970-07-23 11:25:48.568272779,2025-09-16,2025-09-26 15:00:56.827,AH,C,4005889608,JASSM,3,126,76,2,2,1,225,9,2,0,1,26,0,0,0,0,-178729.10388358062,-4778765.147432174,4210883.202604771,-2.36684,-0.400657,0.38129,74.5,-31.5,-32.375,0.0,0.0,0.0,0.0,0.0,0.0,2,0,41.55639525352288,-92.1419032342406,9999.996332451215,119.81783069805856,-0.0025042465986827,0.0059247986267648,,8582.48906893005,10960.61793957396,150,11,2025-09-16,2025-09-26 15:00:56.725,AH,C,3356926774,HAWK11,1,1,73,2,1,1,225,2,1,0,0,12,1,225,2,1,-147254.91833670562,-4789249.957979049,4200653.913542271,3.09519,1.5939,-0.843594,-4.25,76.875,86.5,-0.015625,-6.6875,6.29688,0.0195312,-0.00390625,0.0,4,0,41.4313535960312,-91.76111670402906,10881.744997237513,-2.050295212029293,-0.1929085490045742,-0.3462073977205667,182.267,8582.48906893005,10960.61793957396,150,True,18.67035369117075,False,123.29624766959319,173.68949131416505,False,63.00798406846778,False,False
11,1970-07-23 11:25:48.578314965,2025-09-16,2025-09-26 15:00:57.831,AH,C,4007140480,JASSM,3,126,76,2,2,1,225,9,2,0,1,26,0,0,0,0,-178650.96130545562,-4778798.252900924,4210849.181120396,-2.36684,-0.400561,0.38129,74.5,-31.5,-32.375,0.0,0.0,0.0,0.0,0.0,0.0,2,0,41.555986076719385,-92.14095282137468,10000.00431759228,119.81481737286204,-0.0052501761054035,0.0038795446269413,,8582.48906893005,10960.61793957396,150,11,2025-09-16,2025-09-26 15:00:57.726,AH,C,3358159540,HAWK11,1,1,73,2,1,1,225,2,1,0,0,12,1,225,2,1,-147259.14489920562,-4789169.117158736,4200742.960417271,3.08541,1.59649,-0.851263,-4.125,77.5,86.375,-0.109375,-7.20312,7.03125,-0.0292969,0.0175781,0.0,4,0,41.43243482011652,-91.7611969300371,10876.630566268968,-2.130275783586934,0.2513057880263147,-0.7953634782259248,182.793,8582.48906893005,10960.61793957396,150,True,18.59225283917659,False,123.23598433923179,173.49513342447315,False,63.261195921170646,False,False
11,1970-07-23 11:25:48.588352241,2025-09-16,2025-09-26 15:00:58.835,AH,C,4008274956,JASSM,3,126,76,2,2,1,225,9,2,0,1,26,0,0,0,0,-178580.08923514312,-4778828.274385299,4210818.321745396,-2.36684,-0.400561,0.38129,74.5,-31.375,-32.375,0.0,0.0,0.0,0.0,0.0,0.0,2,0,41.5556149639738,-92.14009084847775,9999.99876442542,119.81538916195458,-0.004506013718967,0.0038782615905149,,8582.48906893005,10960.61793957396,150,11,2025-09-16,2025-09-26 15:00:58.725,AH,C,3359113938,HAWK11,1,1,73,2,1,1,225,2,1,0,0,12,1,225,2,1,-147262.13122733062,-4789107.149385299,4200811.819792271,3.09289,1.59045,-0.862864,-4.0,77.25,86.75,-0.03125,-7.51562,7.20312,0.0195312,0.0,0.00195312,4,0,41.43326772604332,-91.76125539836517,10874.001567967474,-1.8773220998341065,0.9072096369487328,-0.6259232226535507,183.086,8582.48906893005,10960.61793957396,150,True,18.52570615161346,False,123.1209203723041,173.38441575009614,False,63.485297229037876,False,False
11,1970-07-23 11:25:48.598231884,2025-09-16,2025-09-26 15:00:59.823,AH,C,4009467876,JASSM,3,126,76,2,2,1,225,9,2,0,1,26,0,0,0,0,-178505.56677420562,-4778859.842744674,4210785.874479771,-2.36684,-0.400561,0.38129,74.5,-31.375,-32.375,0.0,0.0,0.0,0.0,0.0,0.0,2,0,41.5552247366559,-92.1391844885337,10000.0015535869,119.81599039063782,-0.0037235253221436,0.0038769188122866,,8582.48906893005,10960.61793957396,150,11,2025-09-16,2025-09-26 15:01:00.131,AH,C,3361022736,HAWK11,1,1,73,2,1,1,225,2,1,0,0,12,1,225,2,1,-147267.95153983062,-4788983.703096236,4200949.690886021,3.13201,1.59687,-0.868233,-3.5,77.375,87.0,-0.171875,-7.20312,6.82812,0.0351562,-0.00390625,0.0117188,4,0,41.434931681428274,-91.76137033878486,10870.27894018524,-2.103455021509968,1.2258295202905456,1.891358996444408,183.037,8582.48906893005,10960.61793957396,150,True,18.43510529099743,False,122.86970107882415,173.09046935593477,False,64.03104526285324,False,False
11,1970-07-23 11:25:48.607296732,2025-09-16,2025-09-26 15:01:00.729,AH,C,4010601376,JASSM,3,126,76,2,2,1,225,9,2,0,1,26,0,0,0,0,-178434.75622733062,-4778889.836885299,4210755.040495396,-2.36684,-0.400561,0.38129,74.5,-31.375,-32.375,0.0,0.0,0.0,0.0,0.0,0.0,2,0,41.55485393101415,-92.1383232846896,9999.99705761175,119.81656166098398,-0.0029800083320867,0.0038756350867936,,8582.48906893005,10960.61793957396,150,11,2025-09-16,2025-09-26 15:01:00.927,AH,C,3361977136,HAWK11,1,1,73,2,1,1,225,2,1,0,0,12,1,225,2,1,-147270.59021170562,-4788921.961885299,4201019.009245396,-3.11312,1.587,-0.87178,-3.0,77.25,87.125,-0.140625,-7.28125,6.78125,0.0488281,0.0078125,-0.00195312,4,0,41.435766399095016,-91.76142457281888,10869.190469675625,-1.7309295217532918,1.4155678216599177,3.648276377676054,183.0,8582.48906893005,10960.61793957396,150,True,18.369124204987212,False,122.62146904197158,172.9335391362968,False,64.436909943053,False,False
11,1970-07-23 11:25:48.617310962,2025-09-16,2025-09-26 15:01:01.731,AH,C,4011734770,JASSM,3,126,76,2,2,1,225,9,2,0,1,26,0,0,0,0,-178363.95153983062,-4778919.829072799,4210724.210417271,-2.36684,-0.400561,0.38129,74.5,-31.375,-32.375,0.0,0.0,0.0,0.0,0.0,0.0,2,0,41.55448315555204,-92.13746216171394,10000.00033486205,119.81713287349982,-0.0022365556325337,0.0038743567066833,,8582.48906893005,10960.61793957396,150,11,2025-09-16,2025-09-26 15:01:01.726,AH,C,3362971300,HAWK11,1,1,73,2,1,1,225,2,1,0,0,12,1,225,2,1,-147272.82068045562,-4788857.200166549,4201091.673307896,-3.06509,1.57521,-0.877725,-2.25,77.25,87.125,-0.0625,-7.20312,6.8125,0.0371094,0.00585938,0.0175781,4,0,41.436641744239374,-91.7614750392887,10867.91412313619,-1.2872927004087518,1.7435227336768102,5.894097213216923,183.404,8582.48906893005,10960.61793957396,150,True,18.302500766353994,False,122.25274775529365,172.76827305912562,False,64.97098477936493,False,False
11,1970-07-23 11:25:48.626371247,2025-09-16,2025-09-26 15:01:02.637,AH,C,4012867102,JASSM,3,126,76,2,2,1,225,9,2,0,1,26,0,0,0,0,-178293.21325858062,-4778949.791963424,4210693.407682896,-2.36684,-0.400561,0.38129,74.5,-31.375,-32.375,0.0,0.0,0.0,0.0,0.0,0.0,2,0,41.55411271775498,-92.13660185671804,10000.00084648449,119.81770353924084,-0.00149379869567,0.0038730761675835,,8582.48906893005,10960.61793957396,150,11,2025-09-16,2025-09-26 15:01:02.833,AH,C,3364243832,HAWK11,1,1,73,2,1,1,225,2,1,0,0,12,1,225,2,1,-147274.53552420562,-4788775.006807174,4201183.784636021,-3.06518,1.54549,-0.877725,-1.0,77.25,87.125,-0.078125,-7.09375,6.8125,-0.0917969,-0.00195312,0.0195312,4,0,41.43775215494447,-91.76152575179994,10865.974970728725,-0.1990032762274654,1.728075363488973,4.611556936369265,183.037,8582.48906893005,10960.61793957396,150,True,18.230656958920818,False,121.63802102144801,172.56111508821326,False,65.79295335535383,False,False
11,1970-07-23 11:25:48.635270230,2025-09-16,2025-09-26 15:01:03.527,AH,C,4013940844,JASSM,3,126,76,2,2,1,225,9,2,0,1,26,0,0,0,0,-178226.13611014312,-4778978.202119674,4210664.198698521,-2.36684,-0.400561,0.381386,74.5,-31.375,-32.375,0.0,0.0,0.0,0.0,0.0,0.0,2,0,41.553761454942645,-92.13578608765164,9999.99870129226,119.8220871026946,-0.0047151287709294,0.0038716843991567,,8582.48906893005,10960.61793957396,150,11,2025-09-16,2025-09-26 15:01:03.521,AH,C,3364999398,HAWK11,1,1,73,2,1,1,225,2,1,0,0,12,1,225,2,1,-147275.13513358062,-4788725.647432174,4201239.681120396,-3.12338,1.53226,-0.87945,-0.75,75.5,88.875,-0.25,-7.15625,6.76562,-0.107422,0.00195312,0.0078125,4,0,41.43842298622789,-91.76155106451604,10866.04344394074,0.2849486958107948,1.8280508195609364,0.7086561444789994,183.612,8582.48906893005,10960.61793957396,150,True,18.172419627710905,False,121.47405517804033,172.42841768251728,False,66.09576441855205,False,False
11,1970-07-23 11:25:48.644791301,2025-09-16,2025-09-26 15:01:04.479,AH,C,4015016486,JASSM,3,126,76,2,2,1,225,9,2,0,1,26,0,0,0,0,-178158.93884451812,-4779006.663057174,4210634.936979771,-2.36684,-0.400561,0.381386,74.5,-31.375,-32.375,0.0,0.0,0.0,0.0,0.0,0.0,2,0,41.55340955495903,-92.13496886665996,9999.998562623578,119.82262918198656,-0.0040095562871253,0.0038705203039902,,8582.48906893005,10960.61793957396,150,11,2025-09-16,2025-09-26 15:01:04.725,AH,C,3366550298,HAWK11,1,1,73,2,1,1,225,2,1,0,0,12,1,225,2,1,-147275.66443045562,-4788624.569307174,4201353.013151646,3.09346,1.53734,-0.877821,-0.5,77.375,87.625,-0.203125,-6.89062,6.875,-0.046875,-0.00976562,-0.0234375,4,0,41.43978919999008,-91.76159455088847,10863.680094555892,0.0993924924890696,1.7353030832107963,-2.874195753046134,183.819,8582.48906893005,10960.61793957396,150,True,18.097692895596087,False,121.38791877115221,172.17423127662613,False,66.43099757075393,False,False
11,1970-07-23 11:25:48.654354050,2025-09-16,2025-09-26 15:01:05.435,AH,C,4016209270,JASSM,3,126,76,2,2,1,225,9,2,0,1,26,0,0,0,0,-178084.42419608062,-4779038.223604049,4210602.487761021,-2.36684,-0.400561,0.381386,74.5,-31.375,-32.375,0.0,0.0,0.0,0.0,0.0,0.0,2,0,41.55301931883677,-92.13406266535434,10000.000726909757,119.82323027932092,-0.003227146264762,0.0038692212326509,,8582.48906893005,10960.61793957396,150,11,2025-09-16,2025-09-26 15:01:05.439,AH,C,3366987730,HAWK11,1,1,73,2,1,1,225,2,1,0,0,12,1,225,2,1,-147275.92224295562,-4788596.606416549,4201384.493620396,3.07467,1.54108,-0.877916,-0.625,77.5,87.75,-0.171875,-6.89062,7.0,-0.0488281,0.00195312,-0.0195312,4,0,41.44016799828104,-91.76160791301784,10863.313827919204,-0.037530258103652,1.7410866540790229,-3.7901715804543024,184.675,8582.48906893005,10960.61793957396,150,True,18.042178414623304,False,121.44884945851307,172.08792441199822,False,66.45640286516442,False,False
11,1970-07-23 11:25:48.663607799,2025-09-16,2025-09-26 15:01:06.360,AH,C,4017285726,JASSM,3,126,76,2,2,1,225,9,2,0,1,26,0,0,0,0,-178017.17712576812,-4779066.704072799,4210573.202604771,-2.36684,-0.400561,0.381386,74.5,-31.375,-32.375,0.0,0.0,0.0,0.0,0.0,0.0,2,0,41.55266714327271,-92.13324485807104,9999.99965071882,119.82377273955336,-0.0025210499700375,0.0038680538296116,,8582.48906893005,10960.61793957396,150,11,2025-09-16,2025-09-26 15:01:06.520,AH,C,3368737462,HAWK11,1,1,73,2,1,1,225,2,1,0,0,12,1,225,2,1,-147277.40661795562,-4788482.184541549,4201513.657682896,3.02022,1.53753,-0.879738,-1.75,77.75,88.5,0.203125,-6.79688,7.0625,-0.00390625,0.00390625,-0.00195312,4,0,41.44172028263552,-91.76166772477175,10862.6139260388,0.0921185393153804,1.847083693003564,-7.062689526622211,185.445,8582.48906893005,10960.61793957396,150,True,17.963085026354808,False,121.98948965548057,171.79838334770878,False,66.20656532636421,False,False
11,1970-07-23 11:25:48.673294361,2025-09-16,2025-09-26 15:01:07.329,AH,C,4018415954,JASSM,3,126,76,2,2,1,225,9,2,0,1,26,0,0,0,0,-177946.57068045562,-4779096.606416549,4210542.454557896,-2.36684,-0.400465,0.381386,74.5,-31.375,-32.375,0.0,0.0,0.0,0.0,0.0,0.0,2,0,41.5522973740097,-92.13238620659538,9999.999920713766,119.82069877055692,-0.0053461112004247,0.0018224583501487,,8582.48906893005,10960.61793957396,150,11,2025-09-16,2025-09-26 15:01:07.333,AH,C,3369612328,HAWK11,1,1,73,2,1,1,225,2,1,0,0,12,1,225,2,1,-147279.05114920562,-4788424.872041549,4201578.468229771,3.0021,1.55632,-0.879546,-2.5,78.125,88.625,-0.09375,-6.96875,7.125,-0.0078125,0.00195312,-0.0253906,4,0,41.44249840567703,-91.76170845582875,10862.584508524636,-0.5945986852526167,1.8404145437216972,-7.293368042570018,185.603,8582.48906893005,10960.61793957396,150,True,17.9002095920697,False,122.35331768012647,171.64193520656633,False,65.99875876154793,False,False
11,1970-07-23 11:25:48.682330868,2025-09-16,2025-09-26 15:01:08.233,AH,C,4019548554,JASSM,3,126,76,2,2,1,225,9,2,0,1,26,0,0,0,0,-177875.81579764312,-4779126.571260299,4210511.640104771,-2.36684,-0.400465,0.381386,74.5,-31.375,-32.375,0.0,0.0,0.0,0.0,0.0,0.0,2,0,41.55192681121067,-92.13152575993752,9999.998976765752,119.82126950577072,-0.0046031811598887,0.001821179134314,,8582.48906893005,10960.61793957396,150,11,2025-09-16,2025-09-26 15:01:08.334,AH,C,3370884860,HAWK11,1,1,73,2,1,1,225,2,1,0,0,12,1,225,2,1,-147281.58630545562,-4788340.459932174,4201673.858854771,3.0089,1.56897,-0.876382,-3.375,78.375,89.0,0.0,-6.57812,6.75,0.0410156,-0.00976562,-0.00195312,4,0,41.44364399722282,-91.76176979906047,10862.415813829402,-1.060991049519102,1.6681607108278729,-6.3596784376053215,186.08,8582.48906893005,10960.61793957396,150,True,17.828468808345466,False,122.77021240798356,171.41979736936463,False,65.80440434353872,False,False
11,1970-07-23 11:25:48.692350979,2025-09-16,2025-09-26 15:01:09.235,AH,C,4020681572,JASSM,3,126,76,2,2,1,225,9,2,0,1,26,0,0,0,0,-177805.03454764312,-4779156.545869674,4210480.813932896,-2.36684,-0.400465,0.381386,74.5,-31.375,-32.375,0.0,0.0,0.0,0.0,0.0,0.0,2,0,41.55155611062376,-92.13066500308707,9999.997606370984,119.82184044255176,-0.0038599779864927,0.0018199050552212,,8582.48906893005,10960.61793957396,150,11,2025-09-16,2025-09-26 15:01:09.224,AH,C,3371879024,HAWK11,1,1,73,2,1,1,225,2,1,0,0,12,1,225,2,1,-147284.68200858062,-4788275.288057174,4201746.753386021,3.06432,1.57032,-0.874657,-3.875,79.125,88.75,-0.046875,-6.45312,6.64062,0.0585938,0.0078125,-0.00390625,4,0,41.44452317998107,-91.76183077060688,10860.741082618282,-1.1125004537288083,1.571281114250887,-3.1270076684879107,186.972,8582.48906893005,10960.61793957396,150,True,17.7627722453528,False,123.01623766791258,171.24371990274332,False,65.73226699025274,False,False
11,1970-07-23 11:25:48.701590144,2025-09-16,2025-09-26 15:01:10.159,AH,C,4021816630,JASSM,3,126,76,2,2,1,225,9,2,0,1,26,0,0,0,0,-177734.12634451812,-4779186.575166549,4210449.931120396,-2.36684,-0.400465,0.381386,74.5,-31.375,-32.375,0.0,0.0,0.0,0.0,0.0,0.0,2,0,41.55118472404851,-92.12980271183426,9999.999097574915,119.82241239290138,-0.0031154342208249,0.0018186161356419,,8582.48906893005,10960.61793957396,150,11,2025-09-16,2025-09-26 15:01:10.333,AH,C,3373231090,HAWK11,1,1,73,2,1,1,225,2,1,0,0,12,1,225,2,1,-147289.18396170562,-4788184.579072799,4201847.616667271,-3.13527,1.56965,-0.874848,-3.875,79.75,88.875,0.046875,-6.71875,6.90625,0.0683594,0.00195312,0.00195312,4,0,41.44574281866301,-91.76191794607492,10857.142074644717,-1.0876510201785603,1.5829319759996303,1.6342397101324255,187.73,8582.48906893005,10960.61793957396,150,True,17.688751972422487,False,123.01281273014061,171.00623494221333,False,65.97196535002665,False,False
11,1970-07-23 11:25:48.711290908,2025-09-16,2025-09-26 15:01:11.129,AH,C,4022948930,JASSM,3,126,76,2,2,1,225,9,2,0,1,26,0,0,0,0,-177663.39001639312,-4779216.530244674,4210419.124479771,-2.36684,-0.400465,0.381386,74.5,-31.375,-32.375,0.0,0.0,0.0,0.0,0.0,0.0,2,0,41.55081424860177,-92.1289425211682,10000.003460787706,119.822982945765,-0.0023727041739812,0.0018173451603479,,8582.48906893005,10960.61793957396,150,11,2025-09-16,2025-09-26 15:01:11.334,AH,C,3374225256,HAWK11,1,1,73,2,1,1,225,2,1,0,0,12,1,225,2,1,-147292.29333670562,-4788118.342744674,4201920.976042271,-3.0926,1.55881,-0.874465,-3.375,79.875,89.25,-0.15625,-6.79688,6.875,0.0136719,-0.00585938,0.00585938,4,0,41.4466314722978,-91.76197947652037,10853.87313841425,-0.689958823477352,1.5546344655163302,3.613316491387889,188.927,8582.48906893005,10960.61793957396,150,True,17.6232589066797,False,122.7664826229793,170.82557414685078,False,66.39964551306325,False,False
11,1970-07-23 11:25:48.720328880,2025-09-16,2025-09-26 15:01:12.032,AH,C,4024081740,JASSM,3,126,76,2,2,1,225,9,2,0,1,26,0,0,0,0,-177592.62243826812,-4779246.497041549,4210388.302214146,-2.36684,-0.400465,0.381386,74.5,-31.375,-32.375,0.0,0.0,0.0,0.0,0.0,0.0,2,0,41.55044359848727,-92.12808196098906,10000.00324609768,119.82355373954012,-0.0016296441367502,0.0018160694094107,,8582.48906893005,10960.61793957396,150,11,2025-09-16,2025-09-26 15:01:12.225,AH,C,3375497788,HAWK11,1,1,73,2,1,1,225,2,1,0,0,12,1,225,2,1,-147295.70349295562,-4788031.489229049,4202016.856901646,-3.08685,1.52794,-0.869863,-2.625,80.75,89.25,0.0,-6.51562,6.71875,-0.0585938,0.00585938,0.00976562,4,0,41.44779474641295,-91.76205218708488,10848.86441380185,0.4472966924492652,1.2893040570620111,2.616731444851877,189.514,8582.48906893005,10960.61793957396,150,True,17.551665474998316,False,122.40897217609904,170.5940541153889,False,66.98622956888703,False,False
11,1970-07-23 11:25:48.730368652,2025-09-16,2025-09-26 15:01:13.036,AH,C,4025215134,JASSM,3,126,76,2,2,1,225,9,2,0,1,26,0,0,0,0,-177521.81775076812,-4779276.477510299,4210357.462370396,-2.36684,-0.400465,0.381482,74.5,-31.375,-32.375,0.0,0.0,0.0,0.0,0.0,0.0,2,0,41.5500727501899,-92.12722096029304,9999.99846622191,119.82796740582693,-0.00481169842761,0.0018146038548555,,8582.48906893005,10960.61793957396,150,11,2025-09-16,2025-09-26 15:01:13.131,AH,C,3376571486,HAWK11,1,1,73,2,1,1,225,2,1,0,0,12,1,225,2,1,-147297.84607108062,-4787958.432588424,4202097.153776646,-3.1276,1.52017,-0.864782,-2.25,81.25,89.375,-0.171875,-6.60938,6.75,-0.0351562,-0.00390625,-0.00976562,4,0,41.448770983250114,-91.76210467147328,10843.83629317706,0.7386112929275044,1.002610719944064,-0.0513092448880718,190.308,8582.48906893005,10960.61793957396,150,True,17.48508994940068,False,122.22952586067886,170.39390800778207,False,67.3647246310258,False,False
11,1970-07-23 11:25:48.739272986,2025-09-16,2025-09-26 15:01:13.927,AH,C,4026288876,JASSM,3,126,76,2,2,1,225,9,2,0,1,26,0,0,0,0,-177454.74060233062,-4779304.881807174,4210328.245573521,-2.36684,-0.400465,0.381482,74.5,-31.375,-32.375,0.0,0.0,0.0,0.0,0.0,0.0,2,0,41.54972140292258,-92.12640529541515,10000.001344204313,119.82850841362472,-0.0041073807589597,0.0018134297611353,,8582.48906893005,10960.61793957396,150,11,2025-09-16,2025-09-26 15:01:13.725,AH,C,3377327052,HAWK11,1,1,73,2,1,1,225,2,1,0,0,12,1,225,2,1,-147299.40271170562,-4787906.485322799,4202153.952604771,3.13057,1.52976,-0.860467,-2.25,81.5,89.875,-0.203125,-6.67188,6.75,-0.0195312,-0.00195312,-0.0136719,4,0,41.44946313418504,-91.76214238804396,10839.62298884996,0.3840600144275858,0.7520915569575524,-1.0731660500992584,191.005,8582.48906893005,10960.61793957396,150,True,17.427538911781927,False,122.22337145027555,170.24514404703822,False,67.52044371843292,False,False
11,1970-07-23 11:25:48.749291028,2025-09-16,2025-09-26 15:01:14.929,AH,C,4027481922,JASSM,3,126,76,2,2,1,225,9,2,0,1,26,0,0,0,0,-177380.20837576812,-4779336.440400924,4210295.782682896,-2.36684,-0.400465,0.381482,74.5,-31.375,-32.375,0.0,0.0,0.0,0.0,0.0,0.0,2,0,41.54933102253321,-92.12549898755614,10000.00427904689,119.82910953797912,-0.0033247961033501,0.0018121447314076,,8582.48906893005,10960.61793957396,150,11,2025-09-16,2025-09-26 15:01:15.130,AH,C,3378917718,HAWK11,1,1,73,2,1,1,225,2,1,0,0,12,1,225,2,1,-147302.82263358062,-4787797.461885299,4202274.302214146,3.13277,1.52602,-0.887696,-2.5,80.875,91.375,-0.265625,-8.65625,8.82812,0.0078125,0.0195312,0.00976562,4,0,41.45092346343664,-91.76222337632508,10833.286555638431,0.5073114073151102,2.314796849944433,-1.1077734932262395,192.3,8582.48906893005,10960.61793957396,150,True,17.347922931087982,False,122.31802938146109,169.95261991889276,False,67.72397036474169,False,False
11,1970-07-23 11:25:48.759332985,2025-09-16,2025-09-26 15:01:15.933,AH,C,4028676356,JASSM,3,126,76,2,2,1,225,9,2,0,1,26,0,0,0,0,-177305.59021170562,-4779368.034150924,4210263.278776646,-2.36684,-0.400465,0.381482,74.5,-31.375,-32.375,0.0,0.0,0.0,0.0,0.0,0.0,2,0,41.54894016804415,-92.12459164617232,10000.000308618186,119.82971134319044,-0.0025413010537634,0.0018108434113258,,8582.48906893005,10960.61793957396,150,11,2025-09-16,2025-09-26 15:01:16.131,AH,C,3380190250,HAWK11,1,1,73,2,1,1,225,2,1,0,0,12,1,225,2,1,-147305.47888358062,-4787711.737275924,4202372.733854771,3.14063,1.51778,-0.889805,-2.5,79.75,92.875,-0.03125,-7.35938,7.48438,0.0,-0.00390625,0.0136719,4,0,41.452097359692246,-91.76228666723668,10836.56737117288,0.8036540046097129,2.440860165956843,-1.011704234927072,192.141,8582.48906893005,10960.61793957396,150,True,17.27523515895688,False,122.28655046507974,169.70973544356966,False,68.00250346724694,False,False
11,1970-07-23 11:25:48.769616768,2025-09-16,2025-09-26 15:01:16.961,AH,C,4029868088,JASSM,3,126,76,2,2,1,225,9,2,0,1,26,0,0,0,0,-177231.14099295562,-4779399.555635299,4210230.851042271,-2.36674,-0.400369,0.381482,74.5,-31.375,-32.375,0.0,0.0,0.0,0.0,0.0,0.0,2,0,41.54855021308144,-92.1236863703466,10000.004063211043,119.8266685243803,-0.0053260125982018,0.0052561711576129,,8582.48906893005,10960.61793957396,150,11,2025-09-16,2025-09-26 15:01:16.832,AH,C,3380945816,HAWK11,1,1,73,2,1,1,225,2,1,0,0,12,1,225,2,1,-147306.87732108062,-4787661.100557174,4202431.364714146,3.13316,1.51749,-0.891722,-2.5,79.75,93.125,-0.171875,-7.42188,7.51562,-0.0253906,0.0117188,-0.0078125,4,0,41.45279409309768,-91.7623220141268,10839.55691489364,0.8121561659520393,2.5515752943496683,-1.4525830978994942,192.765,8582.48906893005,10960.61793957396,150,True,17.213685270231323,False,122.28190675423066,169.55294083584474,False,68.1641843849115,False,False
11,1970-07-23 11:25:48.778292648,2025-09-16,2025-09-26 15:01:17.829,AH,C,4031001632,JASSM,3,126,76,2,2,1,225,9,2,0,1,26,0,0,0,0,-177160.32653983062,-4779429.536104049,4210200.003386021,-2.36674,-0.400369,0.381482,74.5,-31.375,-32.375,0.0,0.0,0.0,0.0,0.0,0.0,2,0,41.54817928129248,-92.12282530298404,9999.999400376984,119.82723962916104,-0.0045824635202953,0.0052548988570999,,8582.48906893005,10960.61793957396,150,11,2025-09-16,2025-09-26 15:01:17.926,AH,C,3382258114,HAWK11,1,1,73,2,1,1,225,2,1,0,0,12,1,225,2,1,-147309.68982108062,-4787574.366182174,4202533.616667271,3.13153,1.5127,-0.914444,-2.75,78.625,94.25,-0.15625,-8.09375,8.21875,-0.00195312,0.0234375,0.0,4,0,41.45399973998353,-91.76238754824652,10848.679381636492,0.958002261104468,3.857615600317617,-1.7534263765597145,192.765,8582.48906893005,10960.61793957396,150,True,17.14314380841261,False,122.36637401157466,169.30198556982154,False,68.3316328472322,False,False
11,1970-07-23 11:25:48.788309587,2025-09-16,2025-09-26 15:01:18.830,AH,C,4032136546,JASSM,3,126,76,2,2,1,225,9,2,0,1,26,0,0,0,0,-177089.42712576812,-4779459.553682174,4210169.118620396,-2.36674,-0.400369,0.381482,74.5,-31.375,-32.375,0.0,0.0,0.0,0.0,0.0,0.0,2,0,41.54780789052066,-92.12196321189558,10000.000846515046,119.82781140873456,-0.0038380182648879,0.0052536187120965,,8582.48906893005,10960.61793957396,150,11,2025-09-16,2025-09-26 15:01:18.926,AH,C,3383212512,HAWK11,1,1,73,2,1,1,225,2,1,0,0,12,1,225,2,1,-147311.77380545562,-4787511.752900924,4202609.505339146,3.13028,1.50656,-0.921539,-2.875,77.75,95.125,-0.0625,-7.90625,8.07812,0.0,0.00390625,0.00976562,4,0,41.45488406596632,-91.76243550005408,10859.777911686591,1.1626923957816206,4.269765433772868,-2.089561136356004,192.532,8582.48906893005,10960.61793957396,150,True,17.07991335981392,False,122.39537808459134,169.10889046903856,False,68.49489134213674,False,False
11,1970-07-23 11:25:48.798330695,2025-09-16,2025-09-26 15:01:19.833,AH,C,4033388622,JASSM,3,126,76,2,2,1,225,9,2,0,1,26,0,0,0,0,-177011.20739920562,-4779492.668916549,4210135.044401646,-2.36674,-0.400369,0.381482,74.5,-31.375,-32.375,0.0,0.0,0.0,0.0,0.0,0.0,2,0,41.547398151959385,-92.1210121227085,10000.00117155519,119.8284422111837,-0.0030167127645564,0.0052522109148892,,8582.48906893005,10960.61793957396,150,11,2025-09-16,2025-09-26 15:01:19.833,AH,C,3384524812,HAWK11,1,1,73,2,1,1,225,2,1,0,0,12,1,225,2,1,-147314.68982108062,-4787425.924775924,4202715.104948521,3.12721,1.50915,-0.9178,-2.875,77.25,95.625,-0.09375,-6.82812,6.8125,-0.0078125,-0.00390625,0.00390625,4,0,41.4561068730834,-91.76250194253896,10878.422895890904,1.077743113939861,4.054640647202025,-2.153459635154256,192.765,8582.48906893005,10960.61793957396,150,True,17.00502397506776,False,122.37705283697487,168.84766877632052,False,68.77335956357003,False,False
11,1970-07-23 11:25:48.808407013,2025-09-16,2025-09-26 15:01:20.840,AH,C,4034581682,JASSM,3,126,76,2,2,1,225,9,2,0,1,26,0,0,0,0,-176936.67517264312,-4779524.221650924,4210102.575651646,-2.36674,-0.400369,0.381482,74.5,-31.375,-32.375,0.0,0.0,0.0,0.0,0.0,0.0,2,0,41.54700772439467,-92.12010588234016,10000.000234521818,119.8290432632505,-0.0022341273186956,0.0052508710545849,,8582.48906893005,10960.61793957396,150,11,2025-09-16,2025-09-26 15:01:20.832,AH,C,3385717810,HAWK11,1,1,73,2,1,1,225,2,1,0,0,12,1,225,2,1,-147317.72888358062,-4787348.760713424,4202809.497526646,3.12069,1.50838,-0.915787,-3.125,77.625,95.25,-0.125,-6.4375,6.51562,0.0,-0.0136719,0.0,4,0,41.45720247337183,-91.76256667079934,10894.037063227424,1.1072139558347236,3.941039825724424,-2.5597396612020997,192.569,8582.48906893005,10960.61793957396,150,True,16.935265281811965,False,122.50724847763126,168.61005205185626,False,68.88163812231316,False,False
11,1970-07-23 11:25:48.818267892,2025-09-16,2025-09-26 15:01:21.826,AH,C,4035775212,JASSM,3,126,76,2,2,1,225,9,2,0,1,26,0,0,0,0,-176862.11364920562,-4779555.786104049,4210070.093229771,-2.36674,-0.400369,0.381482,74.5,-31.375,-32.375,0.0,0.0,0.0,0.0,0.0,0.0,2,0,41.54661713414512,-92.11919929696332,9999.999550885805,119.829644539497,-0.0014512333833064,0.0052495287502414,,8582.48906893005,10960.61793957396,150,11,2025-09-16,2025-09-26 15:01:21.835,AH,C,3386871042,HAWK11,1,1,73,2,1,1,225,2,1,0,0,12,1,225,2,1,-147320.89489920562,-4787272.870088424,4202901.604948521,3.13498,1.50033,-0.913006,-3.25,77.875,95.0,0.09375,-6.6875,6.79688,0.0136719,0.00390625,0.0078125,4,0,41.458275052866696,-91.76263245055172,10907.834386438031,1.393588209514713,3.7904099408306537,-2.087423030158065,192.3,8582.48906893005,10960.61793957396,150,True,16.866172602497006,False,122.5743523236089,168.37498050086464,False,69.05004146286295,False,False
11,1970-07-23 11:25:48.828289081,2025-09-16,2025-09-26 15:01:22.828,AH,C,4036908888,JASSM,3,126,76,2,2,1,225,9,2,0,1,26,0,0,0,0,-176791.29138358062,-4779585.766572799,4210039.239714146,-2.36674,-0.400369,0.381578,74.5,-31.375,-32.375,0.0,0.0,0.0,0.0,0.0,0.0,2,0,41.54624613089264,-92.11833818737236,9999.999813061671,119.8340583759638,-0.0046329686536092,0.005248079289787,,8582.48906893005,10960.61793957396,150,11,2025-09-16,2025-09-26 15:01:22.724,AH,C,3387984508,HAWK11,1,1,73,2,1,1,225,2,1,0,0,12,1,225,2,1,-147323.92224295562,-4787200.098604049,4202989.220182896,3.13172,1.50714,-0.90735,-3.375,78.5,94.5,-0.03125,-6.46875,6.625,-0.00585938,-0.00195312,-0.00195312,4,0,41.45929878384631,-91.76269542647968,10919.536151185765,1.162698050793566,3.4609360490966443,-1.9807571365504748,192.997,8582.48906893005,10960.61793957396,150,True,16.800697992105704,False,122.6506688707501,168.14900710121694,False,69.2002677757501,False,False
11,1970-07-23 11:25:48.838328185,2025-09-16,2025-09-26 15:01:23.832,AH,C,4038100036,JASSM,3,126,76,2,2,1,225,9,2,0,1,26,0,0,0,0,-176716.87829764312,-4779617.266572799,4210006.819792271,-2.36674,-0.400369,0.381578,74.5,-31.375,-32.375,0.0,0.0,0.0,0.0,0.0,0.0,2,0,41.54585629931911,-92.11743342877013,9999.998062538783,119.83465843169162,-0.0038516311123068,0.0052467874306555,,8582.48906893005,10960.61793957396,150,11,2025-09-16,2025-09-26 15:01:23.724,AH,C,3388938906,HAWK11,1,1,73,2,1,1,225,2,1,0,0,12,1,225,2,1,-147326.71521170562,-4787136.827119674,4203064.675261021,3.12597,1.50359,-0.900351,-3.5,78.875,94.5,-0.046875,-6.07812,6.28125,-0.0214844,-0.00195312,0.00390625,4,0,41.460183968858,-91.76275210584936,10928.15873530564,1.2990014433952126,3.0642269850972554,-2.4622145292374022,193.107,8582.48906893005,10960.61793957396,150,True,16.73610041757939,False,122.71189865072574,167.9463578646034,False,69.34174173899453,False,False
11,1970-07-23 11:25:48.847370073,2025-09-16,2025-09-26 15:01:24.737,AH,C,4039235198,JASSM,3,126,76,2,2,1,225,9,2,0,1,26,0,0,0,0,-176645.96228201812,-4779647.286104049,4209975.923307896,-2.36674,-0.400369,0.381578,74.5,-31.375,-32.375,0.0,0.0,0.0,0.0,0.0,0.0,2,0,41.54548478105736,-92.11657119979644,9999.999414569877,119.83523027653416,-0.003107012641545,0.0052455559601134,,8582.48906893005,10960.61793957396,150,11,2025-09-16,2025-09-26 15:01:24.630,AH,C,3390012606,HAWK11,1,1,73,2,1,1,225,2,1,0,0,12,1,225,2,1,-147330.04919608062,-4787064.399385299,4203149.737761021,-3.14015,1.49573,-0.894119,-3.625,79.875,93.875,-0.1875,-6.45312,6.48438,0.0175781,0.0,-0.0136719,4,0,41.46118837816422,-91.76281862554384,10935.195655242502,1.5909876306758128,2.716849483098227,-1.8217068550132056,193.339,8582.48906893005,10960.61793957396,150,True,16.671270823005443,False,122.79089592828508,167.72093949038842,False,69.48756535875755,False,False
11,1970-07-23 11:25:48.858256171,2025-09-16,2025-09-26 15:01:25.825,AH,C,4040486128,JASSM,3,126,76,2,2,1,225,9,2,0,1,26,0,0,0,0,-176567.81482108062,-4779680.364229049,4209941.876432896,-2.36674,-0.400273,0.381578,74.5,-31.375,-32.375,0.0,0.0,0.0,0.0,0.0,0.0,2,0,41.54507538732689,-92.1156210602054,9999.999129557047,119.83221743910732,-0.0058528881522349,0.0031988927838644,,8582.48906893005,10960.61793957396,150,11,2025-09-16,2025-09-26 15:01:25.520,AH,C,3391324904,HAWK11,1,1,73,2,1,1,225,2,1,0,0,12,1,225,2,1,-147334.11560233062,-4786976.262666549,4203252.058073521,-3.14044,1.50436,-0.881943,-3.75,80.875,93.375,-0.03125,-5.95312,6.09375,0.0195312,-0.0117188,0.00976562,4,0,41.4624025970413,-91.76289968682724,10941.17976204536,1.2998228638644658,2.011394301336356,-1.4665467238719827,193.498,8582.48906893005,10960.61793957396,150,True,16.597874503744123,False,122.86377221438515,167.44977556456635,False,69.68409463124134,False,False
11,1970-07-23 11:25:48.868275175,2025-09-16,2025-09-26 15:01:26.827,AH,C,4041680134,JASSM,3,126,76,2,2,1,225,9,2,0,1,26,0,0,0,0,-176493.22302420562,-4779711.938447799,4209909.376432896,-2.36674,-0.400273,0.381578,74.5,-31.375,-32.375,0.0,0.0,0.0,0.0,0.0,0.0,2,0,41.54468459161392,-92.11471416209572,10000.000766118192,119.8328188999614,-0.0050696712970249,0.0031975421423921,,8582.48906893005,10960.61793957396,150,11,2025-09-16,2025-09-26 15:01:27.020,AH,C,3393114402,HAWK11,1,1,73,2,1,1,225,2,1,0,0,12,1,225,2,1,-147339.96130545562,-4786853.967744674,4203391.237761021,-3.10478,1.49448,-0.880122,-3.75,81.875,92.75,-0.046875,-6.5625,6.51562,0.00976562,0.0078125,0.0,4,0,41.46406850455982,-91.76301460045202,10943.440375314847,1.6630191367712437,1.91969782175096,0.1530600462836127,193.693,8582.48906893005,10960.61793957396,150,True,16.517625577542155,False,122.87815701617872,167.090144150462,False,70.0261677374879,False,False
11,1970-07-23 11:25:48.877328428,2025-09-16,2025-09-26 15:01:27.732,AH,C,4042813958,JASSM,3,126,76,2,2,1,225,9,2,0,1,26,0,0,0,0,-176422.39099295562,-4779741.918916549,4209878.515104771,-2.36674,-0.400273,0.381578,74.5,-31.375,-32.375,0.0,0.0,0.0,0.0,0.0,0.0,2,0,41.5443135041812,-92.11385298688394,10000.001523789466,119.8333900327821,-0.004325941211773,0.00319627396381,,8582.48906893005,10960.61793957396,150,11,2025-09-16,2025-09-26 15:01:28.130,AH,C,3394426702,HAWK11,1,1,73,2,1,1,225,2,1,0,0,12,1,225,2,1,-147344.04919608062,-4786762.803682174,4203494.058073521,-3.09097,1.48978,-0.871301,-3.5,82.375,92.75,0.046875,-6.5625,6.45312,0.00195312,-0.0078125,-0.00390625,4,0,41.46530412052004,-91.76309704015662,10943.095384330562,1.8534619085329007,1.422071933395651,0.7429985184593136,194.72,8582.48906893005,10960.61793957396,150,True,16.449158763829153,False,122.76299182780001,166.81325524880455,False,70.4169333232015,False,False
11,1970-07-23 11:25:48.887290690,2025-09-16,2025-09-26 15:01:28.729,AH,C,4044006780,JASSM,3,126,76,2,2,1,225,9,2,0,1,26,0,0,0,0,-176347.87341483062,-4779773.457979049,4209846.046354771,-2.36674,-0.400273,0.381578,74.5,-31.375,-32.375,0.0,0.0,0.0,0.0,0.0,0.0,2,0,41.54392309831356,-92.11294701405436,9999.9992367447,119.83399087093328,-0.0035435120786635,0.0031949369867032,,8582.48906893005,10960.61793957396,150,11,2025-09-16,2025-09-26 15:01:28.725,AH,C,3394943668,HAWK11,1,1,73,2,1,1,225,2,1,0,0,12,1,225,2,1,-147345.38708670562,-4786727.545869674,4203533.599089146,-3.08819,1.48739,-0.870438,-3.375,82.125,93.125,-0.15625,-6.60938,6.46875,0.0,0.0,-0.00195312,4,0,41.46578052460271,-91.76312601749672,10942.457664260208,1.9437759957506224,1.376553340812355,0.7995034563238629,194.989,8582.48906893005,10960.61793957396,150,True,16.394100344159195,False,122.69828213340621,166.68172922155847,False,70.61475531116346,False,False
11,1970-07-23 11:25:48.896349224,2025-09-16,2025-09-26 15:01:29.634,AH,C,4045080702,JASSM,3,126,76,2,2,1,225,9,2,0,1,26,0,0,0,0,-176280.78357108062,-4779801.852510299,4209816.813932896,-2.36674,-0.400273,0.381578,74.5,-31.375,-32.375,0.0,0.0,0.0,0.0,0.0,0.0,2,0,41.5435716052362,-92.1121313561081,9999.998401224882,119.8345318085876,-0.0028390758823643,0.0031937367570899,,8582.48906893005,10960.61793957396,150,11,2025-09-16,2025-09-26 15:01:29.724,AH,C,3396375266,HAWK11,1,1,73,2,1,1,225,2,1,0,0,12,1,225,2,1,-147349.20935233062,-4786627.803682174,4203645.036589146,-3.05952,1.4732,-0.869575,-2.875,82.875,93.0,-0.265625,-7.07812,6.89062,0.0195312,0.00390625,0.00585938,4,0,41.46712539248243,-91.76320844283302,10939.74830775028,2.469786930798633,1.3519649244060483,1.8332025045920228,195.453,8582.48906893005,10960.61793957396,150,True,16.326654396775957,False,122.47158314358745,166.38106631869135,False,71.13981386368067,False,False
11,1970-07-23 11:25:48.906231312,2025-09-16,2025-09-26 15:01:30.623,AH,C,4046213818,JASSM,3,126,76,2,2,1,225,9,2,0,1,26,0,0,0,0,-176209.99548514312,-4779831.813447799,4209785.968229771,-2.36674,-0.400273,0.381578,74.5,-31.375,-32.375,0.0,0.0,0.0,0.0,0.0,0.0,2,0,41.54320071046285,-92.11127074510776,9999.999789103338,119.83510255466253,-0.002095798302495,0.00319245336649,,8582.48906893005,10960.61793957396,150,11,2025-09-16,2025-09-26 15:01:30.520,AH,C,3397289898,HAWK11,1,1,73,2,1,1,225,2,1,0,0,12,1,225,2,1,-147351.21716483062,-4786563.850557174,4203716.552214146,-3.08158,1.4662,-0.869767,-2.625,83.25,93.125,0.0,-7.32812,7.0625,-0.0800781,0.00585938,0.0136719,4,0,41.467988211074776,-91.76325599715037,10938.121953648795,2.727568846165959,1.3774202384277514,0.2695845422126295,195.832,8582.48906893005,10960.61793957396,150,True,16.266913280675514,False,122.35564487805023,166.17184254187387,False,71.46420671981556,False,False
11,1970-07-23 11:25:48.915603240,2025-09-16,2025-09-26 15:01:31.560,AH,C,4047347060,JASSM,3,126,76,2,2,1,225,9,2,0,1,26,0,0,0,0,-176139.19958670562,-4779861.774385299,4209755.120573521,-2.36674,-0.400273,0.381578,74.5,-31.375,-32.375,0.0,0.0,0.0,0.0,0.0,0.0,2,0,41.542829797786375,-92.1104100504225,9999.999746087722,119.83567335204866,-0.0013524542649337,0.0031911948495939,,8582.48906893005,10960.61793957396,150,11,2025-09-16,2025-09-26 15:01:31.360,AH,C,3398204530,HAWK11,1,1,73,2,1,1,225,2,1,0,0,12,1,225,2,1,-147353.26208670562,-4786500.176729049,4203788.171354771,-3.10775,1.45719,-0.872356,-2.625,82.875,93.625,-0.203125,-7.42188,7.15625,-0.0253906,0.0078125,0.0,4,0,41.46885005722999,-91.76330389369984,10937.41434551689,3.0509172580779347,1.545841799434586,-1.616749158944936,196.137,8582.48906893005,10960.61793957396,150,True,16.207389052595637,False,122.34710445070706,165.96127412920703,False,71.68578487496083,False,False
11,1970-07-23 11:25:48.925348729,2025-09-16,2025-09-26 15:01:32.534,AH,C,4048480136,JASSM,3,126,76,2,2,1,225,9,2,0,1,26,0,0,0,0,-176068.41443045562,-4779891.731416549,4209724.274870396,-2.36674,-0.400273,0.381674,74.5,-31.375,-32.375,0.0,0.0,0.0,0.0,0.0,0.0,2,0,41.54245891273763,-92.10954949588702,9999.998863742054,119.84008691882718,-0.0045344377901154,0.0031897448594481,,8582.48906893005,10960.61793957396,150,11,2025-09-16,2025-09-26 15:01:32.428,AH,C,3399516830,HAWK11,1,1,73,2,1,1,225,2,1,0,0,12,1,225,2,1,-147355.74060233062,-4786408.975557174,4203891.630339146,-3.12117,1.46131,-0.881943,-2.625,82.625,94.375,-0.171875,-8.01562,7.76562,-0.00390625,0.0253906,0.0,4,0,41.470090495198015,-91.76336711184038,10938.281725246825,2.866816709034392,2.0862546750157067,-2.209895418246297,196.785,8582.48906893005,10960.61793957396,150,True,16.14130503089209,False,122.33412893439687,165.67251969226425,False,71.98977840124437,False,False
