Subject_cm,Timestamp,SampleDate_cm,SampleTime_cm,Configuration_cm,Scenario_cm,DisTime_cm,MarkingTxt_cm,Application_cm,EntId_cm,Site_cm,ExerciseId_cm,ForceId_cm,Category_cm,Country_cm,Domain_cm,Kind_cm,Extra_cm,Specific_cm,Subcategory_cm,AltCategory_cm,AltCountry_cm,AltDomain_cm,AltKind_cm,ECEF_X_cm,ECEF_Y_cm,ECEF_Z_cm,OriPhi_cm,OriPsi_cm,OriTheta_cm,LinVelX_cm,LinVelY_cm,LinVelZ_cm,LinAccX_cm,LinAccY_cm,LinAccZ_cm,AngVelX_cm,AngVelY_cm,AngVelZ_cm,DrAlg_cm,Appearance_cm,Latitude_cm,Longitude_cm,Altitude_cm,Heading_cm,Pitch_cm,Roll_cm,CalibratedAirspeed_cm,CM_Altitude_Lead_cm,CM_Altitude_Wing_cm,CM_Airspeed_cm,Subject_ac,SampleDate_ac,SampleTime_ac,Configuration_ac,Scenario_ac,DisTime_ac,MarkingTxt_ac,Application_ac,EntId_ac,Site_ac,ExerciseId_ac,ForceId_ac,Category_ac,Country_ac,Domain_ac,Kind_ac,Extra_ac,Specific_ac,Subcategory_ac,AltCategory_ac,AltCountry_ac,AltDomain_ac,AltKind_ac,ECEF_X_ac,ECEF_Y_ac,ECEF_Z_ac,OriPhi_ac,OriPsi_ac,OriTheta_ac,LinVelX_ac,LinVelY_ac,LinVelZ_ac,LinAccX_ac,LinAccY_ac,LinAccZ_ac,AngVelX_ac,AngVelY_ac,AngVelZ_ac,DrAlg_ac,Appearance_ac,Latitude_ac,Longitude_ac,Altitude_ac,Heading_ac,Pitch_ac,Roll_ac,CalibratedAirspeed_ac,CM_Altitude_Lead_ac,CM_Altitude_Wing_ac,CM_Airspeed_ac,Bank_Angle_Condition,distance_nm,Distance_Condition,angle_between_vel,angle_between_pos,Cone_Condition,angle_between_pos_nose,Nose_Cone_Condition,Intercept_Criteria
11,1970-07-23 11:25:55.632422501,2025-09-16,2025-09-26 15:12:43.242,AA,C,553690406,JASSM,3,139,76,2,2,1,225,9,2,0,1,26,0,0,0,0,-188278.2503679556,-4786085.801729049,4202202.251432896,-2.30155,-0.153302,0.128183,86.0,-13.125,-11.125,0.0,0.0,0.0,0.0,0.0,0.0,2,0,41.4520771438212,-92.25277816556157,10000.000669084036,99.81614953750062,-0.0043878182373503,0.0023910267763046,,8749.224682894945,11121.848502006404,150,11,2025-09-16,2025-09-26 15:12:43.207,AA,C,588721502,AMBUSH51,1,1,48,2,1,1,225,2,1,0,0,9,1,225,2,1,-146243.38444037334,-4792354.596398972,4196187.40447797,2.25224,2.80506,-0.332576,-100.075,39.4778,41.6068,-0.0982541,-7.06832,6.31224,0.011875,-0.00811536,-0.0119353,4,0,41.382916965588485,-91.74789428513571,8749.445072347151,-64.32834339005254,0.1244633718738321,-5.275934788914424,185.347,8749.224682894945,11121.848502006404,150,True,23.081003541699275,False,161.3921532754584,179.20806308248189,False,18.160976714491266,True,False
11,1970-07-23 11:25:55.643442501,2025-09-16,2025-09-26 15:12:44.344,AA,C,555002048,JASSM,3,139,76,2,2,1,225,9,2,0,1,26,0,0,0,0,-188183.64685233065,-4786100.428682174,4202189.913542271,-2.30155,-0.153302,0.128183,86.0,-13.125,-11.125,0.0,0.0,0.0,0.0,0.0,0.0,2,0,41.451928994832826,-92.2516405110998,10000.002293835594,99.81690265616368,-0.0035223601066433,0.0023904241390703,,8749.224682894945,11121.848502006404,150,11,2025-09-16,2025-09-26 15:12:44.274,AA,C,589994034,AMBUSH51,1,1,48,2,1,1,225,2,1,0,0,9,1,225,2,1,-146349.34601842373,-4792312.8455188405,4196230.901132307,2.26742,2.81259,-0.326932,-100.346,39.1302,40.9451,-0.0876244,-7.38813,6.71823,0.0604382,0.0104706,-0.00558744,4,0,41.38343976051722,-91.74917517595637,8749.0180525059,-64.84562561494702,0.1922317225480102,-4.268242864258999,185.42,8749.224682894945,11121.848502006404,150,True,22.966834341848404,False,161.7752087103996,179.23253051756635,False,17.830744280594594,True,False
11,1970-07-23 11:25:55.654448812,2025-09-16,2025-09-26 15:12:45.444,AA,C,556313216,JASSM,3,139,76,2,2,1,225,9,2,0,1,26,0,0,0,0,-188089.07653983065,-4786115.049775924,4202177.577604771,-2.30155,-0.153302,0.128183,86.0,-13.125,-11.125,0.0,0.0,0.0,0.0,0.0,0.0,2,0,41.45178087487815,-92.25050326143764,10000.001752690718,99.8176555046402,-0.0026572039593032,0.0023898100841568,,8749.224682894945,11121.848502006404,150,11,2025-09-16,2025-09-26 15:12:45.408,AA,C,591346098,AMBUSH51,1,1,48,2,1,1,225,2,1,0,0,9,1,225,2,1,-146463.98207373233,-4792268.457325977,4196277.040207136,2.33461,2.81738,-0.321882,-100.583,38.7029,40.7524,-0.187892,-7.28694,6.49479,0.0749316,-0.0074142,0.0114214,4,0,41.3839944933172,-91.75056066428893,8748.493300798029,-65.23511623348011,0.178410470120502,-0.3321697338195627,185.261,8749.224682894945,11121.848502006404,150,True,22.847730707257018,False,162.014753323204,179.25576482238455,False,17.64032280006233,True,False
11,1970-07-23 11:25:55.665326450,2025-09-16,2025-09-26 15:12:46.532,AA,C,557625566,JASSM,3,139,76,2,2,1,225,9,2,0,1,26,0,0,0,0,-187994.42028983065,-4786129.680635299,4202165.231901646,-2.30155,-0.153302,0.128183,86.0,-13.125,-11.125,0.0,0.0,0.0,0.0,0.0,0.0,2,0,41.45163263976432,-92.2493649851734,10000.00048309451,99.81840903050067,-0.0017912680651819,0.0023892254684424,,8749.224682894945,11121.848502006404,150,11,2025-09-16,2025-09-26 15:12:46.508,AA,C,592658398,AMBUSH51,1,1,48,2,1,1,225,2,1,0,0,9,1,225,2,1,-146573.94600113318,-4792225.832183278,4196321.492274073,2.40341,2.81114,-0.325918,-100.465,39.0258,40.9204,-0.250756,-7.35315,6.54906,0.0476612,-0.00048998,0.0172346,4,0,41.38452818175532,-91.75188972442272,8748.304555182394,-64.83405367330018,0.0975027971048944,3.496448521581729,185.225,8749.224682894945,11121.848502006404,150,True,22.731320956147407,False,161.84114157911932,179.2754450139927,False,17.86788425907198,True,False
11,1970-07-23 11:25:55.676343005,2025-09-16,2025-09-26 15:12:47.634,AA,C,558878266,JASSM,3,139,76,2,2,1,225,9,2,0,1,26,0,0,0,0,-187904.0667742056,-4786143.647432174,4202153.444792271,-2.30155,-0.153302,0.128183,86.0,-13.125,-11.125,0.0,0.0,0.0,0.0,0.0,0.0,2,0,41.451491108878834,-92.2482784552381,10000.00056325303,99.81912829881664,-0.0009646901415241,0.0023886442920122,,8749.224682894945,11121.848502006404,150,11,2025-09-16,2025-09-26 15:12:47.642,AA,C,594010462,AMBUSH51,1,1,48,2,1,1,225,2,1,0,0,9,1,225,2,1,-146688.2587383304,-4792181.210650427,4196368.015116095,2.44109,2.80456,-0.331385,-100.063,39.4909,41.4784,-0.251678,-7.31434,6.71647,0.0272735,-0.00414975,-0.0072103,4,0,41.38508691992831,-91.7532714823549,8748.031102695923,-64.36163164816169,0.0618004504534503,5.5344447037701485,185.261,8749.224682894945,11121.848502006404,150,True,22.614691082738315,False,161.4285705765535,179.29296985008122,False,18.33492837863711,True,False
11,1970-07-23 11:25:55.686387959,2025-09-16,2025-09-26 15:12:48.638,AA,C,560132504,JASSM,3,139,76,2,2,1,225,9,2,0,1,26,0,0,0,0,-187813.6019304556,-4786157.629854049,4202141.642057896,-2.30145,-0.153206,0.128183,86.0,-13.125,-11.125,0.0,0.0,0.0,0.0,0.0,0.0,2,0,41.45134939532205,-92.24719059202168,9999.998729858318,99.81621207798868,-0.00419403226077,0.0071774666900666,,8749.224682894945,11121.848502006404,150,11,2025-09-16,2025-09-26 15:12:48.774,AA,C,595362528,AMBUSH51,1,1,48,2,1,1,225,2,1,0,0,9,1,225,2,1,-146800.68281064284,-4792136.308755668,4196415.125803383,2.44442,2.79609,-0.341079,-99.5613,39.9284,42.4946,-0.260798,-7.43062,6.74998,-0.0300323,0.00882276,0.00737259,4,0,41.38565162255984,-91.75463080647089,8748.209412832608,-63.6451962352477,0.1244536982276105,5.566212216964445,185.261,8749.224682894945,11121.848502006404,150,True,22.498951441752226,False,160.84571775696836,179.30727905537807,False,18.968494805926564,True,False
11,1970-07-23 11:25:55.697406433,2025-09-16,2025-09-26 15:12:49.740,AA,C,561443316,JASSM,3,139,76,2,2,1,225,9,2,0,1,26,0,0,0,0,-187719.05700858065,-4786172.243135299,4202129.306120396,-2.30145,-0.153206,0.128279,86.0,-13.125,-11.125,0.0,0.0,0.0,0.0,0.0,0.0,2,0,41.45120127194259,-92.24605366975764,10000.000142382602,99.82105522067792,-0.0069955348548744,0.0071764297378902,,8749.224682894945,11121.848502006404,150,11,2025-09-16,2025-09-26 15:12:49.674,AA,C,596436226,AMBUSH51,1,1,48,2,1,1,225,2,1,0,0,9,1,225,2,1,-146890.65393132786,-4792099.925967293,4196453.4976176005,2.40951,2.78717,-0.346097,-99.1912,40.214,43.0299,-0.315237,-7.22478,6.47578,-0.0475738,0.00728312,0.00546676,4,0,41.386110724524166,-91.75571883218028,8748.7078511875,-63.10344785868473,-0.0155443600596245,3.394601193143351,185.188,8749.224682894945,11121.848502006404,150,True,22.394114624965322,False,160.49719686709867,179.31560433815454,False,19.361590021706867,True,False
11,1970-07-23 11:25:55.707591455,2025-09-16,2025-09-26 15:12:50.759,AA,C,562697248,JASSM,3,139,76,2,2,1,225,9,2,0,1,26,0,0,0,0,-187628.61560233065,-4786186.219697799,4202117.505339146,-2.30145,-0.153206,0.128279,86.0,-13.125,-11.125,0.0,0.0,0.0,0.0,0.0,0.0,2,0,41.45105957992644,-92.244966099113,9999.999356087215,99.82177517184252,-0.0061681554820013,0.0071758619527034,,8749.224682894945,11121.848502006404,150,11,2025-09-16,2025-09-26 15:12:50.840,AA,C,597828058,AMBUSH51,1,1,48,2,1,1,225,2,1,0,0,9,1,225,2,1,-147005.43364592173,-4792052.888066319,4196503.234810958,2.34246,2.78688,-0.350194,-98.9612,40.3491,43.4155,-0.359621,-7.62937,7.00839,-0.0861605,0.00178411,0.00656532,4,0,41.386705408136095,-91.75710711999456,8749.521407199156,-62.92638456027887,0.1394918916714909,-0.452912601934369,185.225,8749.224682894945,11121.848502006404,150,True,22.276833554328626,False,160.27398627553538,179.322451116981,False,19.64390955538579,True,False
11,1970-07-23 11:25:55.718464492,2025-09-16,2025-09-26 15:12:51.846,AA,C,564009638,JASSM,3,139,76,2,2,1,225,9,2,0,1,26,0,0,0,0,-187533.9573992056,-4786200.846650924,4202105.153776646,-2.30145,-0.153206,0.128279,86.0,-13.125,-11.125,0.0,0.0,0.0,0.0,0.0,0.0,2,0,41.45091127419299,-92.24382782655238,9999.998868624776,99.8225286845468,-0.0053022008888526,0.0071752711594695,,8749.224682894945,11121.848502006404,150,11,2025-09-16,2025-09-26 15:12:51.774,AA,C,598941524,AMBUSH51,1,1,48,2,1,1,225,2,1,0,0,9,1,225,2,1,-147098.29268748936,-4792015.003878942,4196543.626923427,2.28208,2.78664,-0.348201,-99.0037,40.1379,43.2358,-0.060821,-7.25151,6.40165,-0.0333051,-0.00308448,0.00280568,4,0,41.38718653122498,-91.75823022803309,8750.939033076873,-62.999108936087936,0.0508263748971298,-3.917122238591858,185.273,8749.224682894945,11121.848502006404,150,True,22.17018753917469,False,160.40087639769416,179.32385918483465,False,19.566559470228,True,False
11,1970-07-23 11:25:55.730322406,2025-09-16,2025-09-26 15:12:53.032,AA,C,565320716,JASSM,3,139,76,2,2,1,225,9,2,0,1,26,0,0,0,0,-187439.39294608065,-4786215.459932174,4202092.811979771,-2.30145,-0.153206,0.128279,86.0,-13.125,-11.125,0.0,0.0,0.0,0.0,0.0,0.0,2,0,41.45076308259869,-92.2426906861392,9999.999806382306,99.82328144558068,-0.0044370999709003,0.0071746597782106,,8749.224682894945,11121.848502006404,150,11,2025-09-16,2025-09-26 15:12:52.974,AA,C,600373122,AMBUSH51,1,1,48,2,1,1,225,2,1,0,0,9,1,225,2,1,-147216.55720595134,-4791967.118661542,4196594.527188736,2.25137,2.79357,-0.337271,-99.3852,39.839,42.4944,-0.269529,-7.37906,6.46431,-0.0204242,-0.00388343,-0.00711251,4,0,41.38779344077732,-91.7596604995321,8752.470794913903,-63.70887085581674,-0.1210603250781608,-5.542952908979287,185.188,8749.224682894945,11121.848502006404,150,True,22.048706691390557,False,160.82561826846072,179.32056677245353,False,19.20996790847632,True,False
11,1970-07-23 11:25:55.741342174,2025-09-16,2025-09-26 15:12:54.134,AA,C,566574856,JASSM,3,139,76,2,2,1,225,9,2,0,1,26,0,0,0,0,-187348.9339617056,-4786229.436494674,4202081.007292271,-2.30145,-0.153206,0.128279,86.0,-13.125,-11.125,0.0,0.0,0.0,0.0,0.0,0.0,2,0,41.450621336526,-92.24160292002765,10000.002363580905,99.82400151987927,-0.0036095615686899,0.0071740968137676,,8749.224682894945,11121.848502006404,150,11,2025-09-16,2025-09-26 15:12:54.141,AA,C,601764954,AMBUSH51,1,1,48,2,1,1,225,2,1,0,0,9,1,225,2,1,-147333.1092538915,-4791920.8334167525,4196643.506475788,2.21458,2.8009,-0.331878,-99.9697,39.2222,41.5819,-0.0276777,-7.26827,6.73385,-0.040298,0.00449721,0.00785737,4,0,41.38837815804937,-91.761069753546,8753.652173546265,-64.20783560263733,-0.0535602223125578,-7.51203251064339,185.261,8749.224682894945,11121.848502006404,150,True,21.930663205903915,False,161.44394073398,179.31161706566252,False,18.655257724380615,True,False
11,1970-07-23 11:25:55.751583661,2025-09-16,2025-09-26 15:12:55.158,AA,C,567885766,JASSM,3,139,76,2,2,1,225,9,2,0,1,26,0,0,0,0,-187254.3831804556,-4786244.043916549,4202068.665495396,-2.30145,-0.153206,0.128279,86.0,-13.125,-11.125,0.0,0.0,0.0,0.0,0.0,0.0,2,0,41.45047315462849,-92.24046595589718,9999.999569090594,99.82475415988708,-0.0027445887276649,0.0071734953293078,,8749.224682894945,11121.848502006404,150,11,2025-09-16,2025-09-26 15:12:55.075,AA,C,602878420,AMBUSH51,1,1,48,2,1,1,225,2,1,0,0,9,1,225,2,1,-147425.84053008255,-4791884.934810932,4196681.544141687,2.17318,2.80915,-0.321558,-100.69,38.5248,40.8729,-0.127264,-7.00983,6.71294,-0.0460363,-0.00570395,-0.0249286,4,0,41.38883155752102,-91.76219066313776,8754.859063078628,-64.94451148787435,-0.1453256033105119,-9.73124692851858,185.713,8749.224682894945,11121.848502006404,150,True,21.824515589700095,False,162.04835613558907,179.30065875432277,False,18.097057117612557,True,False
11,1970-07-23 11:25:55.762402646,2025-09-16,2025-09-26 15:12:56.240,AA,C,569198374,JASSM,3,139,76,2,2,1,225,9,2,0,1,26,0,0,0,0,-187159.7073992056,-4786258.668916549,4202056.308073521,-2.30145,-0.153206,0.128279,86.0,-13.125,-11.125,0.0,0.0,0.0,0.0,0.0,0.0,2,0,41.45032478054853,-92.23932749464868,9999.998800245285,99.82550778872928,-0.0018784754899168,0.0071729076660465,,8749.224682894945,11121.848502006404,150,11,2025-09-16,2025-09-26 15:12:56.274,AA,C,604310018,AMBUSH51,1,1,48,2,1,1,225,2,1,0,0,9,1,225,2,1,-147547.96866585867,-4791839.1964502,4196729.5770049,2.12679,2.82519,-0.301894,-101.966,37.3606,39.5498,0.0829221,-7.08719,6.77161,-0.00171337,0.000535753,-0.0215414,4,0,41.389405579020334,-91.76366637063263,8755.771999211527,-66.36320497736521,-0.3001056659008192,-12.101946991100494,186.386,8749.224682894945,11121.848502006404,150,False,21.701367356918468,False,163.11851510318638,179.28275794531186,False,17.085655717526347,True,False
11,1970-07-23 11:25:55.772443218,2025-09-16,2025-09-26 15:12:57.244,AA,C,570451982,JASSM,3,139,76,2,2,1,225,9,2,0,1,26,0,0,0,0,-187069.2894304556,-4786272.637666549,4202044.505339146,-2.30145,-0.153206,0.128279,86.0,-13.125,-11.125,0.0,0.0,0.0,0.0,0.0,0.0,2,0,41.450183052804086,-92.238240237075,10000.00386288502,99.82622752012962,-0.0010513103402141,0.0071723308067674,,8749.224682894945,11121.848502006404,150,11,2025-09-16,2025-09-26 15:12:57.174,AA,C,605383718,AMBUSH51,1,1,48,2,1,1,225,2,1,0,0,9,1,225,2,1,-147639.36435194573,-4791806.213558289,4196764.034265625,2.18705,2.83904,-0.288224,-102.906,36.6142,38.4488,0.135434,-7.25235,6.94643,0.114773,-0.00341322,-0.00690653,4,0,41.38981767948588,-91.76477028794224,8756.297655258702,-67.45489950888884,-0.2939512337765645,-8.4131415863259,186.703,8749.224682894945,11121.848502006404,150,True,21.598689115255503,False,163.916253918629,179.26676139678253,False,16.333293569469205,True,False
11,1970-07-23 11:25:55.783322123,2025-09-16,2025-09-26 15:12:58.332,AA,C,571705088,JASSM,3,139,76,2,2,1,225,9,2,0,1,26,0,0,0,0,-186978.90466483065,-4786286.598604049,4202032.704557896,-2.30145,-0.15311,0.128279,86.0,-13.125,-11.125,0.0,0.0,0.0,0.0,0.0,0.0,2,0,41.45004136674104,-92.23715338474578,10000.00152686943,99.82331070659872,-0.004281382248364,0.0064691674442619,,8749.224682894945,11121.848502006404,150,11,2025-09-16,2025-09-26 15:12:58.174,AA,C,606576716,AMBUSH51,1,1,48,2,1,1,225,2,1,0,0,9,1,225,2,1,-147742.6141508324,-4791769.843444509,4196801.704436206,2.29277,2.84944,-0.27882,-103.644,36.0441,37.9817,-0.0155261,-7.38758,7.00858,0.119013,0.0063531,-0.000338097,4,0,41.39026943683687,-91.76601707308784,8756.364265694121,-68.24043305064015,-0.2507445103500091,-2.185258261263035,186.862,8749.224682894945,11121.848502006404,150,True,21.489308957551057,False,164.39897137097643,179.24687204826617,False,15.893841465417443,True,False
11,1970-07-23 11:25:55.794352819,2025-09-16,2025-09-26 15:12:59.435,AA,C,573015866,JASSM,3,139,76,2,2,1,225,9,2,0,1,26,0,0,0,0,-186884.3636492056,-4786301.200166549,4202020.360807896,-2.30145,-0.15311,0.128279,86.0,-13.125,-11.125,0.0,0.0,0.0,0.0,0.0,0.0,2,0,41.44989316028972,-92.23601656032876,9999.999728182373,99.82406324550522,-0.0034165009029376,0.0064685147691775,,8749.224682894945,11121.848502006404,150,11,2025-09-16,2025-09-26 15:12:59.574,AA,C,608246914,AMBUSH51,1,1,48,2,1,1,225,2,1,0,0,9,1,225,2,1,-147887.93406722878,-4791719.359715759,4196854.412793182,2.40776,2.84796,-0.284586,-103.996,36.0303,38.6451,-0.282494,-7.09546,6.87489,0.0152768,-0.00423297,0.0146463,4,0,41.39089894719064,-91.76777164179344,8757.531518906433,-67.94609270996258,-0.0806123733443869,4.378945580343389,187.461,8749.224682894945,11121.848502006404,150,True,21.353374602925438,False,164.25096021761132,179.2162515796829,False,16.096722217928598,True,False
11,1970-07-23 11:25:55.805363473,2025-09-16,2025-09-26 15:13:00.536,AA,C,574269528,JASSM,3,139,76,2,2,1,225,9,2,0,1,26,0,0,0,0,-186793.93982108065,-4786315.165010299,4202008.554167271,-2.30145,-0.15311,0.128375,86.0,-13.125,-11.125,0.0,0.0,0.0,0.0,0.0,0.0,2,0,41.4497513995085,-92.23492924895824,9999.999452384996,99.8288735713096,-0.0062556594716763,0.0064675765714846,,8749.224682894945,11121.848502006404,150,11,2025-09-16,2025-09-26 15:13:00.541,AA,C,609400146,AMBUSH51,1,1,48,2,1,1,225,2,1,0,0,9,1,225,2,1,-147989.2729244029,-4791683.94599497,4196891.890039464,2.37993,2.84001,-0.291647,-103.986,36.2849,39.3077,-0.144123,-7.19319,6.76633,-0.0873839,-0.00953641,0.0076285,4,0,41.39134403158249,-91.768995287429,8759.403853127538,-67.35279668612726,-0.1163492904556412,2.6538618269168324,187.779,8749.224682894945,11121.848502006404,150,True,21.24509949939634,False,163.95089514819182,179.19157615817633,False,16.438764141389854,True,False
11,1970-07-23 11:25:55.815402645,2025-09-16,2025-09-26 15:13:01.540,AA,C,575582504,JASSM,3,139,76,2,2,1,225,9,2,0,1,26,0,0,0,0,-186699.2386492056,-4786329.790010299,4201996.188932896,-2.30145,-0.15311,0.128375,86.0,-13.125,-11.125,0.0,0.0,0.0,0.0,0.0,0.0,2,0,41.449602923815455,-92.2337905094669,10000.002580758122,99.82962737362406,-0.0053893140005324,0.0064669882826796,,8749.224682894945,11121.848502006404,150,11,2025-09-16,2025-09-26 15:13:01.541,AA,C,610593146,AMBUSH51,1,1,48,2,1,1,225,2,1,0,0,9,1,225,2,1,-148093.07012419502,-4791647.215162933,4196930.743172562,2.27638,2.83482,-0.294948,-104.19,36.5003,39.4287,-0.0846772,-7.0609,6.69252,-0.16473,0.00750783,0.000604413,4,0,41.39180577534356,-91.7702488032243,8761.214200007189,-67.02008210227567,-0.1902025828338317,-3.366119148032766,188.536,8749.224682894945,11121.848502006404,150,True,21.13300388465602,False,163.89774746027993,179.16341569631288,False,16.543210501740525,True,False
11,1970-07-23 11:25:55.827422775,2025-09-16,2025-09-26 15:13:02.742,AA,C,576953244,JASSM,3,139,76,2,2,1,225,9,2,0,1,26,0,0,0,0,-186600.36950858065,-4786345.055635299,4201983.276823521,-2.30145,-0.15311,0.128375,86.0,-13.125,-11.125,0.0,0.0,0.0,0.0,0.0,0.0,2,0,41.44944790161583,-92.23260165896562,9999.997698021316,99.83041434515523,-0.004484840168975,0.0064663740776973,,8749.224682894945,11121.848502006404,150,11,2025-09-16,2025-09-26 15:13:02.740,AA,C,612024744,AMBUSH51,1,1,48,2,1,1,225,2,1,0,0,9,1,225,2,1,-148218.30365897148,-4791603.551677061,4196977.03180832,2.14094,2.84204,-0.285309,-105.044,35.8268,38.5738,-0.00503142,-7.14939,6.74705,-0.0544856,-0.00936164,-0.0124909,4,0,41.392355002718176,-91.77176097876534,8763.737662982236,-67.6941357800445,-0.2843510268558517,-11.005328981842885,189.282,8749.224682894945,11121.848502006404,150,False,21.00630542176551,False,164.56000000614057,179.12772086803685,False,15.939893172966793,True,False
11,1970-07-23 11:25:55.838464136,2025-09-16,2025-09-26 15:13:03.846,AA,C,578207012,JASSM,3,139,76,2,2,1,225,9,2,0,1,26,0,0,0,0,-186509.93982108065,-4786359.018525924,4201971.466276646,-2.30145,-0.15311,0.128375,86.0,-13.125,-11.125,0.0,0.0,0.0,0.0,0.0,0.0,2,0,41.44930609518418,-92.23151429334116,9999.997302783648,99.83113413563356,-0.0036575708849648,0.0064658062304611,,8749.224682894945,11121.848502006404,150,11,2025-09-16,2025-09-26 15:13:03.840,AA,C,613337042,AMBUSH51,1,1,48,2,1,1,225,2,1,0,0,9,1,225,2,1,-148334.2923584612,-4791564.50970122,4197017.942534862,2.1054,2.85671,-0.262255,-106.176,34.9677,36.9183,0.00691198,-6.97359,6.65249,-0.000412998,0.00243326,-0.0131088,4,0,41.39284211122769,-91.77316102963212,8765.269906133999,-69.21019341158413,-0.6066078861454526,-12.802536319024869,189.514,8749.224682894945,11121.848502006404,150,False,20.88983728372087,False,165.6055552357727,179.09402632198325,False,14.954679173882539,True,False
11,1970-07-23 11:25:55.849321341,2025-09-16,2025-09-26 15:13:04.932,AA,C,579518424,JASSM,3,139,76,2,2,1,225,9,2,0,1,26,0,0,0,0,-186415.34997733065,-4786373.622041549,4201959.112761021,-2.30145,-0.15311,0.128375,86.0,-13.125,-11.125,0.0,0.0,0.0,0.0,0.0,0.0,2,0,41.44915776680936,-92.23037691007325,9999.998117116487,99.83188703352796,-0.0027922463928328,0.0064652246939136,,8749.224682894945,11121.848502006404,150,11,2025-09-16,2025-09-26 15:13:04.973,AA,C,614689108,AMBUSH51,1,1,48,2,1,1,225,2,1,0,0,9,1,225,2,1,-148454.14228392273,-4791525.431476397,4197057.884248165,2.16853,2.86876,-0.246492,-107.355,34.2292,35.1921,-0.0240171,-7.00782,6.67518,0.105525,-0.00995669,-0.0239861,4,0,41.39332216396132,-91.77460724184256,8764.913675589194,-70.32648233219435,-0.7394571552211072,-8.998524807727495,190.101,8749.224682894945,11121.848502006404,150,True,20.769124538727425,False,166.64525999897674,179.05888459777313,False,13.978563507999128,True,False
11,1970-07-23 11:25:55.860363075,2025-09-16,2025-09-26 15:13:06.036,AA,C,580830320,JASSM,3,139,76,2,2,1,225,9,2,0,1,26,0,0,0,0,-186320.7269304556,-4786388.231416549,4201946.753386021,-2.30145,-0.15311,0.128375,86.0,-13.125,-11.125,0.0,0.0,0.0,0.0,0.0,0.0,2,0,41.44900936047499,-92.22923913240194,10000.00221011128,99.83264019028351,-0.0019266153787999,0.0064646285304484,,8749.224682894945,11121.848502006404,150,11,2025-09-16,2025-09-26 15:13:06.174,AA,C,616120706,AMBUSH51,1,1,48,2,1,1,225,2,1,0,0,9,1,225,2,1,-148584.37427509075,-4791484.088397581,4197099.601905063,2.27288,2.88151,-0.23563,-108.197,33.6291,34.6103,-0.165389,-7.52877,7.17002,0.0205323,-0.00493413,-0.00612215,4,0,41.393825746549865,-91.77617834212988,8763.63948328633,-71.2668032914136,-0.6463154240307044,-2.834071725817973,190.687,8749.224682894945,11121.848502006404,150,True,20.642639181585473,False,167.17920151994008,179.02067114876695,False,13.494665007025752,True,False
11,1970-07-23 11:25:55.870388755,2025-09-16,2025-09-26 15:13:07.038,AA,C,582084796,JASSM,3,139,76,2,2,1,225,9,2,0,1,26,0,0,0,0,-186230.24450858065,-4786402.198213424,4201934.933073521,-2.30145,-0.153015,0.128375,86.0,-13.125,-11.125,0.0,0.0,0.0,0.0,0.0,0.0,2,0,41.448867445336205,-92.22815114930364,9999.998678238358,99.8297242036946,-0.0051557932099264,0.0057610124346411,,8749.224682894945,11121.848502006404,150,11,2025-09-16,2025-09-26 15:13:06.941,AA,C,617035338,AMBUSH51,1,1,48,2,1,1,225,2,1,0,0,9,1,225,2,1,-148667.4889776036,-4791458.641510295,4197125.32221074,2.2744,2.88218,-0.239523,-108.64,33.0276,34.597,-0.168633,-7.48383,7.01355,0.0282347,0.000887374,0.00554166,4,0,41.39413543748197,-91.7771806910388,8763.179054639118,-71.12985891995616,-0.4660563071806414,-2.739480826321489,190.724,8749.224682894945,11121.848502006404,150,True,20.545549382018894,False,167.43488449453787,178.99594322381654,False,13.259118742755273,True,False
11,1970-07-23 11:25:55.881403891,2025-09-16,2025-09-26 15:13:08.140,AA,C,583397006,JASSM,3,139,76,2,2,1,225,9,2,0,1,26,0,0,0,0,-186135.5980242056,-4786416.807588424,4201922.567839146,-2.30145,-0.153015,0.128375,86.0,-13.125,-11.125,0.0,0.0,0.0,0.0,0.0,0.0,2,0,41.44871898288198,-92.22701310164372,9999.997167356874,99.83047753487652,-0.0042899494790079,0.0057603635018428,,8749.224682894945,11121.848502006404,150,11,2025-09-16,2025-09-26 15:13:08.141,AA,C,618466938,AMBUSH51,1,1,48,2,1,1,225,2,1,0,0,9,1,225,2,1,-148797.20978623963,-4791419.303440446,4197165.986132926,2.28255,2.88771,-0.235074,-109.149,32.7675,34.4841,-0.183681,-7.27912,6.79814,-0.0123868,0.000159166,-0.00843161,4,0,41.39462003811964,-91.7787449803686,8764.529291687606,-71.52740652221581,-0.4135025510560947,-2.1953527431457536,191.665,8749.224682894945,11121.848502006404,150,True,20.41956253056996,False,167.64243554198507,178.9579319775559,False,13.098025251534539,True,False
11,1970-07-23 11:25:55.892420133,2025-09-16,2025-09-26 15:13:09.242,AA,C,584707766,JASSM,3,139,76,2,2,1,225,9,2,0,1,26,0,0,0,0,-186041.05700858065,-4786431.401338424,4201910.216276646,-2.30145,-0.153015,0.128375,86.0,-13.125,-11.125,0.0,0.0,0.0,0.0,0.0,0.0,2,0,41.44857067000123,-92.2258763270367,10000.001813966122,99.83123002114426,-0.0034250695597789,0.005759710734192,,8749.224682894945,11121.848502006404,150,11,2025-09-16,2025-09-26 15:13:09.240,AA,C,619779236,AMBUSH51,1,1,48,2,1,1,225,2,1,0,0,9,1,225,2,1,-148917.05799362273,-4791383.298158081,4197203.166023084,2.2641,2.89058,-0.232421,-109.663,32.3848,34.4046,-0.115961,-7.33654,6.76966,-0.00401451,-0.00492997,-0.00813617,4,0,41.3950630944803,-91.78019011169356,8765.775171328023,-71.74860092842415,-0.3988845714953613,-3.2128885217312018,191.934,8749.224682894945,11121.848502006404,150,True,20.299334850959777,False,167.8698868957532,178.92182076243208,False,12.909685881949203,True,False
11,1970-07-23 11:25:55.903993448,2025-09-16,2025-09-26 15:13:10.399,AA,C,586021198,JASSM,3,139,76,2,2,1,225,9,2,0,1,26,0,0,0,0,-185946.3206804556,-4786446.020479049,4201897.839323521,-2.30145,-0.153015,0.128471,86.0,-13.125,-11.125,0.0,0.0,0.0,0.0,0.0,0.0,2,0,41.44842206862952,-92.2247372113688,9999.999843131049,99.83607466512026,-0.0062247332858869,0.0057587715092743,,8749.224682894945,11121.848502006404,150,11,2025-09-16,2025-09-26 15:13:10.240,AA,C,620972234,AMBUSH51,1,1,48,2,1,1,225,2,1,0,0,9,1,225,2,1,-149026.8371179392,-4791350.920400212,4197236.724381535,2.27413,2.89345,-0.227623,-110.112,32.1259,34.1719,-0.0478833,-7.10982,6.6403,0.0128862,-0.00936996,-0.00738299,4,0,41.39546196582295,-91.78151362306023,8767.326197545624,-72.05998221712582,-0.4675579399052395,-2.598315616613041,192.435,8749.224682894945,11121.848502006404,150,True,20.184832442606254,False,168.10462491995176,178.88841799446382,False,12.715082800482405,True,False
11,1970-07-23 11:25:55.914780112,2025-09-16,2025-09-26 15:13:11.478,AA,C,587273918,JASSM,3,139,76,2,2,1,225,9,2,0,1,26,0,0,0,0,-185855.9652117056,-4786459.965791549,4201886.032682896,-2.30145,-0.153015,0.128471,86.0,-13.125,-11.125,0.0,0.0,0.0,0.0,0.0,0.0,2,0,41.44828030167445,-92.22365077525691,10000.00342780642,99.8367938257374,-0.0053981444729802,0.0057582074575411,,8749.224682894945,11121.848502006404,150,11,2025-09-16,2025-09-26 15:13:11.373,AA,C,622324300,AMBUSH51,1,1,48,2,1,1,225,2,1,0,0,9,1,225,2,1,-149152.21795678875,-4791314.30178055,4197274.563604552,2.2839,2.89821,-0.229535,-110.431,31.9108,33.7542,-0.145168,-7.27917,6.79836,0.0156492,0.00491957,0.000889454,4,0,41.39591206278282,-91.78302511615664,8768.934126025208,-72.16137900768328,-0.197140537905467,-1.976382190177819,192.74,8749.224682894945,11121.848502006404,150,True,20.06391155931806,False,168.36824760314605,178.85035501915507,False,12.501336057699682,True,False
11,1970-07-23 11:25:55.925341340,2025-09-16,2025-09-26 15:13:12.534,AA,C,588585122,JASSM,3,139,76,2,2,1,225,9,2,0,1,26,0,0,0,0,-185761.3909929556,-4786474.559541549,4201873.673307896,-2.30145,-0.153015,0.128471,86.0,-13.125,-11.125,0.0,0.0,0.0,0.0,0.0,0.0,2,0,41.448131910528495,-92.22251361911296,10000.002070220393,99.83754655804306,-0.0045329636604337,0.0057576227658666,,8749.224682894945,11121.848502006404,150,11,2025-09-16,2025-09-26 15:13:12.641,AA,C,623835432,AMBUSH51,1,1,48,2,1,1,225,2,1,0,0,9,1,225,2,1,-149292.07796313392,-4791273.725294234,4197316.82565592,2.30825,2.89894,-0.230001,-110.789,31.7056,33.8679,-0.137966,-7.08448,6.79676,0.0101273,-0.00473855,0.00977151,4,0,41.396412861031024,-91.78471108223052,8771.5205581079,-72.17079580464566,-0.147526292578769,-0.5712360899701409,193.168,8749.224682894945,11121.848502006404,150,True,19.932466448640543,False,168.44738320737784,178.80716993428655,False,12.467851517092557,True,False
11,1970-07-23 11:25:55.935403569,2025-09-16,2025-09-26 15:13:13.540,AA,C,589837822,JASSM,3,139,76,2,2,1,225,9,2,0,1,26,0,0,0,0,-185671.03747733065,-4786488.500947799,4201861.864714146,-2.30145,-0.153015,0.128471,86.0,-13.125,-11.125,0.0,0.0,0.0,0.0,0.0,0.0,2,0,41.44799013219406,-92.22142721783923,10000.000930700742,99.8382656914582,-0.003706395029686,0.0057570648970016,,8749.224682894945,11121.848502006404,150,11,2025-09-16,2025-09-26 15:13:13.407,AA,C,624750064,AMBUSH51,1,1,48,2,1,1,225,2,1,0,0,9,1,225,2,1,-149375.9878908325,-4791249.482839633,4197342.092128104,2.31713,2.89863,-0.232499,-110.878,31.7537,33.8572,0.0305787,-7.03135,6.65503,0.0239071,-0.00753279,0.00455962,4,0,41.39671210109558,-91.78572256298146,8773.135165783873,-72.05448733477657,-0.0624019110834911,-0.0669673618363018,193.706,8749.224682894945,11121.848502006404,150,True,19.835194189943582,False,168.4549781642187,178.77955602779605,False,12.494448575468013,True,False
11,1970-07-23 11:25:55.946404286,2025-09-16,2025-09-26 15:13:14.640,AA,C,591150748,JASSM,3,139,76,2,2,1,225,9,2,0,1,26,0,0,0,0,-185576.33825858065,-4786503.112275924,4201849.487761021,-2.30145,-0.153015,0.128471,86.0,-13.125,-11.125,0.0,0.0,0.0,0.0,0.0,0.0,2,0,41.44784152469546,-92.22028856964464,10000.002031775835,99.83901940707467,-0.0028400715458652,0.0057564810210537,,8749.224682894945,11121.848502006404,150,11,2025-09-16,2025-09-26 15:13:14.473,AA,C,626022596,AMBUSH51,1,1,48,2,1,1,225,2,1,0,0,9,1,225,2,1,-149495.01765894305,-4791214.821437492,4197377.904990292,2.42562,2.89631,-0.234548,-110.984,32.3838,34.0827,-0.198347,-7.01855,6.60879,0.0761675,-8.84253e-05,0.00634269,4,0,41.397137997438925,-91.7871575082583,8774.700365225142,-71.8814044715387,-0.0762371660155653,6.118032299091721,193.926,8749.224682894945,11121.848502006404,150,True,19.715555664885333,False,168.22982519814474,178.74033656445062,False,12.776348214628602,True,False
11,1970-07-23 11:25:55.956441470,2025-09-16,2025-09-26 15:13:15.644,AA,C,592404718,JASSM,3,139,76,2,2,1,225,9,2,0,1,26,0,0,0,0,-185485.89294608065,-4786517.065400924,4201837.665495396,-2.30145,-0.153015,0.128471,86.0,-13.125,-11.125,0.0,0.0,0.0,0.0,0.0,0.0,2,0,41.447699584531925,-92.21920107544888,10000.000192370915,99.83973925979052,-0.0020126644944946,0.0057559255716341,,8749.224682894945,11121.848502006404,150,11,2025-09-16,2025-09-26 15:13:15.573,AA,C,627334894,AMBUSH51,1,1,48,2,1,1,225,2,1,0,0,9,1,225,2,1,-149616.5960897649,-4791178.302443622,4197415.456245046,2.48642,2.88268,-0.246589,-110.666,33.5623,35.0071,-0.107456,-6.93199,6.59862,0.0354086,-0.00305743,0.028888,4,0,41.39758618935741,-91.78862361380394,8775.671966175549,-70.86087918158333,-0.1597974657518568,9.4134656771734,194.28,8749.224682894945,11121.848502006404,150,True,19.59667260800872,False,167.53718465046362,178.69747347970403,False,13.528152068198212,True,False
11,1970-07-23 11:25:55.967462815,2025-09-16,2025-09-26 15:13:16.746,AA,C,593715660,JASSM,3,139,76,2,2,1,225,9,2,0,1,26,0,0,0,0,-185391.33825858065,-4786531.653291549,4201825.304167271,-2.30145,-0.152919,0.128471,86.0,-13.125,-11.125,0.0,0.0,0.0,0.0,0.0,0.0,2,0,41.44755116658862,-92.21806417574292,10000.000758601616,99.83685572935543,-0.005204582868352,0.0050517549210817,,8749.224682894945,11121.848502006404,150,11,2025-09-16,2025-09-26 15:13:16.673,AA,C,628647194,AMBUSH51,1,1,48,2,1,1,225,2,1,0,0,9,1,225,2,1,-149737.67462786846,-4791140.480580897,4197453.9873474445,2.47212,2.86281,-0.262208,-110.251,34.8848,36.0035,-0.320822,-6.98728,6.63264,-0.0535493,-0.00646753,0.0113632,4,0,41.39804882131149,-91.79008425359376,8775.535106146355,-69.4550397368068,-0.3496259985988716,8.301279795530935,194.659,8749.224682894945,11121.848502006404,150,True,19.475661912099877,False,166.76390501599954,178.65090737065222,False,14.364592141875187,True,False
11,1970-07-23 11:25:55.978408787,2025-09-16,2025-09-26 15:13:17.840,AA,C,594972274,JASSM,3,139,76,2,2,1,225,9,2,0,1,26,0,0,0,0,-185300.70153983065,-4786545.633760299,4201813.456511021,-2.30145,-0.152919,0.128471,86.0,-13.125,-11.125,0.0,0.0,0.0,0.0,0.0,0.0,2,0,41.447408915451206,-92.2169743908551,10000.00170561126,99.83757709424997,-0.0043754273400816,0.0050511558105275,,8749.224682894945,11121.848502006404,150,11,2025-09-16,2025-09-26 15:13:17.841,AA,C,630039024,AMBUSH51,1,1,48,2,1,1,225,2,1,0,0,9,1,225,2,1,-149865.2307450204,-4791099.231580067,4197495.866503015,2.31598,2.85387,-0.274732,-110.193,35.4852,36.7563,-0.0364202,-7.34155,6.90321,-0.140502,-0.00147618,0.0132544,4,0,41.39855322077299,-91.79162358313025,8774.739359045652,-68.595250229534,-0.2140906684499628,-0.7851628723049331,195.343,8749.224682894945,11121.848502006404,150,True,19.35293902742721,False,166.33883102903883,178.59835839406608,False,14.848422451102463,True,False
11,1970-07-23 11:25:55.990382576,2025-09-16,2025-09-26 15:13:19.038,AA,C,596339924,JASSM,3,139,76,2,2,1,225,9,2,0,1,26,0,0,0,0,-185202.0550554556,-4786560.848604049,4201800.558073521,-2.30145,-0.152919,0.128471,86.0,-13.125,-11.125,0.0,0.0,0.0,0.0,0.0,0.0,2,0,41.44725406265346,-92.2157883052107,9999.996794531447,99.83836220150737,-0.0034729946492828,0.0050504850429684,,8749.224682894945,11121.848502006404,150,11,2025-09-16,2025-09-26 15:13:18.940,AA,C,631351324,AMBUSH51,1,1,48,2,1,1,225,2,1,0,0,9,1,225,2,1,-149986.25808069378,-4791060.140725257,4197536.081391672,2.19535,2.85685,-0.269622,-110.609,35.2392,36.4316,-0.0340469,-6.98851,6.56767,-0.0807656,-0.00579966,-0.0190863,4,0,41.39903474096891,-91.79308412881944,8775.148819676131,-68.92189468170335,-0.2949144045021716,-7.649482819044171,196.137,8749.224682894945,11121.848502006404,150,True,19.229554814444874,False,166.59504788351381,178.54662340853366,False,14.651103112227716,True,False
11,1970-07-23 11:25:56.000379624,2025-09-16,2025-09-26 15:13:20.037,AA,C,597592624,JASSM,3,139,76,2,2,1,225,9,2,0,1,26,0,0,0,0,-185111.6995867056,-4786574.784150924,4201788.745573521,-2.30145,-0.152919,0.128471,86.0,-13.125,-11.125,0.0,0.0,0.0,0.0,0.0,0.0,2,0,41.44711222976634,-92.21470191259388,9999.999597054715,99.8390813167072,-0.0026464122261463,0.0050498859643425,,8749.224682894945,11121.848502006404,150,11,2025-09-16,2025-09-26 15:13:20.074,AA,C,632703388,AMBUSH51,1,1,48,2,1,1,225,2,1,0,0,9,1,225,2,1,-150112.4214623121,-4791020.270713239,4197576.464698707,2.15972,2.86863,-0.254447,-111.389,34.6596,35.0938,-0.0976885,-7.10364,6.57305,-0.00396249,-0.00960299,-0.0128258,4,0,41.39952105747664,-91.79460634936754,8774.412084701713,-70.0028025127729,-0.4161712505518443,-9.509764713017193,196.443,8749.224682894945,11121.848502006404,150,True,19.107951138861665,False,167.34770015822644,178.49414130733052,False,13.968148547971982,True,False
11,1970-07-23 11:25:56.010418440,2025-09-16,2025-09-26 15:13:21.041,AA,C,598845410,JASSM,3,139,76,2,2,1,225,9,2,0,1,26,0,0,0,0,-185021.3402117056,-4786588.719697799,4201776.929167271,-2.30145,-0.152919,0.128567,86.0,-13.125,-11.125,0.0,0.0,0.0,0.0,0.0,0.0,2,0,41.44697036116451,-92.21361547802124,9999.997908598612,99.84389111334004,-0.0054860640864107,0.0050490069470958,,8749.224682894945,11121.848502006404,150,11,2025-09-16,2025-09-26 15:13:21.040,AA,C,633856620,AMBUSH51,1,1,48,2,1,1,225,2,1,0,0,9,1,225,2,1,-150219.62330946137,-4790987.244389285,4197609.405426904,2.16852,2.87824,-0.245715,-112.149,33.9446,34.0724,0.0426192,-7.19202,6.57972,0.0219992,-0.00328214,-0.0292854,4,0,41.39991993152104,-91.7958994890312,8772.908837374805,-70.73348715044476,-0.3685765726831897,-8.864155441621728,196.932,8749.224682894945,11121.848502006404,150,True,18.997332788927284,False,168.02548084854854,178.45004134865292,False,13.342432978150473,True,False
11,1970-07-23 11:25:56.021460508,2025-09-16,2025-09-26 15:13:22.146,AA,C,600099122,JASSM,3,139,76,2,2,1,225,9,2,0,1,26,0,0,0,0,-184930.91247733065,-4786602.665010299,4201765.104948521,-2.30145,-0.152919,0.128567,86.0,-13.125,-11.125,0.0,0.0,0.0,0.0,0.0,0.0,2,0,41.446828387187445,-92.21252822662832,10000.001125358778,99.84461079296916,-0.0046588197435036,0.0050484592880583,,8749.224682894945,11121.848502006404,150,11,2025-09-16,2025-09-26 15:13:22.107,AA,C,635129152,AMBUSH51,1,1,48,2,1,1,225,2,1,0,0,9,1,225,2,1,-150340.3087382036,-4790951.266959999,4197645.285811197,2.23361,2.8929,-0.235672,-112.878,33.1686,33.2403,-0.204695,-7.33954,6.86772,0.1432,0.00764306,-0.00736427,4,0,41.40035367637309,-91.79735484476136,8771.572380258684,-71.71161988227395,-0.163427188394183,-4.930178036205676,197.494,8749.224682894945,11121.848502006404,150,True,18.879165954840417,False,168.64932677048589,178.40252604140574,False,12.769618001382833,True,False
11,1970-07-23 11:25:56.032326671,2025-09-16,2025-09-26 15:13:23.232,AA,C,601410372,JASSM,3,139,76,2,2,1,225,9,2,0,1,26,0,0,0,0,-184836.33435233065,-4786617.248994674,4201752.735807896,-2.30145,-0.152919,0.128567,86.0,-13.125,-11.125,0.0,0.0,0.0,0.0,0.0,0.0,2,0,41.4466798792174,-92.21139107902027,10000.000947463326,99.84536349801628,-0.0037936063940115,0.0050478796981864,,8749.224682894945,11121.848502006404,150,11,2025-09-16,2025-09-26 15:13:23.106,AA,C,636322152,AMBUSH51,1,1,48,2,1,1,225,2,1,0,0,9,1,225,2,1,-150452.4080955617,-4790918.401144601,4197678.279178687,2.33503,2.89885,-0.23178,-113.165,32.7066,33.4722,-0.175896,-7.34022,6.68884,0.0585968,-0.00464701,0.011642,4,0,41.40075100511645,-91.79870647071976,8770.971343338791,-72.10152685098663,-0.070986412512467,0.960585449719663,197.604,8749.224682894945,11121.848502006404,150,True,18.76367443124635,False,168.74897533067787,178.35809998800536,False,12.703314506709999,True,False
11,1970-07-23 11:25:56.043343179,2025-09-16,2025-09-26 15:13:24.334,AA,C,602664932,JASSM,3,139,76,2,2,1,225,9,2,0,1,26,0,0,0,0,-184745.84607108065,-4786631.202119674,4201740.899870396,-2.30145,-0.152919,0.128567,86.0,-13.125,-11.125,0.0,0.0,0.0,0.0,0.0,0.0,2,0,41.44653777256355,-92.21030311005784,10000.001111835045,99.8460836484724,-0.0029658058056216,0.005047315176051,,8749.224682894945,11121.848502006404,150,11,2025-09-16,2025-09-26 15:13:24.440,AA,C,637912816,AMBUSH51,1,1,48,2,1,1,225,2,1,0,0,9,1,225,2,1,-150603.1637547517,-4790874.154384541,4197723.024245027,2.41188,2.89127,-0.241112,-113.164,33.2444,34.1885,-0.20993,-7.35725,6.78692,0.0418543,-0.00243534,0.0024499,4,0,41.40128813291966,-91.80052423480936,8770.870196457623,-71.42385823025201,-0.0148652034872175,5.261311819644163,197.934,8749.224682894945,11121.848502006404,150,True,18.62847466849522,False,168.36243862178415,178.29880319116305,False,13.15246129146601,True,False
11,1970-07-23 11:25:56.054363256,2025-09-16,2025-09-26 15:13:25.436,AA,C,603977008,JASSM,3,139,76,2,2,1,225,9,2,0,1,26,0,0,0,0,-184651.2073992056,-4786645.791963424,4201728.522917271,-2.30145,-0.152823,0.128567,86.0,-13.125,-11.125,0.0,0.0,0.0,0.0,0.0,0.0,2,0,41.44638916891455,-92.20916524623294,10000.00198145447,99.84320083416776,-0.0061569600078569,0.0043427216589061,,8749.224682894945,11121.848502006404,150,11,2025-09-16,2025-09-26 15:13:25.540,AA,C,639225116,AMBUSH51,1,1,48,2,1,1,225,2,1,0,0,9,1,225,2,1,-150728.3023590493,-4790836.760830883,4197760.987764174,2.42585,2.88512,-0.245771,-113.056,33.917,35.0585,-0.32474,-7.24792,6.76152,-0.0676974,0.0133689,0.00784904,4,0,41.40174347384824,-91.80203338941476,8770.942901317834,-70.99641745613968,-0.0818998926500077,5.976417337227302,198.533,8749.224682894945,11121.848502006404,150,True,18.50546717760057,False,167.87111311171472,178.24603525986853,False,13.69908482062703,True,False
11,1970-07-23 11:25:56.065401256,2025-09-16,2025-09-26 15:13:26.540,AA,C,605289606,JASSM,3,139,76,2,2,1,225,9,2,0,1,26,0,0,0,0,-184556.5316179556,-4786660.387666549,4201716.138151646,-2.30145,-0.152823,0.128567,86.0,-13.125,-11.125,0.0,0.0,0.0,0.0,0.0,0.0,2,0,41.44624047494361,-92.20802694136526,10000.001554561612,99.84395429871104,-0.0052908545042302,0.0043420868063423,,8749.224682894945,11121.848502006404,150,11,2025-09-16,2025-09-26 15:13:26.641,AA,C,640537414,AMBUSH51,1,1,48,2,1,1,225,2,1,0,0,9,1,225,2,1,-150852.3662140491,-4790798.96887221,4197799.512737102,2.33723,2.87303,-0.257841,-112.993,34.2668,35.7194,-0.114095,-7.26231,6.80787,-0.0561896,-0.000132118,0.0126178,4,0,41.40220515683431,-91.80352987418016,8771.180131136038,-70.03408233308575,-0.0980407555530228,0.7248812114041779,198.838,8749.224682894945,11121.848502006404,150,True,18.38296672430466,False,167.54549742544899,178.19103651266767,False,14.079232239544607,True,False
11,1970-07-23 11:25:56.075418855,2025-09-16,2025-09-26 15:13:27.541,AA,C,606601252,JASSM,3,139,76,2,2,1,225,9,2,0,1,26,0,0,0,0,-184461.9261492056,-4786674.971650924,4201703.761198521,-2.30145,-0.152823,0.128567,86.0,-13.125,-11.125,0.0,0.0,0.0,0.0,0.0,0.0,2,0,41.44609187603603,-92.20688948747524,10000.000744689827,99.84470719775555,-0.0044253918014867,0.0043414482784845,,8749.224682894945,11121.848502006404,150,11,2025-09-16,2025-09-26 15:13:27.441,AA,C,641491812,AMBUSH51,1,1,48,2,1,1,225,2,1,0,0,9,1,225,2,1,-150942.64172647538,-4790771.413924769,4197827.8458973,2.27492,2.87633,-0.25428,-113.147,34.276,35.7008,-0.0644238,-7.14789,6.6156,-0.0823468,-0.0055916,-0.00775542,4,0,41.40254344746429,-91.80461883091029,8771.873804054034,-70.30867486926425,-0.1033433671888309,-2.796757620293384,199.205,8749.224682894945,11121.848502006404,150,True,18.279722402418667,False,167.57786999613444,178.1485881141548,False,14.092653409222219,True,False
11,1970-07-23 11:25:56.087342223,2025-09-16,2025-09-26 15:13:28.734,AA,C,607972128,JASSM,3,139,76,2,2,1,225,9,2,0,1,26,0,0,0,0,-184363.0472429556,-4786690.211885299,4201690.825651646,-2.30145,-0.152823,0.128567,86.0,-13.125,-11.125,0.0,0.0,0.0,0.0,0.0,0.0,2,0,41.44593657104176,-92.205700660199,9999.99986325165,99.84549409929674,-0.0035208391234203,0.0043407987628005,,8749.224682894945,11121.848502006404,150,11,2025-09-16,2025-09-26 15:13:28.740,AA,C,643042712,AMBUSH51,1,1,48,2,1,1,225,2,1,0,0,9,1,225,2,1,-151089.16096702972,-4790727.194846831,4197873.27646258,2.22152,2.88306,-0.248339,-113.722,33.8197,35.0355,-0.126618,-7.24859,6.7204,-0.0116524,0.000194536,-0.00285354,4,0,41.4030857395743,-91.8063860670839,8773.044244928788,-70.81343519207128,-0.0618699491296963,-5.759821820646764,199.498,8749.224682894945,11121.848502006404,150,True,18.142212978801695,False,168.0260747013154,178.0828834487575,False,13.716876712858111,True,False
11,1970-07-23 11:25:56.098785774,2025-09-16,2025-09-26 15:13:29.878,AA,C,609226264,JASSM,3,139,76,2,2,1,225,9,2,0,1,26,0,0,0,0,-184272.58825858065,-4786704.155244674,4201678.989714146,-2.30145,-0.152823,0.128567,86.0,-13.125,-11.125,0.0,0.0,0.0,0.0,0.0,0.0,2,0,41.44579446197312,-92.20461307072712,10000.00168902284,99.8462139879835,-0.0026933091852311,0.0043401867020555,,8749.224682894945,11121.848502006404,150,11,2025-09-16,2025-09-26 15:13:29.843,AA,C,644355010,AMBUSH51,1,1,48,2,1,1,225,2,1,0,0,9,1,225,2,1,-151214.41675825889,-4790690.091683205,4197911.41908316,2.22688,2.88792,-0.24117,-114.276,33.2778,34.4541,-0.138949,-7.18049,6.58023,0.0646056,-0.00131181,-0.00545012,4,0,41.40354046284271,-91.8078965946366,8774.26591185897,-71.29920627068712,-0.1431767698951564,-5.384836995883726,199.877,8749.224682894945,11121.848502006404,150,True,18.021516150413117,False,168.4633008945082,178.02684443862907,False,13.337969025579923,True,False
11,1970-07-23 11:25:56.109386014,2025-09-16,2025-09-26 15:13:30.938,AA,C,610538268,JASSM,3,139,76,2,2,1,225,9,2,0,1,26,0,0,0,0,-184177.95642264312,-4786718.739229049,4201666.606901646,-2.30145,-0.152823,0.128567,86.0,-13.125,-11.125,0.0,0.0,0.0,0.0,0.0,0.0,2,0,41.44564579581282,-92.20347531727616,10000.000017967925,99.8469670786437,-0.0018276079440266,0.0043395554487101,,8749.224682894945,11121.848502006404,150,11,2025-09-16,2025-09-26 15:13:30.906,AA,C,645627542,AMBUSH51,1,1,48,2,1,1,225,2,1,0,0,9,1,225,2,1,-151336.48301062305,-4790654.604807664,4197947.8460541945,2.37985,2.89048,-0.233548,-114.628,33.1543,34.2932,-0.274294,-6.91925,6.40918,0.193659,-0.00983809,-0.00502984,4,0,41.40397456769785,-91.80936842445936,8775.502047182197,-71.7168047759443,-0.3354206544456496,3.4159135094292075,200.353,8749.224682894945,11121.848502006404,150,True,17.90044784526224,False,168.61219324533704,177.97245462448308,False,13.246788125135891,True,False
11,1970-07-23 11:25:56.119448251,2025-09-16,2025-09-26 15:13:31.944,AA,C,611849528,JASSM,3,139,76,2,2,1,225,9,2,0,1,26,0,0,0,0,-184083.37732108065,-4786733.315400924,4201654.229948521,-2.30145,-0.152823,0.128663,86.0,-13.125,-11.125,0.0,0.0,0.0,0.0,0.0,0.0,2,0,41.44549719235626,-92.20233820289307,10000.001642001436,99.85181044521173,-0.0046286098918933,0.0043387161704303,,8749.224682894945,11121.848502006404,150,11,2025-09-16,2025-09-26 15:13:31.943,AA,C,646860308,AMBUSH51,1,1,48,2,1,1,225,2,1,0,0,9,1,225,2,1,-151454.81172773897,-4790619.597131025,4197983.117561684,2.51217,2.88439,-0.239176,-114.471,34.3242,34.8372,-0.264327,-7.29494,6.67142,0.0757326,-0.00143873,0.0288526,4,0,41.40439870546597,-91.81079543642105,8775.127988149723,-71.25087602900513,-0.3622163985511578,10.913079700427396,200.28,8749.224682894945,11121.848502006404,150,False,17.781505698602885,False,168.0933290895957,177.91775362476994,False,13.838602594565732,True,False
11,1970-07-23 11:25:56.131466278,2025-09-16,2025-09-26 15:13:33.146,AA,C,613102228,JASSM,3,139,76,2,2,1,225,9,2,0,1,26,0,0,0,0,-183993.02185233065,-4786747.237275924,4201642.405729771,-2.30145,-0.152823,0.128663,86.0,-13.125,-11.125,0.0,0.0,0.0,0.0,0.0,0.0,2,0,41.44535523474561,-92.20125187518757,9999.999417790394,99.8525294924826,-0.003802032223414,0.0043381836669511,,8749.224682894945,11121.848502006404,150,11,2025-09-16,2025-09-26 15:13:33.077,AA,C,648212372,AMBUSH51,1,1,48,2,1,1,225,2,1,0,0,9,1,225,2,1,-151585.00961907144,-4790579.391378442,4198023.61847449,2.6014,2.86318,-0.26135,-113.686,36.1836,36.5898,-0.286973,-7.3916,6.77087,0.065261,-0.00596819,0.0176695,4,0,41.40488681926941,-91.81236624651406,8774.248125057764,-69.51981770770321,-0.3501888928067864,15.713447511945596,201.16,8749.224682894945,11121.848502006404,150,False,17.657962865545453,False,166.88084140853834,177.8535911789719,False,15.12455743861402,True,False
11,1970-07-23 11:25:56.142807031,2025-09-16,2025-09-26 15:13:34.280,AA,C,614356448,JASSM,3,139,76,2,2,1,225,9,2,0,1,26,0,0,0,0,-183902.55700858065,-4786761.176729049,4201630.565886021,-2.30145,-0.152823,0.128663,86.0,-13.125,-11.125,0.0,0.0,0.0,0.0,0.0,0.0,2,0,41.4452130818462,-92.20016423689688,10000.000496685465,99.85324940520992,-0.0029744514651137,0.0043376375469859,,8749.224682894945,11121.848502006404,150,11,2025-09-16,2025-09-26 15:13:34.310,AA,C,649683738,AMBUSH51,1,1,48,2,1,1,225,2,1,0,0,9,1,225,2,1,-151724.40779449593,-4790533.567851266,4198069.655916007,2.60382,2.84063,-0.285509,-112.577,38.0945,38.9126,-0.183094,-7.50168,6.73487,-0.0293104,0.0093762,0.0287902,4,0,41.405443976470494,-91.81404913305316,8772.291737275797,-67.66026693826987,-0.2981750910378977,15.492356381081796,201.16,8749.224682894945,11121.848502006404,150,False,17.528826584854666,False,165.41561422673223,177.77770518698517,False,16.666472737472773,True,False
11,1970-07-23 11:25:56.151389847,2025-09-16,2025-09-26 15:13:35.138,AA,C,615608910,JASSM,3,139,76,2,2,1,225,9,2,0,1,26,0,0,0,0,-183812.2191179556,-4786775.094697799,4201618.741667271,-2.30145,-0.152727,0.128663,86.0,-13.125,-11.125,0.0,0.0,0.0,0.0,0.0,0.0,2,0,41.44507112293451,-92.19907813055528,9999.99906331031,99.8503324081684,-0.0062049449206865,0.0036325431055659,,8749.224682894945,11121.848502006404,150,11,2025-09-16,2025-09-26 15:13:35.209,AA,C,650757436,AMBUSH51,1,1,48,2,1,1,225,2,1,0,0,9,1,225,2,1,-151825.30532395738,-4790498.281088977,4198105.224290829,2.56827,2.82202,-0.301111,-111.714,39.521,40.5759,-0.0227357,-7.7714,6.89165,-0.016057,0.00400202,0.0122557,4,0,41.405875007707145,-91.81526804064409,8770.544554653767,-66.30921384035153,-0.413964350861369,13.139218419371266,201.466,8749.224682894945,11121.848502006404,150,False,17.42149168808874,False,164.34130414100747,177.71494093348036,False,17.805452301786623,True,False
11,1970-07-23 11:25:56.162408485,2025-09-16,2025-09-26 15:13:36.240,AA,C,616919976,JASSM,3,139,76,2,2,1,225,9,2,0,1,26,0,0,0,0,-183717.65466483065,-4786789.665010299,4201606.362761021,-2.30145,-0.152727,0.128663,86.0,-13.125,-11.125,0.0,0.0,0.0,0.0,0.0,0.0,2,0,41.44492249435667,-92.19794121400766,10000.001914859406,99.8510849341544,-0.0053398587857187,0.0036319054038701,,8749.224682894945,11121.848502006404,150,11,2025-09-16,2025-09-26 15:13:36.209,AA,C,651950436,AMBUSH51,1,1,48,2,1,1,225,2,1,0,0,9,1,225,2,1,-151936.4306000981,-4790458.170332672,4198146.285321073,2.47864,2.81449,-0.315423,-110.862,40.4066,42.1938,-0.184364,-7.82473,6.89124,-0.12689,0.00556663,0.0155348,4,0,41.40636987566622,-91.81661099751076,8769.655685323894,-65.43496572115886,-0.1377584720599626,7.86836127672615,201.539,8749.224682894945,11121.848502006404,150,True,17.30582166029421,False,163.42620103603272,177.64160903473913,False,18.788580910084185,True,False
11,1970-07-23 11:25:56.172426533,2025-09-16,2025-09-26 15:13:37.242,AA,C,618114938,JASSM,3,139,76,2,2,1,225,9,2,0,1,26,0,0,0,0,-183631.46325858065,-4786802.942354049,4201595.079557896,-2.30145,-0.152727,0.128663,86.0,-13.125,-11.125,0.0,0.0,0.0,0.0,0.0,0.0,2,0,41.4447870306388,-92.19690496961498,10000.000840691224,99.85177082322392,-0.0045513736621351,0.0036313383339806,,8749.224682894945,11121.848502006404,150,11,2025-09-16,2025-09-26 15:13:37.242,AA,C,653183200,AMBUSH51,1,1,48,2,1,1,225,2,1,0,0,9,1,225,2,1,-152050.53605677508,-4790416.035796019,4198190.146219923,2.37219,2.80283,-0.326605,-110.327,40.8796,42.9032,0.0387252,-7.51702,6.52307,-0.0761258,0.0119915,-0.00904331,4,0,41.40689510653504,-91.81799035095656,8770.105609076845,-64.53475054598061,-0.1434811544508614,1.5560649877575752,201.576,8749.224682894945,11121.848502006404,150,True,17.1929081737794,False,162.96855745060213,177.56303187446568,False,19.32622726445263,True,False
11,1970-07-23 11:25:56.183449418,2025-09-16,2025-09-26 15:13:38.344,AA,C,619425374,JASSM,3,139,76,2,2,1,225,9,2,0,1,26,0,0,0,0,-183536.94372733065,-4786817.500947799,4201582.704557896,-2.30145,-0.152727,0.128663,86.0,-13.125,-11.125,0.0,0.0,0.0,0.0,0.0,0.0,2,0,41.44463846643235,-92.19576860526,9999.996744042028,99.85252297947058,-0.0036867026664068,0.0036307155835701,,8749.224682894945,11121.848502006404,150,11,2025-09-16,2025-09-26 15:13:38.443,AA,C,654614800,AMBUSH51,1,1,48,2,1,1,225,2,1,0,0,9,1,225,2,1,-152182.53628228398,-4790367.281028777,4198241.518893755,2.28721,2.80897,-0.323313,-110.127,40.5617,42.8766,-0.139096,-7.25143,6.19319,-0.0463754,-0.0120248,-0.0101668,4,0,41.40750703519415,-91.81958605604336,8771.980350522443,-64.90353794453013,-0.0353337094496351,-3.200156978377444,201.282,8749.224682894945,11121.848502006404,150,True,17.06513983885915,False,163.01419470367378,177.4704055906454,False,19.37273601040208,True,False
11,1970-07-23 11:25:56.193492584,2025-09-16,2025-09-26 15:13:39.349,AA,C,620678072,JASSM,3,139,76,2,2,1,225,9,2,0,1,26,0,0,0,0,-183446.58825858065,-4786831.418916549,4201570.874479771,-2.30145,-0.152727,0.128663,86.0,-13.125,-11.125,0.0,0.0,0.0,0.0,0.0,0.0,2,0,41.44449643049092,-92.19468230799218,9999.99858266168,99.8532419943851,-0.0028601234487253,0.0036301141237164,,8749.224682894945,11121.848502006404,150,11,2025-09-16,2025-09-26 15:13:39.209,AA,C,655529432,AMBUSH51,1,1,48,2,1,1,225,2,1,0,0,9,1,225,2,1,-152266.99853600527,-4790336.193163378,4198274.210725041,2.27269,2.8078,-0.32041,-110.213,40.3699,42.5492,0.023357,-7.2768,6.0909,0.00199009,-0.000739651,-0.00701473,4,0,41.40789671572062,-91.82060706534736,8773.063035997036,-64.97917024729549,-0.195957710312897,-4.0529369691521575,201.136,8749.224682894945,11121.848502006404,150,True,16.967055779363637,False,163.18477872150393,177.4079643884761,False,19.268422837352837,True,False
11,1970-07-23 11:25:56.204807855,2025-09-16,2025-09-26 15:13:40.480,AA,C,621872154,JASSM,3,139,76,2,2,1,225,9,2,0,1,26,0,0,0,0,-183360.4613054556,-4786844.684541549,4201559.597136021,-2.30145,-0.152727,0.128663,86.0,-13.125,-11.125,0.0,0.0,0.0,0.0,0.0,0.0,2,0,41.44436103199635,-92.19364685285936,9999.999987015502,99.8539273552488,-0.0020722273414508,0.0036295406229944,,8749.224682894945,11121.848502006404,150,11,2025-09-16,2025-09-26 15:13:40.642,AA,C,657239396,AMBUSH51,1,1,48,2,1,1,225,2,1,0,0,9,1,225,2,1,-152425.0394135871,-4790278.587617255,4198334.2279876815,2.31116,2.81586,-0.310261,-110.36,40.2659,41.5637,-0.0399891,-7.33848,6.22899,0.106538,-0.00320308,-0.0186411,4,0,41.40861469302937,-91.82251733677872,8773.985544781879,-65.70322216953254,-0.2851138355974785,-1.7027119871215992,201.013,8749.224682894945,11121.848502006404,150,True,16.82912478516146,False,163.5533359237677,177.29843287866,False,19.02587835003309,True,False
11,1970-07-23 11:25:56.215367518,2025-09-16,2025-09-26 15:13:41.536,AA,C,623184054,JASSM,3,139,76,2,2,1,225,9,2,0,1,26,0,0,0,0,-183265.8363054556,-4786859.256807174,4201547.206511021,-2.30145,-0.152727,0.128759,86.0,-13.125,-11.125,0.0,0.0,0.0,0.0,0.0,0.0,2,0,41.4442122728432,-92.1925092365652,9999.999324856744,99.85877108034754,-0.0048727645690277,0.0036287028967384,,8749.224682894945,11121.848502006404,150,11,2025-09-16,2025-09-26 15:13:41.409,AA,C,658154028,AMBUSH51,1,1,48,2,1,1,225,2,1,0,0,9,1,225,2,1,-152509.66285776117,-4790247.602398561,4198366.157128654,2.39529,2.81732,-0.308297,-110.315,40.2934,41.6929,-0.320477,-7.22526,6.3118,0.111529,-0.00549797,-0.00297421,4,0,41.4089985577621,-91.82354026767338,8773.691727484456,-65.84009439706003,-0.3054068221709625,3.143689023153992,200.83,8749.224682894945,11121.848502006404,150,True,16.72872062860504,False,163.49606805007807,177.23431017035793,False,19.147772299775898,True,False
11,1970-07-23 11:25:56.226831341,2025-09-16,2025-09-26 15:13:42.683,AA,C,624495822,JASSM,3,139,76,2,2,1,225,9,2,0,1,26,0,0,0,0,-183171.22009451807,-4786873.827119674,4201534.815886021,-2.30145,-0.152727,0.128759,86.0,-13.125,-11.125,0.0,0.0,0.0,0.0,0.0,0.0,2,0,41.44406351206086,-92.19137173140662,9999.999474546685,99.85952398313265,-0.0040072098907774,0.0036281398388259,,8749.224682894945,11121.848502006404,150,11,2025-09-16,2025-09-26 15:13:42.809,AA,C,659824228,AMBUSH51,1,1,48,2,1,1,225,2,1,0,0,9,1,225,2,1,-152663.4529335774,-4790190.289220037,4198425.087466963,2.58049,2.80655,-0.320328,-109.411,41.397,42.9516,-0.254428,-7.26594,6.36064,0.114996,-0.00749326,0.0137059,4,0,41.409708215740245,-91.82539969961483,8772.666548931822,-64.93828784416473,-0.2438161720800884,13.559889323819366,200.5,8749.224682894945,11121.848502006404,150,False,16.588577036211827,False,162.62165249421813,177.12077443944534,False,20.139340343906674,True,False
11,1970-07-23 11:25:56.236028172,2025-09-16,2025-09-26 15:13:43.602,AA,C,625690208,JASSM,3,139,76,2,2,1,225,9,2,0,1,26,0,0,0,0,-183085.0706804556,-4786887.092744674,4201523.534636021,-2.30145,-0.152727,0.128759,86.0,-13.125,-11.125,0.0,0.0,0.0,0.0,0.0,0.0,2,0,41.443928062521096,-92.19033602159108,10000.002959945145,99.86020950670972,-0.0032191117910464,0.0036276360122348,,8749.224682894945,11121.848502006404,150,11,2025-09-16,2025-09-26 15:13:43.543,AA,C,660699092,AMBUSH51,1,1,48,2,1,1,225,2,1,0,0,9,1,225,2,1,-152743.43514085375,-4790159.45559765,4198456.684460138,2.63897,2.79345,-0.330233,-108.613,42.8071,43.8346,-0.376202,-7.2738,6.46441,0.0539758,0.0104311,0.0289962,4,0,41.41008979136311,-91.8263671488637,8771.674055057381,-64.03564537008548,-0.3540449220471531,16.66568765369438,200.28,8749.224682894945,11121.848502006404,150,False,16.495371721599668,False,161.8073919285883,177.05457006742134,False,21.03072599985753,True,False
11,1970-07-23 11:25:56.246467780,2025-09-16,2025-09-26 15:13:44.646,AA,C,627002072,JASSM,3,139,76,2,2,1,225,9,2,0,1,26,0,0,0,0,-182990.44763358065,-4786901.661104049,4201511.140104771,-2.30145,-0.152631,0.128759,86.0,-13.125,-11.125,0.0,0.0,0.0,0.0,0.0,0.0,2,0,41.44377926707292,-92.18919844555128,9999.9983254602,99.85732665383318,-0.0064104012550635,0.0029220073751302,,8749.224682894945,11121.848502006404,150,11,2025-09-16,2025-09-26 15:13:44.642,AA,C,662011392,AMBUSH51,1,1,48,2,1,1,225,2,1,0,0,9,1,225,2,1,-152862.0142730617,-4790111.205739742,4198505.782505398,2.63278,2.76533,-0.351974,-107.188,44.9017,45.7373,-0.288567,-7.381,6.52341,-0.132537,0.00121195,0.0403479,4,0,41.41068579355335,-91.82780244738956,8768.861420101675,-62.08302461960847,-0.5518315852880539,15.756800733234243,200.537,8749.224682894945,11121.848502006404,150,False,16.375097763177184,False,160.36379735520077,176.9521442173926,False,22.58435239266409,True,False
11,1970-07-23 11:25:56.258006908,2025-09-16,2025-09-26 15:13:45.800,AA,C,628196052,JASSM,3,139,76,2,2,1,225,9,2,0,1,26,0,0,0,0,-182904.32751639312,-4786914.920869674,4201499.860807896,-2.30145,-0.152631,0.128759,86.0,-13.125,-11.125,0.0,0.0,0.0,0.0,0.0,0.0,2,0,41.44364383935141,-92.18816309760254,10000.002726280334,99.85801193407188,-0.005622570812831,0.0029214489615044,,8749.224682894945,11121.848502006404,150,11,2025-09-16,2025-09-26 15:13:45.775,AA,C,663363456,AMBUSH51,1,1,48,2,1,1,225,2,1,0,0,9,1,225,2,1,-152982.40502758074,-4790059.980220632,4198557.985385207,2.39138,2.74538,-0.371124,-106.488,45.7952,47.198,-0.030744,-7.64732,6.88983,-0.218946,-0.00228345,0.0130027,4,0,41.41132009716224,-91.82926055555764,8765.620593619604,-60.55211114012724,-0.5228032109229037,1.5070102339105091,200.989,8749.224682894945,11121.848502006404,150,True,16.25824404252003,False,159.5351672246147,176.84159334871555,False,23.52072579770959,True,False
11,1970-07-23 11:25:56.267368778,2025-09-16,2025-09-26 15:13:46.736,AA,C,629447072,JASSM,3,139,76,2,2,1,225,9,2,0,1,26,0,0,0,0,-182814.09314139312,-4786928.811494674,4201488.040495396,-2.30145,-0.152631,0.128759,86.0,-13.125,-11.125,0.0,0.0,0.0,0.0,0.0,0.0,2,0,41.44350193268639,-92.18707829328687,10000.000485755869,99.85872994671205,-0.004797103982351,0.0029208645756357,,8749.224682894945,11121.848502006404,150,11,2025-09-16,2025-09-26 15:13:46.743,AA,C,664516688,AMBUSH51,1,1,48,2,1,1,225,2,1,0,0,9,1,225,2,1,-153085.9884714967,-4790015.613822013,4198604.007642837,2.2559,2.756,-0.364469,-106.674,45.5645,47.2576,0.0299991,-7.31903,6.59456,-0.100777,-0.00398538,-0.0232371,4,0,41.41187504619887,-91.83051523728992,8764.524427748362,-61.224726002094144,-0.3947350874647911,-6.031557584773384,201.246,8749.224682894945,11121.848502006404,150,True,16.14884682087033,False,159.6202161583264,176.74159281915334,False,23.534359625429214,True,False
11,1970-07-23 11:25:56.277406955,2025-09-16,2025-09-26 15:13:47.740,AA,C,630641922,JASSM,3,139,76,2,2,1,225,9,2,0,1,26,0,0,0,0,-182727.90954764312,-4786942.079072799,4201476.749479771,-2.30145,-0.152631,0.128759,86.0,-13.125,-11.125,0.0,0.0,0.0,0.0,0.0,0.0,2,0,41.44336637474117,-92.1860421919349,10000.000800673071,99.85941572184112,-0.0040086915424318,0.0029202944295061,,8749.224682894945,11121.848502006404,150,11,2025-09-16,2025-09-26 15:13:47.608,AA,C,665550622,AMBUSH51,1,1,48,2,1,1,225,2,1,0,0,9,1,225,2,1,-153178.3777540407,-4789976.41992214,4198644.711816985,2.22953,2.76402,-0.353977,-107.075,45.0049,46.7523,-0.184543,-7.1856,6.35157,0.0197729,-0.016238,-0.0071999,4,0,41.41236543710736,-91.8316342005314,8763.73478341402,-61.95429048121537,-0.517267393523541,-7.375295841464181,201.356,8749.224682894945,11121.848502006404,150,True,16.048231778041274,False,160.0075177053712,176.65140949390212,False,23.237741670833618,True,False
