Subject_cm,Timestamp,SampleDate_cm,SampleTime_cm,Configuration_cm,Scenario_cm,DisTime_cm,MarkingTxt_cm,Application_cm,EntId_cm,Site_cm,ExerciseId_cm,ForceId_cm,Category_cm,Country_cm,Domain_cm,Kind_cm,Extra_cm,Specific_cm,Subcategory_cm,AltCategory_cm,AltCountry_cm,AltDomain_cm,AltKind_cm,ECEF_X_cm,ECEF_Y_cm,ECEF_Z_cm,OriPhi_cm,OriPsi_cm,OriTheta_cm,LinVelX_cm,LinVelY_cm,LinVelZ_cm,LinAccX_cm,LinAccY_cm,LinAccZ_cm,AngVelX_cm,AngVelY_cm,AngVelZ_cm,DrAlg_cm,Appearance_cm,Latitude_cm,Longitude_cm,Altitude_cm,Heading_cm,Pitch_cm,Roll_cm,CalibratedAirspeed_cm,CM_Altitude_Lead_cm,CM_Altitude_Wing_cm,CM_Airspeed_cm,Subject_ac,SampleDate_ac,SampleTime_ac,Configuration_ac,Scenario_ac,DisTime_ac,MarkingTxt_ac,Application_ac,EntId_ac,Site_ac,ExerciseId_ac,ForceId_ac,Category_ac,Country_ac,Domain_ac,Kind_ac,Extra_ac,Specific_ac,Subcategory_ac,AltCategory_ac,AltCountry_ac,AltDomain_ac,AltKind_ac,ECEF_X_ac,ECEF_Y_ac,ECEF_Z_ac,OriPhi_ac,OriPsi_ac,OriTheta_ac,LinVelX_ac,LinVelY_ac,LinVelZ_ac,LinAccX_ac,LinAccY_ac,LinAccZ_ac,AngVelX_ac,AngVelY_ac,AngVelZ_ac,DrAlg_ac,Appearance_ac,Latitude_ac,Longitude_ac,Altitude_ac,Heading_ac,Pitch_ac,Roll_ac,CalibratedAirspeed_ac,CM_Altitude_Lead_ac,CM_Altitude_Wing_ac,CM_Airspeed_ac,Bank_Angle_Condition,distance_nm,Distance_Condition,angle_between_vel,angle_between_pos,Cone_Condition,angle_between_pos_nose,Nose_Cone_Condition,Intercept_Criteria
11,1970-07-23 11:25:31.868452605,2025-09-16,2025-09-26 14:33:06.845,HH,C,2013620246,JASSM,3,103,76,2,2,1,225,9,2,0,1,26,0,0,0,0,-172746.80261404935,-4770012.481416549,4220976.659636021,-2.51448,-0.703426,0.607456,54.375,-46.0,-49.375,0.0,0.0,0.0,0.0,0.0,0.0,2,0,41.67789699950807,-92.0740698477696,10000.00130117342,139.83360878001562,-0.0019652850179589,0.0064461439649624,,8561.873061902648,11079.41924856223,150,11,2025-09-16,2025-09-26 14:33:06.815,HH,C,1364658630,HAWK11,1,1,73,2,1,1,225,2,1,0,0,12,1,225,2,1,-143496.99646170562,-4792944.255830611,4196687.263151646,2.55571,2.30979,-0.726532,-71.0,68.375,76.875,-0.0625,-6.75,6.85938,-0.0136719,0.0,0.0078125,4,0,41.38327932471036,-91.7148784973895,11080.204523352742,-31.33971445200221,2.068810918848753,-2.097227860407906,198.227,8561.873061902648,11079.41924856223,150,True,23.90777770806645,False,175.6191395530389,177.63623102531344,False,6.731631313223614,True,False
11,1970-07-23 11:25:31.880035724,2025-09-16,2025-09-26 14:33:08.003,HH,C,2014933688,JASSM,3,103,76,2,2,1,225,9,2,0,1,26,0,0,0,0,-172686.97107108062,-4770063.235322799,4220922.120573521,-2.51448,-0.70333,0.607456,54.375,-46.0,-49.375,0.0,0.0,0.0,0.0,0.0,0.0,2,0,41.67723985852623,-92.0733300710852,10000.004782929698,139.8304493536829,-0.0037523622138433,0.0033102493284552,,8561.873061902648,11079.41924856223,150,11,2025-09-16,2025-09-26 14:33:08.110,HH,C,1366289060,HAWK11,1,1,73,2,1,1,225,2,1,0,0,12,1,225,2,1,-143593.71130545562,-4792851.096650924,4196791.979948521,2.57114,2.3119,-0.725861,-71.375,68.625,77.0,-0.0625,-6.79688,6.89062,-0.00390625,0.00390625,0.00195312,4,0,41.38452315374189,-91.71606694397636,11085.240574913669,-31.4376964117003,2.0847809837345967,-1.1359863479368388,199.021,8561.873061902648,11079.41924856223,150,True,23.765379508187216,False,175.70176873866603,177.6050807260048,False,6.6816080099913195,True,False
11,1970-07-23 11:25:31.890472674,2025-09-16,2025-09-26 14:33:09.047,HH,C,2016244870,JASSM,3,103,76,2,2,1,225,9,2,0,1,26,0,0,0,0,-172627.24255545562,-4770113.895479049,4220867.675261021,-2.51448,-0.70333,0.607456,54.375,-46.0,-49.375,0.0,0.0,0.0,0.0,0.0,0.0,2,0,41.67658388118328,-92.0725915860348,9999.997026448498,139.83094039422417,-0.0028953073765917,0.0033085967457286,,8561.873061902648,11079.41924856223,150,11,2025-09-16,2025-09-26 14:33:09.017,HH,C,1367482060,HAWK11,1,1,73,2,1,1,225,2,1,0,0,12,1,225,2,1,-143665.01794608062,-4792782.334932174,4196869.194792271,2.57153,2.30797,-0.726628,-71.5,68.875,77.125,-0.015625,-6.84375,6.95312,0.00976562,0.0078125,0.0,4,0,41.38544071768587,-91.71694322680702,11088.792976799974,-31.27160684926808,2.0354606732609044,-1.25750525514707,199.351,8561.873061902648,11079.41924856223,150,True,23.64696778698138,False,175.6923400261949,177.5804065818494,False,6.717860602305687,True,False
11,1970-07-23 11:25:31.902233070,2025-09-16,2025-09-26 14:33:10.223,HH,C,2017556532,JASSM,3,103,76,2,2,1,225,9,2,0,1,26,0,0,0,0,-172567.49157889312,-4770164.579072799,4220813.206511021,-2.51448,-0.70333,0.607456,54.375,-46.0,-49.375,0.0,0.0,0.0,0.0,0.0,0.0,2,0,41.67592760618626,-92.0718528363784,9999.99822910131,139.8314316043676,-0.0020378939618103,0.0033069148314697,,8561.873061902648,11079.41924856223,150,11,2025-09-16,2025-09-26 14:33:10.111,HH,C,1368675058,HAWK11,1,1,73,2,1,1,225,2,1,0,0,12,1,225,2,1,-143736.65075858062,-4792713.496064986,4196946.550261021,2.5837,2.30663,-0.72634,-71.75,69.0,77.375,-0.15625,-6.85938,6.96875,0.0117188,-0.00195312,-0.00585938,4,0,41.38635962460636,-91.71782345741887,11092.492773963271,-31.231659995137225,1.992585547451528,-0.6094433149503511,199.84,8561.873061902648,11079.41924856223,150,True,23.528359614995058,False,175.70805698239482,177.55565544276763,False,6.725402105345537,True,False
11,1970-07-23 11:25:31.912272961,2025-09-16,2025-09-26 14:33:11.227,HH,C,2018809786,JASSM,3,103,76,2,2,1,225,9,2,0,1,26,0,0,0,0,-172510.40173514312,-4770213.000947799,4220761.167448521,-2.51448,-0.70333,0.607456,54.375,-46.0,-49.375,0.0,0.0,0.0,0.0,0.0,0.0,2,0,41.67530060728267,-92.07114700439868,10000.001239653571,139.83190092092894,-0.0012187078189018,0.0033053402720504,,8561.873061902648,11079.41924856223,150,11,2025-09-16,2025-09-26 14:33:11.017,HH,C,1369868058,HAWK11,1,1,73,2,1,1,225,2,1,0,0,12,1,225,2,1,-143808.26989920562,-4792644.175752486,4197024.290495396,2.59933,2.30135,-0.726723,-71.75,69.25,77.625,-0.015625,-6.84375,7.01562,0.015625,0.00390625,0.00976562,4,0,41.38728398782224,-91.71870372175536,11095.849787080477,-31.027668522730696,1.8953158789051936,0.092269508728204,200.329,8561.873061902648,11079.41924856223,150,True,23.411799261007275,False,175.6213258506285,177.53038238174545,False,6.838583542912964,True,False
11,1970-07-23 11:25:31.923297903,2025-09-16,2025-09-26 14:33:12.329,HH,C,2020121582,JASSM,3,103,76,2,2,1,225,9,2,0,1,26,0,0,0,0,-172450.64489920562,-4770263.684541549,4220706.690886021,-2.51448,-0.70333,0.607552,54.375,-46.0,-49.375,0.0,0.0,0.0,0.0,0.0,0.0,2,0,41.674644271606745,-92.0704082138062,9999.99404232954,139.83561632991157,-0.0048107630274147,0.0033035198440135,,8561.873061902648,11079.41924856223,150,11,2025-09-16,2025-09-26 14:33:12.517,HH,C,1371578022,HAWK11,1,1,73,2,1,1,225,2,1,0,0,12,1,225,2,1,-143911.67614920562,-4792544.399385299,4197136.227995396,2.61898,2.29503,-0.727874,-71.75,69.625,78.0,-0.21875,-6.89062,6.90625,0.00976562,0.0078125,0.00585938,4,0,41.38861468528552,-91.7199746105949,11100.810748590056,-30.762349305809693,1.8137601421451195,0.9860837915717118,201.062,8561.873061902648,11079.41924856223,150,True,23.26314722848148,False,175.49162230299171,177.4959935088739,False,7.004265132281108,True,False
11,1970-07-23 11:25:31.934311400,2025-09-16,2025-09-26 14:33:13.431,HH,C,2021434598,JASSM,3,103,76,2,2,1,225,9,2,0,1,26,0,0,0,0,-172390.83239920562,-4770314.415010299,4220652.167448521,-2.51448,-0.70333,0.607552,54.375,-46.0,-49.375,0.0,0.0,0.0,0.0,0.0,0.0,2,0,41.67398734775029,-92.06966875020063,9999.999147737391,139.83610799612467,-0.0039524989420117,0.003301909643949,,8561.873061902648,11079.41924856223,150,11,2025-09-16,2025-09-26 14:33:13.517,HH,C,1372771020,HAWK11,1,1,73,2,1,1,225,2,1,0,0,12,1,225,2,1,-143983.25427420562,-4792474.694307174,4197214.315886021,2.63538,2.28927,-0.731901,-71.625,70.0,78.25,-0.078125,-6.84375,6.9375,0.0234375,-0.00195312,0.0175781,4,0,41.38954367383474,-91.72085458328324,11103.99230910543,-30.433610473508256,1.887157442253222,1.716379231878693,201.478,8561.873061902648,11079.41924856223,150,True,23.144062909552332,False,175.34746860413892,177.46937590263,False,7.177645096471807,True,False
11,1970-07-23 11:25:31.945432010,2025-09-16,2025-09-26 14:33:14.543,HH,C,2022806256,JASSM,3,103,76,2,2,1,225,9,2,0,1,26,0,0,0,0,-172328.34851248687,-4770367.411104049,4220595.206511021,-2.51448,-0.70333,0.607552,54.375,-46.0,-49.375,0.0,0.0,0.0,0.0,0.0,0.0,2,0,41.67330106384222,-92.06889627628496,10000.004069040977,139.83662160396443,-0.0030558910098802,0.003300217849377,,8561.873061902648,11079.41924856223,150,11,2025-09-16,2025-09-26 14:33:14.516,HH,C,1373804952,HAWK11,1,1,73,2,1,1,225,2,1,0,0,12,1,225,2,1,-144044.49255545562,-4792414.450166549,4197281.685026646,2.76471,2.2816,-0.730462,-71.0,70.5,78.5,-0.25,-6.5,6.48438,0.212891,0.0,-0.00195312,4,0,41.3903458680666,-91.721607677279,11106.442142711472,-30.194273332301947,1.650786211758575,8.840696412535538,201.881,8561.873061902648,11079.41924856223,150,True,23.0321395673376,False,175.00524143179973,177.44454916128433,False,7.5481663570792845,True,False
11,1970-07-23 11:25:31.956471180,2025-09-16,2025-09-26 14:33:15.647,HH,C,2024060350,JASSM,3,103,76,2,2,1,225,9,2,0,1,26,0,0,0,0,-172271.22009451812,-4770415.860322799,4220543.124479771,-2.51448,-0.70333,0.607552,54.375,-46.0,-49.375,0.0,0.0,0.0,0.0,0.0,0.0,2,0,41.67267360248736,-92.06819002715169,9999.99481891754,139.83709117373817,-0.0022361364731016,0.0032986737960814,,8561.873061902648,11079.41924856223,150,11,2025-09-16,2025-09-26 14:33:15.703,HH,C,1375475152,HAWK11,1,1,73,2,1,1,225,2,1,0,0,12,1,225,2,1,-144142.43005545562,-4792314.240205611,4197391.946745396,2.98196,2.24623,-0.745515,-68.125,72.5,79.5,-0.03125,-7.01562,7.14062,0.0644531,0.0175781,0.0390625,4,0,41.39166877484308,-91.72281351543016,11106.33561698699,-28.464508299786992,1.6560980983677762,19.97441673638365,202.138,8561.873061902648,11079.41924856223,150,False,22.88807936206852,False,173.46120123996167,177.4048861857001,False,9.131893340253747,True,False
11,1970-07-23 11:25:31.967231014,2025-09-16,2025-09-26 14:33:16.723,HH,C,2025370986,JASSM,3,103,76,2,2,1,225,9,2,0,1,26,0,0,0,0,-172211.51599295562,-4770466.497041549,4220488.694792271,-2.51448,-0.70333,0.607552,54.375,-46.0,-49.375,0.0,0.0,0.0,0.0,0.0,0.0,2,0,41.67201783150639,-92.06745194947698,9999.998488105548,139.83758189942367,-0.0013794101738423,0.0032970510165305,,8561.873061902648,11079.41924856223,150,11,2025-09-16,2025-09-26 14:33:16.907,HH,C,1376827216,HAWK11,1,1,73,2,1,1,225,2,1,0,0,12,1,225,2,1,-144218.63318045562,-4792230.449189986,4197483.524870396,3.05511,2.20251,-0.755677,-64.75,74.25,81.125,-0.40625,-7.48438,7.35938,-0.0078125,0.00976562,0.0253906,4,0,41.392771767247424,-91.72375387884084,11104.497959350016,-26.57566650571677,1.3018640174898726,22.505901764903808,203.054,8561.873061902648,11079.41924856223,150,False,22.75958426649549,False,171.6175354304322,177.36485287029137,False,11.01229662401791,True,False
11,1970-07-23 11:25:31.978251756,2025-09-16,2025-09-26 14:33:17.825,HH,C,2026623686,JASSM,3,103,76,2,2,1,225,9,2,0,1,26,0,0,0,0,-172154.45105154935,-4770514.891572799,4220436.671354771,-2.51448,-0.703234,0.607552,54.375,-46.0,-49.375,0.0,0.0,0.0,0.0,0.0,0.0,2,0,41.67139106831264,-92.06674651345487,9999.997481391034,139.8343977031453,-0.0032078837384146,0.0001588265181429,,8561.873061902648,11079.41924856223,150,11,2025-09-16,2025-09-26 14:33:17.813,HH,C,1377741848,HAWK11,1,1,73,2,1,1,225,2,1,0,0,12,1,225,2,1,-144266.99841483062,-4792173.240205611,4197545.944792271,3.05742,2.18889,-0.758554,-62.125,75.5,82.375,-0.28125,-7.64062,7.45312,-0.015625,0.0175781,0.0410156,4,0,41.39352478150634,-91.7243521815392,11102.748799399931,-25.99634718850521,1.190165436349479,22.11465869984024,203.311,8561.873061902648,11079.41924856223,150,False,22.65919859528093,False,170.2048077647339,177.33193215233482,False,12.45609416089708,True,False
11,1970-07-23 11:25:31.989642113,2025-09-16,2025-09-26 14:33:18.964,HH,C,2027936036,JASSM,3,103,76,2,2,1,225,9,2,0,1,26,0,0,0,0,-172094.66882498687,-4770565.590791549,4220382.167448521,-2.51448,-0.703234,0.607552,54.375,-46.0,-49.375,0.0,0.0,0.0,0.0,0.0,0.0,2,0,41.67073443214592,-92.06600750095508,9999.99457590895,139.83488903803735,-0.0023500388719207,0.0001571474480399,,8561.873061902648,11079.41924856223,150,11,2025-09-16,2025-09-26 14:33:19.108,HH,C,1379531346,HAWK11,1,1,73,2,1,1,225,2,1,0,0,12,1,225,2,1,-144357.03552420562,-4792057.941377486,4197672.751432896,3.05492,2.14383,-0.772935,-57.125,76.875,85.375,-0.015625,-7.78125,7.57812,-0.0078125,0.0117188,0.00390625,4,0,41.39505051720142,-91.72546918970986,11100.869009513606,-23.96291262504386,1.114238399999433,20.223292938925937,204.081,8561.873061902648,11079.41924856223,150,False,22.50664297112121,False,167.5508248606674,177.26230771674562,False,15.18374852436965,True,False
11,1970-07-23 11:25:31.999311184,2025-09-16,2025-09-26 14:33:19.931,HH,C,2029188736,JASSM,3,103,76,2,2,1,225,9,2,0,1,26,0,0,0,0,-172037.60388358062,-4770613.985322799,4220330.144011021,-2.51448,-0.703234,0.607552,54.375,-46.0,-49.375,0.0,0.0,0.0,0.0,0.0,0.0,2,0,41.6701076599469,-92.06530209295572,10000.00231861892,139.83535802494126,-0.0015312027183763,0.0001555590219979,,8561.873061902648,11079.41924856223,150,11,2025-09-16,2025-09-26 14:33:19.813,HH,C,1380366446,HAWK11,1,1,73,2,1,1,225,2,1,0,0,12,1,225,2,1,-144395.92419608062,-4792003.694307174,4197732.804167271,3.06058,2.13521,-0.769867,-54.875,78.0,86.5,-0.25,-7.4375,7.125,0.00390625,-0.0117188,0.0332031,4,0,41.39577162280811,-91.7259532630209,11100.582818483328,-23.7163558804224,0.8058590635673357,20.206907067582875,204.154,8561.873061902648,11079.41924856223,150,False,22.411160494094,False,166.3435055845335,177.2221912789581,False,16.430099930277002,True,False
11,1970-07-23 11:25:32.009454581,2025-09-16,2025-09-26 14:33:20.945,HH,C,2030442546,JASSM,3,103,76,2,2,1,225,9,2,0,1,26,0,0,0,0,-171980.48816092435,-4770662.422822799,4220278.069792271,-2.51448,-0.703234,0.607648,54.375,-46.0,-49.375,0.0,0.0,0.0,0.0,0.0,0.0,2,0,41.66948029600939,-92.06459607096956,10000.004324011928,139.8390498388913,-0.0051582145115312,0.0001537849893747,,8561.873061902648,11079.41924856223,150,11,2025-09-16,2025-09-26 14:33:20.517,HH,C,1381201546,HAWK11,1,1,73,2,1,1,225,2,1,0,0,12,1,225,2,1,-144433.69958670562,-4791947.844697799,4197794.489714146,3.07764,2.1097,-0.769579,-52.625,78.875,87.5,-0.234375,-7.3125,7.0,-0.0117188,0.0078125,0.03125,4,0,41.3965134808634,-91.72642462499284,11099.818370266226,-22.767448762550806,0.3591159195798738,20.17745380715861,204.227,8561.873061902648,11079.41924856223,150,False,22.31511690533021,False,165.18918546872857,177.1785026993862,False,17.62757543188763,True,False
11,1970-07-23 11:25:32.022414167,2025-09-16,2025-09-26 14:33:22.241,HH,C,2031695656,JASSM,3,103,76,2,2,1,225,9,2,0,1,26,0,0,0,0,-171923.40417654935,-4770710.829072799,4220226.026823521,-2.51448,-0.703234,0.607648,54.375,-46.0,-49.375,0.0,0.0,0.0,0.0,0.0,0.0,2,0,41.66885331775037,-92.06389045687976,10000.005036033726,139.8395189513487,-0.0043391148579884,0.0001522486322425,,8561.873061902648,11079.41924856223,150,11,2025-09-16,2025-09-26 14:33:22.313,HH,C,1383150110,HAWK11,1,1,73,2,1,1,225,2,1,0,0,12,1,225,2,1,-144515.76794608062,-4791816.638643111,4197938.495573521,2.9812,2.04834,-0.762964,-48.25,81.5,88.375,-0.015625,-5.98438,5.75,-0.123047,-0.015625,0.0117188,4,0,41.39825135311225,-91.7274522687212,11095.568845043064,-20.575801479560077,-0.9629147577019675,12.201529233370486,204.802,8561.873061902648,11079.41924856223,150,False,22.158348194470115,False,163.0058010404736,177.07724410203295,False,19.903582238703837,True,False
11,1970-07-23 11:25:32.031256556,2025-09-16,2025-09-26 14:33:23.125,HH,C,2033007642,JASSM,3,103,76,2,2,1,225,9,2,0,1,26,0,0,0,0,-171863.63830740875,-4770761.508760299,4220171.534636021,-2.51448,-0.703234,0.607648,54.375,-46.0,-49.375,0.0,0.0,0.0,0.0,0.0,0.0,2,0,41.66819685496496,-92.06315170706029,9999.999422593672,139.84001008718502,-0.0034815148658926,0.0001506247238125,,8561.873061902648,11079.41924856223,150,11,2025-09-16,2025-09-26 14:33:23.202,HH,C,1384104508,HAWK11,1,1,73,2,1,1,225,2,1,0,0,12,1,225,2,1,-144553.71911795562,-4791750.968721236,4198008.538542271,2.92022,2.02773,-0.749733,-47.25,83.375,87.875,-0.03125,-5.625,5.4375,-0.0761719,-0.015625,0.00976562,4,0,41.399108006290405,-91.72792930485194,11088.806998592052,-20.04527253642476,-1.9773252538489503,7.8837501502470415,205.449,8561.873061902648,11079.41924856223,150,True,22.054858490759393,False,162.44265712055596,177.02065817569323,False,20.50952804589588,True,False
11,1970-07-23 11:25:32.042822778,2025-09-16,2025-09-26 14:33:24.282,HH,C,2034319908,JASSM,3,103,76,2,2,1,225,9,2,0,1,26,0,0,0,0,-171803.859498815,-4770812.200166549,4220117.030729771,-2.51439,-0.703234,0.607648,54.375,-46.0,-49.375,0.0,0.0,0.0,0.0,0.0,0.0,2,0,41.6675402412963,-92.06241281199118,10000.000497012405,139.84050131323727,-0.0026237259421034,0.0056404701767149,,8561.873061902648,11079.41924856223,150,11,2025-09-16,2025-09-26 14:33:24.407,HH,C,1385854240,HAWK11,1,1,73,2,1,1,225,2,1,0,0,12,1,225,2,1,-144622.01013358062,-4791625.588838424,4198138.657682896,2.87305,2.0122,-0.750788,-46.0,85.375,88.125,-0.21875,-6.73438,6.42188,0.0546875,-0.00390625,0.0,4,0,41.40071994136471,-91.72879033700669,11067.77036512169,-19.41380308576792,-2.1442440510560314,4.551687321341994,206.574,8561.873061902648,11079.41924856223,150,True,21.90650575445393,False,161.66521912092006,176.91642318800083,False,21.37952688590142,True,False
11,1970-07-23 11:25:32.054274443,2025-09-16,2025-09-26 14:33:25.427,HH,C,2035690840,JASSM,3,103,76,2,2,1,225,9,2,0,1,26,0,0,0,0,-171741.40832694,-4770865.157197799,4220060.089323521,-2.51439,-0.703234,0.607648,54.375,-46.0,-49.375,0.0,0.0,0.0,0.0,0.0,0.0,2,0,41.66685426567472,-92.0616409014662,10000.003354049217,139.84101448156744,-0.0017275876450724,0.0056387684645791,,8561.873061902648,11079.41924856223,150,11,2025-09-16,2025-09-26 14:33:25.313,HH,C,1386927940,HAWK11,1,1,73,2,1,1,225,2,1,0,0,12,1,225,2,1,-144663.14294608062,-4791548.423799361,4198218.239714146,2.90009,2.01114,-0.748295,-45.375,86.25,88.5,0.046875,-6.64062,6.39062,-0.00585938,-0.00390625,0.0078125,4,0,41.40170879228272,-91.72930956626602,11053.681909991335,-19.421217130234872,-2.292531763709351,6.0598992323414365,207.295,8561.873061902648,11079.41924856223,150,True,21.79369079806894,False,161.2685480885306,176.84771308260457,False,21.841783867544624,True,False
11,1970-07-23 11:25:32.064831085,2025-09-16,2025-09-26 14:33:26.483,HH,C,2036945292,JASSM,3,103,76,2,2,1,225,9,2,0,1,26,0,0,0,0,-171684.26330740875,-4770913.610322799,4220007.983854771,-2.51439,-0.703234,0.607648,54.375,-46.0,-49.375,0.0,0.0,0.0,0.0,0.0,0.0,2,0,41.66622658169522,-92.06093459244386,9999.99508835638,139.84148403175843,-0.0009075999246572,0.0056372182593906,,8561.873061902648,11079.41924856223,150,11,2025-09-16,2025-09-26 14:33:26.312,HH,C,1388041404,HAWK11,1,1,73,2,1,1,225,2,1,0,0,12,1,225,2,1,-144704.78161795562,-4791468.259736861,4198300.077604771,2.91897,1.98996,-0.749541,-44.625,87.5,88.625,-0.390625,-6.95312,6.51562,0.0410156,0.0117188,0.00390625,4,0,41.4027306194692,-91.72983593751415,11037.156022872625,-18.558687011727127,-2.52041598384634,6.279302111775591,208.394,8561.873061902648,11079.41924856223,150,True,21.683798908711502,False,160.79896088657554,176.77608769862047,False,22.37487742091819,True,False
11,1970-07-23 11:25:32.076010608,2025-09-16,2025-09-26 14:33:27.601,HH,C,2038255888,JASSM,3,103,76,2,2,1,225,9,2,0,1,26,0,0,0,0,-171624.56042654935,-4770964.235322799,4219953.546354771,-2.51439,-0.703138,0.607648,54.375,-46.0,-49.375,0.0,0.0,0.0,0.0,0.0,0.0,2,0,41.66557078067805,-92.06019668173838,9999.999107273135,139.8383240300591,-0.0026965841304619,0.0025003851313217,,8561.873061902648,11079.41924856223,150,11,2025-09-16,2025-09-26 14:33:27.608,HH,C,1389353704,HAWK11,1,1,73,2,1,1,225,2,1,0,0,12,1,225,2,1,-144752.77575858062,-4791372.349580611,4198398.462370396,2.91178,1.99283,-0.775523,-43.25,86.875,90.375,-0.15625,-8.42188,7.84375,-0.0449219,0.00390625,0.00585938,4,0,41.40395666983218,-91.73044393931494,11018.282772228244,-18.184778025815504,-1.0733213416442982,5.969472393074236,209.494,8561.873061902648,11079.41924856223,150,True,21.560316413769808,False,160.15908265980428,176.68826798038103,False,23.121824344340418,True,False
11,1970-07-23 11:25:32.086270793,2025-09-16,2025-09-26 14:33:28.627,HH,C,2039508688,JASSM,3,103,76,2,2,1,225,9,2,0,1,26,0,0,0,0,-171567.49060233062,-4771012.622041549,4219901.511198521,-2.51439,-0.703138,0.607648,54.375,-46.0,-49.375,0.0,0.0,0.0,0.0,0.0,0.0,2,0,41.664943941236096,-92.05949133127564,9999.996926881313,139.8387929312331,-0.0018776969569864,0.0024988018790717,,8561.873061902648,11079.41924856223,150,11,2025-09-16,2025-09-26 14:33:28.516,HH,C,1390745536,HAWK11,1,1,73,2,1,1,225,2,1,0,0,12,1,225,2,1,-144802.91052420562,-4791271.054658736,4198505.288542271,2.85666,1.98325,-0.793356,-42.375,86.25,91.875,-0.359375,-8.0,7.48438,-0.0351562,0.0,-0.0175781,4,0,41.40527134783384,-91.73107948438178,11004.651639093669,-17.48580054692224,-0.23169167696811,2.4149212206287363,210.203,8561.873061902648,11079.41924856223,150,True,21.434432925869718,False,159.7245529851266,176.59228988259065,False,23.665071782753195,True,False
11,1970-07-23 11:25:32.097295888,2025-09-16,2025-09-26 14:33:29.729,HH,C,2040821244,JASSM,3,103,76,2,2,1,225,9,2,0,1,26,0,0,0,0,-171507.6983660025,-4771063.321260299,4219846.991667271,-2.51439,-0.703138,0.607744,54.375,-46.0,-49.375,0.0,0.0,0.0,0.0,0.0,0.0,2,0,41.664287154800014,-92.05875234617598,10000.005106924857,139.8425088588635,-0.0054689020745727,0.0024969357135346,,8561.873061902648,11079.41924856223,150,11,2025-09-16,2025-09-26 14:33:29.705,HH,C,1392137366,HAWK11,1,1,73,2,1,1,225,2,1,0,0,12,1,225,2,1,-144851.75622733062,-4791171.272432174,4198612.378386021,2.79558,1.98382,-0.793356,-42.125,86.125,92.5,-0.09375,-7.10938,6.67188,-0.0253906,-0.00585938,0.015625,4,0,41.4065790357323,-91.73169910815557,10995.229907353929,-17.50810060218548,-0.2228731267590422,-1.060600890071128,210.203,8561.873061902648,11079.41924856223,150,True,21.307069351947135,False,159.57263809240297,176.4940125649457,False,23.91901346724252,True,False
11,1970-07-23 11:25:32.107329790,2025-09-16,2025-09-26 14:33:30.732,HH,C,2042075368,JASSM,3,103,76,2,2,1,225,9,2,0,1,26,0,0,0,0,-171450.56799490875,-4771111.758760299,4219794.897917271,-2.51439,-0.703138,0.607744,54.375,-46.0,-49.375,0.0,0.0,0.0,0.0,0.0,0.0,2,0,41.66365962184222,-92.05804627568196,10000.002941282024,139.84297822695154,-0.004649131085259,0.0024953841741194,,8561.873061902648,11079.41924856223,150,11,2025-09-16,2025-09-26 14:33:30.406,HH,C,1392932700,HAWK11,1,1,73,2,1,1,225,2,1,0,0,12,1,225,2,1,-144879.74646170562,-4791113.961885299,4198674.122526646,2.79223,1.98181,-0.801984,-42.125,85.875,92.875,-0.15625,-7.875,7.26562,0.00195312,0.015625,-0.00585938,4,0,41.40733172072699,-91.73205423259284,10990.332235928296,-17.273343613321686,0.220289683447042,-1.3353971007393988,210.313,8561.873061902648,11079.41924856223,150,True,21.214355938904582,False,159.55753429183764,176.43338985155282,False,23.99750802038196,True,False
11,1970-07-23 11:25:32.118012475,2025-09-16,2025-09-26 14:33:31.801,HH,C,2043328198,JASSM,3,103,76,2,2,1,225,9,2,0,1,26,0,0,0,0,-171393.49646170562,-4771160.145479049,4219742.854948521,-2.51439,-0.703138,0.607744,54.375,-46.0,-49.375,0.0,0.0,0.0,0.0,0.0,0.0,2,0,41.66303271683918,-92.05734094643736,9999.996600988676,139.8434470964961,-0.003830193814508,0.0024938250005954,,8561.873061902648,11079.41924856223,150,11,2025-09-16,2025-09-26 14:33:31.907,HH,C,1394761964,HAWK11,1,1,73,2,1,1,225,2,1,0,0,12,1,225,2,1,-144944.67028983062,-4790983.423799361,4198817.356901646,2.75235,1.99552,-0.810709,-42.625,84.875,93.75,-0.09375,-7.67188,7.17188,0.00390625,0.00976562,0.00585938,4,0,41.4090634555354,-91.73287711637676,10984.916064502497,-17.625641764769107,0.8715471357462816,-3.056873012707489,211.01,8561.873061902648,11079.41924856223,150,True,21.064730240628233,False,159.7536152617574,176.30375529904484,False,23.937647131349564,True,False
11,1970-07-23 11:25:32.128587726,2025-09-16,2025-09-26 14:33:32.858,HH,C,2044640062,JASSM,3,103,76,2,2,1,225,9,2,0,1,26,0,0,0,0,-171333.73596365875,-4771210.813447799,4219688.358854771,-2.51439,-0.703138,0.607744,54.375,-46.0,-49.375,0.0,0.0,0.0,0.0,0.0,0.0,2,0,41.66237625394362,-92.05660239914516,9999.99579357048,139.84393804162625,-0.0029726590265053,0.0024921823085378,,8561.873061902648,11079.41924856223,150,11,2025-09-16,2025-09-26 14:33:33.202,HH,C,1396193562,HAWK11,1,1,73,2,1,1,225,2,1,0,0,12,1,225,2,1,-144995.97888358062,-4790882.351533736,4198930.235807896,2.75254,2.00539,-0.81627,-43.125,84.0,94.25,0.109375,-7.46875,6.89062,0.0078125,0.0,-0.00390625,4,0,41.41041744032427,-91.7335267076946,10985.103268189505,-17.886542590015928,1.3028244634334103,-2.639618201429928,211.156,8561.873061902648,11079.41924856223,150,True,20.934646205422023,False,159.96869624521446,176.19911035438525,False,23.83038837266123,True,False
11,1970-07-23 11:25:32.140509285,2025-09-16,2025-09-26 14:33:34.050,HH,C,2045951972,JASSM,3,103,76,2,2,1,225,9,2,0,1,26,0,0,0,0,-171273.97302420562,-4771261.481416549,4219633.862761021,-2.51439,-0.703138,0.607744,54.375,-45.875,-49.375,0.0,0.0,0.0,0.0,0.0,0.0,2,0,41.66171978675151,-92.05586383757516,9999.999457832988,139.84442898990025,-0.0021151104347182,0.0024905566452186,,8561.873061902648,11079.41924856223,150,11,2025-09-16,2025-09-26 14:33:33.907,HH,C,1397147962,HAWK11,1,1,73,2,1,1,225,2,1,0,0,12,1,225,2,1,-145030.15857108062,-4790815.385713424,4199005.663542271,2.75282,2.01306,-0.818954,-43.125,83.75,94.25,0.0,-7.53125,7.04688,-0.0078125,0.0,0.0,4,0,41.41131880798845,-91.7339593220318,10986.635876848724,-18.1175625355038,1.5503456050939324,-2.308255168949765,211.193,8561.873061902648,11079.41924856223,150,True,20.83095229244213,False,159.95615027793107,176.1544361988671,False,23.885594431448553,True,False
11,1970-07-23 11:25:32.151271702,2025-09-16,2025-09-26 14:33:35.127,HH,C,2047264658,JASSM,3,103,76,2,2,1,225,9,2,0,1,26,0,0,0,0,-171214.17468436187,-4771312.176729049,4219579.331511021,-2.51439,-0.703138,0.607744,54.375,-45.875,-49.375,0.0,0.0,0.0,0.0,0.0,0.0,2,0,41.66106292250192,-92.05512485468516,9999.995005172894,139.8449202118891,-0.0012570517515984,0.0024889271578544,,8561.873061902648,11079.41924856223,150,11,2025-09-16,2025-09-26 14:33:34.924,HH,C,1397704694,HAWK11,1,1,73,2,1,1,225,2,1,0,0,12,1,225,2,1,-145050.29333670562,-4790776.434541549,4199049.614714146,2.75062,2.01373,-0.820967,-43.25,83.5,94.375,-0.078125,-7.42188,6.89062,0.0,0.00976562,0.00976562,4,0,41.411843575512826,-91.73421399456876,10987.718335664817,-18.102962125678687,1.6682831845747943,-2.406052390516479,211.046,8561.873061902648,11079.41924856223,150,True,20.749074050333306,False,160.01085617419483,176.10730956308737,False,23.878936392937092,True,False
11,1970-07-23 11:25:32.162274827,2025-09-16,2025-09-26 14:33:36.227,HH,C,2048577088,JASSM,3,103,76,2,2,1,225,9,2,0,1,26,0,0,0,0,-171154.38806326812,-4771362.864229049,4219524.811979771,-2.51439,-0.703138,0.607744,54.375,-45.875,-49.375,0.0,0.0,0.0,0.0,0.0,0.0,2,0,41.66040617640622,-92.05438603071627,10000.002693815431,139.84541132188698,-0.0003991562919323,0.0024872947770278,,8561.873061902648,11079.41924856223,150,11,2025-09-16,2025-09-26 14:33:36.204,HH,C,1399891858,HAWK11,1,1,73,2,1,1,225,2,1,0,0,12,1,225,2,1,-145130.41833670562,-4790623.252900924,4199223.427214146,2.78983,2.01709,-0.825953,-43.625,82.875,94.625,-0.140625,-7.42188,6.85938,0.046875,0.0078125,-0.0078125,4,0,41.413913660629504,-91.73522682827956,10994.164575835526,-18.128382921528683,1.98362690987162,-0.0190332650846888,210.802,8561.873061902648,11079.41924856223,150,True,20.57691021886879,False,160.17787817607018,175.94930801211547,False,23.871638058798958,True,False
11,1970-07-23 11:25:32.174010304,2025-09-16,2025-09-26 14:33:37.401,HH,C,2049949254,JASSM,3,103,76,2,2,1,225,9,2,0,1,26,0,0,0,0,-171091.88025076812,-4771415.852510299,4219467.808073521,-2.51439,-0.703043,0.607744,54.375,-45.875,-49.375,0.0,0.0,0.0,0.0,0.0,0.0,2,0,41.65971955115664,-92.05361359788084,9999.9940477592,139.84227233020937,-0.0021495868903804,-0.000652022816365,,8561.873061902648,11079.41924856223,150,11,2025-09-16,2025-09-26 14:33:37.407,HH,C,1401283690,HAWK11,1,1,73,2,1,1,225,2,1,0,0,12,1,225,2,1,-145181.00622733062,-4790526.652314986,4199333.710417271,2.83969,2.00865,-0.828541,-43.25,83.0,94.375,-0.1875,-7.01562,6.59375,0.0351562,0.0,0.015625,4,0,41.415223634161606,-91.73586628518645,10999.7089932042,-17.770395914613022,2.0127021823878914,2.494138153031703,209.959,8561.873061902648,11079.41924856223,150,True,20.44694492770486,False,160.04756346989603,175.84333054559258,False,24.107333011967015,True,False
11,1970-07-23 11:25:32.184331808,2025-09-16,2025-09-26 14:33:38.433,HH,C,2051260096,JASSM,3,103,76,2,2,1,225,9,2,0,1,26,0,0,0,0,-171032.16662772125,-4771466.473604049,4219413.354948521,-2.51439,-0.703043,0.60784,54.375,-45.875,-49.375,0.0,0.0,0.0,0.0,0.0,0.0,2,0,41.65906362300794,-92.0528757086038,9999.999888484135,139.84598571948385,-0.0057390045468982,-0.0006538900410519,,8561.873061902648,11079.41924856223,150,11,2025-09-16,2025-09-26 14:33:38.406,HH,C,1402516456,HAWK11,1,1,73,2,1,1,225,2,1,0,0,12,1,225,2,1,-145225.12341483062,-4790441.239229049,4199430.675261021,2.85531,1.99187,-0.82231,-42.625,83.375,94.125,-0.25,-7.0625,6.0625,-0.0117188,0.0,0.0078125,4,0,41.41637831726364,-91.73642439314804,11003.390433082312,-17.274606975892066,1.4601842590433542,2.698197323613051,209.531,8561.873061902648,11079.41924856223,150,True,20.328663140266972,False,159.79559536622767,175.74747733367778,False,24.45381226018966,True,False
11,1970-07-23 11:25:32.194471365,2025-09-16,2025-09-26 14:33:39.447,HH,C,2052454260,JASSM,3,103,76,2,2,1,225,9,2,0,1,26,0,0,0,0,-170977.7667253775,-4771512.590791549,4219363.741667271,-2.51439,-0.703043,0.60784,54.375,-45.875,-49.375,0.0,0.0,0.0,0.0,0.0,0.0,2,0,41.65846601665159,-92.0522034944236,9999.998430362324,139.8464325355732,-0.0049583903621779,-0.0006553945621538,,8561.873061902648,11079.41924856223,150,11,2025-09-16,2025-09-26 14:33:39.514,HH,C,1403828754,HAWK11,1,1,73,2,1,1,225,2,1,0,0,12,1,225,2,1,-145271.82458670562,-4790348.850557174,4199534.606901646,2.8534,1.97816,-0.819529,-41.875,83.625,93.75,-0.0625,-6.75,5.75,-0.00976562,0.00195312,0.00195312,4,0,41.41762105603077,-91.73701592626982,11005.240661191136,-16.819516922814238,1.1380206033704554,2.023900390623123,208.932,8561.873061902648,11079.41924856223,150,True,20.210164376886496,False,159.5137734177338,175.6441716480483,False,24.837296711952618,True,False
11,1970-07-23 11:25:32.205489366,2025-09-16,2025-09-26 14:33:40.548,HH,C,2053707308,JASSM,3,103,76,2,2,1,225,9,2,0,1,26,0,0,0,0,-170920.68493826812,-4771560.981416549,4219311.683073521,-2.51439,-0.703043,0.60784,54.375,-45.875,-49.375,0.0,0.0,0.0,0.0,0.0,0.0,2,0,41.65783894902155,-92.05149815387216,10000.002092660134,139.84690136487694,-0.0041392958471675,-0.000656970290726,,8561.873061902648,11079.41924856223,150,11,2025-09-16,2025-09-26 14:33:40.312,HH,C,1404703620,HAWK11,1,1,73,2,1,1,225,2,1,0,0,12,1,225,2,1,-145302.50232108062,-4790287.367158736,4199603.087370396,2.84534,1.97519,-0.816557,-41.5,84.0,93.125,0.078125,-6.82812,5.82812,-0.0175781,-0.00390625,-0.00390625,4,0,41.41844353201778,-91.7374048009624,11004.962245244067,-16.76330648079853,0.9404898950208518,1.4392525904224227,208.651,8561.873061902648,11079.41924856223,150,True,20.113798110891985,False,159.40075834973152,175.57084540824553,False,25.020442355661118,True,False
11,1970-07-23 11:25:32.215254064,2025-09-16,2025-09-26 14:33:41.525,HH,C,2054959832,JASSM,3,103,76,2,2,1,225,9,2,0,1,26,0,0,0,0,-170863.62707694,-4771609.344697799,4219259.647917271,-2.51429,-0.703043,0.60784,54.375,-45.875,-49.375,0.0,0.0,0.0,0.0,0.0,0.0,2,0,41.65721219291422,-92.05079312567128,9999.996256219038,139.84736998077778,-0.0033205865983535,0.0048329592053918,,8561.873061902648,11079.41924856223,150,11,2025-09-16,2025-09-26 14:33:41.702,HH,C,1406413586,HAWK11,1,1,73,2,1,1,225,2,1,0,0,12,1,225,2,1,-145361.51599295562,-4790166.832002486,4199736.325651646,2.83269,1.96838,-0.815598,-41.0,84.25,92.5,0.0,-7.3125,6.23438,-0.00390625,-0.00976562,0.0078125,4,0,41.4200493103979,-91.73815371324768,11002.144753361536,-16.52727601404894,0.8062504616656739,0.4337286896938404,208.003,8561.873061902648,11079.41924856223,150,True,19.972666364082986,False,159.24175011999014,175.43576195231515,False,25.311182192739878,True,False
11,1970-07-23 11:25:32.226275513,2025-09-16,2025-09-26 14:33:42.627,HH,C,2056272054,JASSM,3,103,76,2,2,1,225,9,2,0,1,26,0,0,0,0,-170803.84948904935,-4771660.016572799,4219205.128386021,-2.51429,-0.703043,0.60784,54.375,-45.875,-49.375,0.0,0.0,0.0,0.0,0.0,0.0,2,0,41.65655551000873,-92.05005450476033,9999.993961058812,139.84786091877135,-0.0024628159132493,0.0048313135184902,,8561.873061902648,11079.41924856223,150,11,2025-09-16,2025-09-26 14:33:43.001,HH,C,1407964484,HAWK11,1,1,73,2,1,1,225,2,1,0,0,12,1,225,2,1,-145414.20739920562,-4790058.428682174,4199856.493620396,2.81927,1.96455,-0.818475,-40.75,81.875,94.375,-0.140625,-7.9375,6.78125,-0.0195312,0.00390625,0.00585938,4,0,41.42149582747725,-91.73882270771168,11000.33621032055,-16.33364913538849,0.9178569085286016,-0.4925257511214775,207.429,8561.873061902648,11079.41924856223,150,True,19.838628842179645,False,159.09893371177594,175.31012666750806,False,25.59067348895402,True,False
11,1970-07-23 11:25:32.237287513,2025-09-16,2025-09-26 14:33:43.728,HH,C,2057584200,JASSM,3,103,76,2,2,1,225,9,2,0,1,26,0,0,0,0,-170744.07556326812,-4771710.684541549,4219150.616667271,-2.51429,-0.703043,0.60784,54.375,-45.875,-49.375,0.0,0.0,0.0,0.0,0.0,0.0,2,0,41.65589889737837,-92.0493159444472,10000.00414280735,139.8483518101379,-0.0016051244943314,0.0048296901903352,,8561.873061902648,11079.41924856223,150,11,2025-09-16,2025-09-26 14:33:43.906,HH,C,1408998416,HAWK11,1,1,73,2,1,1,225,2,1,0,0,12,1,225,2,1,-145449.52380545562,-4789985.499971236,4199937.522917271,2.8393,1.96484,-0.821543,-40.375,83.25,92.75,-0.1875,-7.65625,6.625,0.0371094,0.00195312,0.00195312,4,0,41.42247025278118,-91.73927121631095,10999.521522788598,-16.29036611332198,1.0895532300815998,0.6683962090644422,206.965,8561.873061902648,11079.41924856223,150,True,19.731756596840363,False,159.03642240376365,175.22015952636386,False,25.73723513453107,True,False
11,1970-07-23 11:25:32.248334214,2025-09-16,2025-09-26 14:33:44.833,HH,C,2058897354,JASSM,3,103,76,2,2,1,225,9,2,0,1,26,0,0,0,0,-170684.25573904935,-4771761.391572799,4219096.058073521,-2.51429,-0.703043,0.60784,54.375,-45.875,-49.375,0.0,0.0,0.0,0.0,0.0,0.0,2,0,41.65524174106203,-92.04857683197132,10000.008467951411,139.84884306214985,-0.0007467478533545,0.0048280432712156,,8561.873061902648,11079.41924856223,150,11,2025-09-16,2025-09-26 14:33:45.002,HH,C,1410390248,HAWK11,1,1,73,2,1,1,225,2,1,0,0,12,1,225,2,1,-145495.93200858062,-4789889.262666549,4200045.204557896,2.87391,1.95755,-0.825953,-39.75,83.0,92.625,-0.203125,-7.48438,6.5,0.0273438,0.0117188,0.00976562,4,0,41.42376123761972,-91.7398607547377,11000.08049157923,-15.943244854597436,1.2445541033252716,2.3522700239583334,206.354,8561.873061902648,11079.41924856223,150,True,19.60697368092295,False,158.80912057869483,175.1032201604703,False,26.081924763924242,True,False
11,1970-07-23 11:25:32.258452740,2025-09-16,2025-09-26 14:33:45.845,HH,C,2060148298,JASSM,3,103,76,2,2,1,225,9,2,0,1,26,0,0,0,0,-170627.269655065,-4771809.692354049,4219044.081511021,-2.51429,-0.703043,0.60784,54.375,-45.875,-49.375,0.0,0.0,0.0,0.0,0.0,0.0,2,0,41.65461571898582,-92.04787274795576,10000.00127734036,139.84931102653897,7.095920434589463e-05,0.004826478738272,,8561.873061902648,11079.41924856223,150,11,2025-09-16,2025-09-26 14:33:45.812,HH,C,1411344646,HAWK11,1,1,73,2,1,1,225,2,1,0,0,12,1,225,2,1,-145527.62927420562,-4789823.120088424,4200119.331511021,2.89261,1.94653,-0.825473,-39.25,82.875,92.375,-0.171875,-7.17188,6.20312,-0.00195312,-0.00976562,0.00195312,4,0,41.42464934961377,-91.7402635781982,11000.714677494188,-15.543086340846134,1.0907677347419336,2.967315307199939,205.706,8561.873061902648,11079.41924856223,150,True,19.507710955255995,False,158.63695767246685,175.01808252033842,False,26.33884849773189,True,False
11,1970-07-23 11:25:32.269491011,2025-09-16,2025-09-26 14:33:46.949,HH,C,2061400990,JASSM,3,103,76,2,2,1,225,9,2,0,1,26,0,0,0,0,-170570.20373709625,-4771858.059541549,4218992.034636021,-2.51429,-0.702947,0.60784,54.375,-45.875,-49.375,0.0,0.0,0.0,0.0,0.0,0.0,2,0,41.65398883986649,-92.0471676917656,10000.000718516245,139.8461298548521,-0.0017559443798065,0.0016887994879667,,8561.873061902648,11079.41924856223,150,11,2025-09-16,2025-09-26 14:33:46.906,HH,C,1412617178,HAWK11,1,1,73,2,1,1,225,2,1,0,0,12,1,225,2,1,-145569.34607108062,-4789734.192354049,4200218.464323521,2.89539,1.9355,-0.825282,-38.5,83.0,92.0,-0.265625,-7.48438,6.32812,-0.00585938,-0.00390625,0.00976562,4,0,41.42583998855476,-91.74079443309346,11000.358854818573,-15.136837318011189,0.9562062754206908,2.669763789672222,205.669,8561.873061902648,11079.41924856223,150,True,19.39154326878139,False,158.3525054686659,174.90622455876166,False,26.733383406000282,True,False
11,1970-07-23 11:25:32.280253089,2025-09-16,2025-09-26 14:33:48.025,HH,C,2062654516,JASSM,3,103,76,2,2,1,225,9,2,0,1,26,0,0,0,0,-170513.09997733062,-4771906.457979049,4218939.948698521,-2.51429,-0.702947,0.607936,54.375,-45.875,-49.375,0.0,0.0,0.0,0.0,0.0,0.0,2,0,41.65336151498543,-92.04646218207436,9999.992500073977,139.84982391771717,-0.0053853808624529,0.0016870002101579,,8561.873061902648,11079.41924856223,150,11,2025-09-16,2025-09-26 14:33:48.002,HH,C,1413929478,HAWK11,1,1,73,2,1,1,225,2,1,0,0,12,1,225,2,1,-145611.03552420562,-4789643.761689986,4200319.712370396,2.91878,1.9285,-0.824611,-38.0,80.875,93.75,-0.359375,-7.46875,6.25,0.0234375,0.00195312,-0.00585938,4,0,41.42705384758977,-91.74132552667596,11000.907358051712,-14.887427546880255,0.8427582983455367,3.719543948858011,205.388,8561.873061902648,11079.41924856223,150,True,19.274427846008038,False,158.0881919773049,174.7900656315017,False,27.12170693607937,True,False
11,1970-07-23 11:25:32.290287876,2025-09-16,2025-09-26 14:33:49.028,HH,C,2063908394,JASSM,3,103,76,2,2,1,225,9,2,0,1,26,0,0,0,0,-170455.98034842435,-4771954.872041549,4218887.851042271,-2.51429,-0.702947,0.607936,54.375,-45.875,-49.375,0.0,0.0,0.0,0.0,0.0,0.0,2,0,41.65273401690008,-92.04575648908606,9999.99989777292,139.85029293431586,-0.0045657605057484,0.0016854286206061,,8561.873061902648,11079.41924856223,150,11,2025-09-16,2025-09-26 14:33:48.920,HH,C,1414685044,HAWK11,1,1,73,2,1,1,225,2,1,0,0,12,1,225,2,1,-145634.94372733062,-4789590.182588424,4200378.770964146,2.93949,1.91834,-0.825761,-37.125,82.875,92.0,0.0,-7.35938,6.09375,0.0195312,-0.00585938,0.00976562,4,0,41.42776691378441,-91.74163073342132,10999.15980895974,-14.489918873889309,0.796079414857739,4.484016027444467,204.838,8561.873061902648,11079.41924856223,150,True,19.185710402246677,False,157.780505360746,174.71489193731702,False,27.497094333694307,True,False
11,1970-07-23 11:25:32.301228033,2025-09-16,2025-09-26 14:33:50.122,HH,C,2065101440,JASSM,3,103,76,2,2,1,225,9,2,0,1,26,0,0,0,0,-170401.63147147125,-4772000.934541549,4218838.280729771,-2.51429,-0.702947,0.607936,54.375,-45.875,-49.375,0.0,0.0,0.0,0.0,0.0,0.0,2,0,41.65213697317812,-92.04508504181132,10000.003748535226,139.8507391851976,-0.0037859139212068,0.0016839452821938,,8561.873061902648,11079.41924856223,150,11,2025-09-16,2025-09-26 14:33:50.113,HH,C,1416474542,HAWK11,1,1,73,2,1,1,225,2,1,0,0,12,1,225,2,1,-145689.32849295562,-4789466.807588424,4200515.708464146,2.97784,1.89514,-0.829692,-35.625,83.0,91.75,-0.296875,-7.40625,6.34375,0.0253906,0.00585938,0.00976562,4,0,41.42941536452706,-91.74232556637917,10997.15099767308,-13.563488704318498,0.7731733216523381,5.715127168976498,204.411,8561.873061902648,11079.41924856223,150,True,19.047555610901274,False,157.15773341115775,174.5568977780054,False,28.276325909861708,True,False
11,1970-07-23 11:25:32.310470203,2025-09-16,2025-09-26 14:33:51.047,HH,C,2066352134,JASSM,3,103,76,2,2,1,225,9,2,0,1,26,0,0,0,0,-170344.65686209625,-4772049.223604049,4218786.311979771,-2.51429,-0.702947,0.607936,54.375,-45.875,-49.375,0.0,0.0,0.0,0.0,0.0,0.0,2,0,41.65151104950572,-92.0443811680261,10000.007019558376,139.85120698144394,-0.0029683669634021,0.0016823705697843,,8561.873061902648,11079.41924856223,150,11,2025-09-16,2025-09-26 14:33:51.001,HH,C,1417428940,HAWK11,1,1,73,2,1,1,225,2,1,0,0,12,1,225,2,1,-145717.35778983062,-4789400.238252486,4200589.370573521,3.00651,1.88392,-0.828445,-34.625,83.125,91.75,-0.09375,-7.45312,6.35938,0.0195312,0.00195312,0.00390625,4,0,41.430303534896325,-91.74268477407728,10995.487880146504,-13.162358741773634,0.5937048428231142,6.888560116828431,204.117,8561.873061902648,11079.41924856223,150,True,18.94997814886185,False,156.72030330993667,174.46229448672548,False,28.807731455791117,True,False
11,1970-07-23 11:25:32.320507239,2025-09-16,2025-09-26 14:33:52.050,HH,C,2067546534,JASSM,3,103,76,2,2,1,225,9,2,0,1,26,0,0,0,0,-170290.246217565,-4772095.336885299,4218736.679167271,-2.51429,-0.702947,0.607936,54.375,-45.875,-49.375,0.0,0.0,0.0,0.0,0.0,0.0,2,0,41.65091328700403,-92.04370898375775,10000.001542648137,139.85165371137523,-0.0021876097286357,0.0016808644393423,,8561.873061902648,11079.41924856223,150,11,2025-09-16,2025-09-26 14:33:51.906,HH,C,1418462872,HAWK11,1,1,73,2,1,1,225,2,1,0,0,12,1,225,2,1,-145747.31482108062,-4789327.180635299,4200670.017057896,3.0044,1.86407,-0.82672,-33.625,83.25,91.75,-0.421875,-7.20312,6.0625,-0.0117188,-0.0078125,0.0117188,4,0,41.43127709937542,-91.74306939210942,10993.184993957617,-12.441007390280252,0.3099640737172368,5.936231844981005,203.494,8561.873061902648,11079.41924856223,150,True,18.85024876616433,False,156.2814780649511,174.35872248618435,False,29.34951421211282,True,False
11,1970-07-23 11:25:32.332230301,2025-09-16,2025-09-26 14:33:53.223,HH,C,2068857532,JASSM,3,103,76,2,2,1,225,9,2,0,1,26,0,0,0,0,-170230.52404959625,-4772145.950166549,4218682.206511021,-2.51429,-0.702947,0.607936,54.375,-45.875,-49.375,0.0,0.0,0.0,0.0,0.0,0.0,2,0,41.65025721147149,-92.042971196367,10000.007720656688,139.8521440347208,-0.0013306699616625,0.001679239674735,,8561.873061902648,11079.41924856223,150,11,2025-09-16,2025-09-26 14:33:53.202,HH,C,1420172838,HAWK11,1,1,73,2,1,1,225,2,1,0,0,12,1,225,2,1,-145794.37146170562,-4789207.646455611,4200801.433073521,3.02568,1.84691,-0.824994,-31.875,83.625,91.5,-0.15625,-7.17188,6.15625,-0.00976562,-0.0175781,0.00585938,4,0,41.43286675358713,-91.74367531264228,10988.123639449292,-11.81603801930178,0.060548981430096,6.4349929790429705,203.091,8561.873061902648,11079.41924856223,150,True,18.71315182061969,False,155.52141616115966,174.1930863274941,False,30.27232926475905,False,False
11,1970-07-23 11:25:32.342268259,2025-09-16,2025-09-26 14:33:54.226,HH,C,2070111118,JASSM,3,103,76,2,2,1,225,9,2,0,1,26,0,0,0,0,-170173.41760428375,-4772194.344697799,4218630.112761021,-2.51429,-0.702947,0.607936,54.375,-45.875,-49.375,0.0,0.0,0.0,0.0,0.0,0.0,2,0,41.64962983181271,-92.04226573757543,9999.998115252622,139.85261286699796,-0.0005112365125484,0.0016776632884872,,8561.873061902648,11079.41924856223,150,11,2025-09-16,2025-09-26 14:33:54.500,HH,C,1421723736,HAWK11,1,1,73,2,1,1,225,2,1,0,0,12,1,225,2,1,-145834.12341483062,-4789099.327119674,4200919.739714146,3.06556,1.81892,-0.822981,-30.125,84.0,91.5,-0.234375,-7.23438,6.29688,0.0429688,-0.00195312,0.00976562,4,0,41.434302524885965,-91.74418987011256,10981.64285695096,-10.777510780352038,-0.286178394488875,7.541058000004462,202.761,8561.873061902648,11079.41924856223,150,True,18.5878104653554,False,154.73503052490105,174.03739099407167,False,31.212507080931392,False,False
11,1970-07-23 11:25:32.353604776,2025-09-16,2025-09-26 14:33:55.360,HH,C,2071364256,JASSM,3,103,76,2,2,1,225,9,2,0,1,26,0,0,0,0,-170116.3311785025,-4772242.723604049,4218578.038542271,-2.51429,-0.702947,0.607936,54.375,-45.875,-49.375,0.0,0.0,0.0,0.0,0.0,0.0,2,0,41.649002668216966,-92.04156053920144,9999.998841005929,139.8530815204159,0.0003079096391004,0.0016760880932648,,8561.873061902648,11079.41924856223,150,11,2025-09-16,2025-09-26 14:33:55.406,HH,C,1422678134,HAWK11,1,1,73,2,1,1,225,2,1,0,0,12,1,225,2,1,-145858.14489920562,-4789031.273408736,4200993.815886021,3.08579,1.81096,-0.824706,-29.0,84.25,91.375,-0.3125,-7.14062,5.92188,0.00390625,0.00585938,0.00195312,4,0,41.43520304592797,-91.74450176610029,10976.95929279407,-10.454321380823528,-0.2514077968603095,8.364116133279547,202.394,8561.873061902648,11079.41924856223,150,True,18.491441522211982,False,154.2371128749952,173.9315210757255,False,31.814371274408078,False,False
11,1970-07-23 11:25:32.363328733,2025-09-16,2025-09-26 14:33:56.332,HH,C,2072617224,JASSM,3,103,76,2,2,1,225,9,2,0,1,26,0,0,0,0,-170059.25256522125,-4772291.094697799,4218525.972136021,-2.51429,-0.702947,0.608032,54.375,-45.875,-49.375,0.0,0.0,0.0,0.0,0.0,0.0,2,0,41.648375597792096,-92.04085545152198,10000.002417923331,139.85677325341743,-0.0033191324896113,0.0016744587027398,,8561.873061902648,11079.41924856223,150,11,2025-09-16,2025-09-26 14:33:56.500,HH,C,1424069966,HAWK11,1,1,73,2,1,1,225,2,1,0,0,12,1,225,2,1,-145890.94763358062,-4788933.356416549,4201099.964323521,3.08158,1.7867,-0.822597,-27.375,84.5,91.375,-0.03125,-7.25,6.23438,-0.0292969,0.0,0.0117188,4,0,41.43649612449579,-91.7449295078631,10969.156500682066,-9.550841861256291,-0.5496682887206227,7.096576740826132,202.248,8561.873061902648,11079.41924856223,150,True,18.37509316363547,False,153.50871097954376,173.7830113405946,False,32.69000133927908,False,False
11,1970-07-23 11:25:32.373606154,2025-09-16,2025-09-26 14:33:57.360,HH,C,2073868326,JASSM,3,103,76,2,2,1,225,9,2,0,1,26,0,0,0,0,-170002.25866873687,-4772339.391572799,4218473.983854771,-2.51429,-0.702851,0.608032,54.375,-45.875,-49.5,0.0,0.0,0.0,0.0,0.0,0.0,2,0,41.647749473886094,-92.040151425023,10000.00615922773,139.85358970333087,-0.005148569448477,-0.001465775218701,,8561.873061902648,11079.41924856223,150,11,2025-09-16,2025-09-26 14:33:57.312,HH,C,1424984600,HAWK11,1,1,73,2,1,1,225,2,1,0,0,12,1,225,2,1,-145911.63903983062,-4788868.555635299,4201170.099089146,3.0695,1.77146,-0.823556,-26.5,84.5,91.625,0.015625,-7.48438,6.40625,-0.015625,0.00585938,0.015625,4,0,41.43735129293027,-91.74520043484924,10963.67618275274,-8.956772877085895,-0.6000241987669134,5.758120885305792,202.248,8561.873061902648,11079.41924856223,150,True,18.28216643189303,False,153.14473592730442,173.63372309192408,False,33.199957978682335,False,False
11,1970-07-23 11:25:32.384483851,2025-09-16,2025-09-26 14:33:58.448,HH,C,2075122140,JASSM,3,103,76,2,2,1,225,9,2,0,1,26,0,0,0,0,-169945.14148123687,-4772387.790010299,4218421.878386021,-2.51419,-0.702851,0.608032,54.375,-45.875,-49.5,0.0,0.0,0.0,0.0,0.0,0.0,2,0,41.64712197678256,-92.0394458904736,9999.996741729,139.8540585629846,-0.0043289964561423,0.0040377847788599,,8561.873061902648,11079.41924856223,150,11,2025-09-16,2025-09-26 14:33:58.500,HH,C,1426455964,HAWK11,1,1,73,2,1,1,225,2,1,0,0,12,1,225,2,1,-145942.97888358062,-4788764.118135299,4201283.327604771,3.06096,1.75583,-0.826912,-25.0,84.625,91.75,-0.015625,-7.65625,6.60938,-0.0351562,0.00390625,0.00585938,4,0,41.43873121762734,-91.7456130938373,10955.125713915144,-8.326111065792404,-0.5098718595020564,4.605361294171828,201.588,8561.873061902648,11079.41924856223,150,True,18.1629042537101,False,152.46782211929326,173.4685890261713,False,34.04215716835086,False,False
11,1970-07-23 11:25:32.395273674,2025-09-16,2025-09-26 14:33:59.527,HH,C,2076375442,JASSM,3,103,76,2,2,1,225,9,2,0,1,26,0,0,0,0,-169888.04748709625,-4772436.172822799,4218369.796354771,-2.51419,-0.702851,0.608032,54.375,-45.875,-49.5,0.0,0.0,0.0,0.0,0.0,0.0,2,0,41.64649472134162,-92.03874065438158,10000.006444164172,139.85452721850726,-0.0035097486606537,0.0040362082618681,,8561.873061902648,11079.41924856223,150,11,2025-09-16,2025-09-26 14:33:59.702,HH,C,1427927330,HAWK11,1,1,73,2,1,1,225,2,1,0,0,12,1,225,2,1,-145973.55700858062,-4788659.680635299,4201397.247526646,3.04505,1.74021,-0.832376,-24.125,84.25,92.0,0.140625,-7.95312,6.9375,-0.0195312,0.015625,0.0078125,4,0,41.44011594427396,-91.7460166652249,10948.032197216393,-7.680724483638572,-0.2925647593683731,3.028550860981953,201.698,8561.873061902648,11079.41924856223,150,True,18.04391394576731,False,152.08571536288932,173.2996657385356,False,34.5968675519398,False,False
11,1970-07-23 11:25:32.405309862,2025-09-16,2025-09-26 14:34:00.530,HH,C,2077626422,JASSM,3,103,76,2,2,1,225,9,2,0,1,26,0,0,0,0,-169831.05932791656,-4772484.461885299,4218317.808073521,-2.51419,-0.702851,0.608032,54.375,-45.875,-49.5,0.0,0.0,0.0,0.0,0.0,0.0,2,0,41.64586862975038,-92.03803674096024,10000.00434718805,139.85499498929042,-0.0026920244461346,0.0040346371917318,,8561.873061902648,11079.41924856223,150,11,2025-09-16,2025-09-26 14:34:00.522,HH,C,1428364762,HAWK11,1,1,73,2,1,1,225,2,1,0,0,12,1,225,2,1,-145982.23083670562,-4788629.430635299,4201430.442839146,3.0369,1.73896,-0.836499,-23.875,84.125,92.125,-0.078125,-8.14062,6.90625,-0.03125,0.0175781,-0.00195312,4,0,41.440518400010674,-91.74613137375648,10946.39783635298,-7.598322453773775,-0.0656809550954913,2.508504142703892,201.441,8561.873061902648,11079.41924856223,150,True,17.974970002850483,False,151.97344753228003,173.23671119310288,False,34.773399638077734,False,False
11,1970-07-23 11:25:32.416005231,2025-09-16,2025-09-26 14:34:01.600,HH,C,2078820454,JASSM,3,103,76,2,2,1,225,9,2,0,1,26,0,0,0,0,-169776.6652849478,-4772530.551729049,4218268.183073521,-2.51419,-0.702851,0.608032,54.375,-45.875,-49.5,0.0,0.0,0.0,0.0,0.0,0.0,2,0,41.64527101864848,-92.03736488304226,9999.996593337652,139.85544145288466,-0.0019115117139473,0.0040331274956406,,8561.873061902648,11079.41924856223,150,11,2025-09-16,2025-09-26 14:34:01.406,HH,C,1429915660,HAWK11,1,1,73,2,1,1,225,2,1,0,0,12,1,225,2,1,-146012.99255545562,-4788520.881807174,4201551.255339146,3.00325,1.73417,-0.849921,-23.25,82.625,93.0,0.0625,-8.03125,7.10938,-0.0136719,0.00976562,0.00390625,4,0,41.44197406667429,-91.74653866088948,10944.194805088751,-7.305466651156714,0.6698812549358849,0.3769382078694572,200.964,8561.873061902648,11079.41924856223,150,True,17.855472647293332,False,151.7077279668391,173.05563129082597,False,35.23020715951025,False,False
11,1970-07-23 11:25:32.428808825,2025-09-16,2025-09-26 14:34:02.880,HH,C,2080131820,JASSM,3,103,76,2,2,1,225,9,2,0,1,26,0,0,0,0,-169716.92614920562,-4772581.170869674,4218213.683073521,-2.51419,-0.702851,0.608032,54.375,-45.875,-49.5,0.0,0.0,0.0,0.0,0.0,0.0,2,0,41.64461468646363,-92.03662701844829,9999.996281075695,139.85593177323375,-0.001054307326344,0.0040314749247975,,8561.873061902648,11079.41924856223,150,11,2025-09-16,2025-09-26 14:34:03.109,HH,C,1431903992,HAWK11,1,1,73,2,1,1,225,2,1,0,0,12,1,225,2,1,-146051.84216483062,-4788383.918916549,4201706.386198521,2.98944,1.72908,-0.851072,-23.125,80.5,94.375,-0.25,-7.5625,6.39062,-0.0078125,0.00390625,0.0078125,4,0,41.44382893851202,-91.7470530125278,10947.288253426132,-7.106318704501431,0.7096398227165918,-0.6303493043893741,200.182,8561.873061902648,11079.41924856223,150,True,17.71178235383126,False,151.6238934760436,172.8240754048049,False,35.551962066084386,False,False
11,1970-07-23 11:25:32.436824698,2025-09-16,2025-09-26 14:34:03.682,HH,C,2081265214,JASSM,3,103,76,2,2,1,225,9,2,0,1,26,0,0,0,0,-169665.29528983062,-4772624.918916549,4218166.581511021,-2.51419,-0.702851,0.608032,54.375,-45.875,-49.5,0.0,0.0,0.0,0.0,0.0,0.0,2,0,41.644047445479096,-92.03598931512114,10000.000919428929,139.8563555300466,-0.0003134591447485,0.0040300544593712,,8561.873061902648,11079.41924856223,150,11,2025-09-16,2025-09-26 14:34:03.702,HH,C,1432619792,HAWK11,1,1,73,2,1,1,225,2,1,0,0,12,1,225,2,1,-146065.43005545562,-4788334.895479049,4201761.327604771,2.99347,1.72736,-0.853948,-23.0,82.0,92.625,-0.078125,-7.46875,6.54688,0.00390625,0.00585938,-0.0117188,4,0,41.44448896799921,-91.74723332542877,10947.107008156592,-7.018922448144889,0.8643698930561621,-0.472816064723156,199.852,8561.873061902648,11079.41924856223,150,True,17.63491806800262,False,151.65045297257686,172.7296979515101,False,35.614511729649635,False,False
11,1970-07-23 11:25:32.446816064,2025-09-16,2025-09-26 14:34:04.681,HH,C,2082519564,JASSM,3,103,76,2,2,1,225,9,2,0,1,26,0,0,0,0,-169608.152467565,-4772673.334932174,4218114.448698521,-2.51419,-0.702851,0.608128,54.375,-45.875,-49.5,0.0,0.0,0.0,0.0,0.0,0.0,2,0,41.64341963892973,-92.03528354649472,9999.997981579716,139.86004991910903,-0.0039421718536946,0.0040283822203662,,8561.873061902648,11079.41924856223,150,11,2025-09-16,2025-09-26 14:34:04.419,HH,C,1433454890,HAWK11,1,1,73,2,1,1,225,2,1,0,0,12,1,225,2,1,-146081.23278983062,-4788277.873994674,4201825.769011021,3.00267,1.72947,-0.853181,-22.75,81.75,92.625,-0.046875,-7.3125,6.375,0.00390625,0.00195312,0.0,4,0,41.44526029826052,-91.74744303677876,10948.064638027394,-7.103878602111567,0.8327792146581818,0.1444075902394819,199.474,8561.873061902648,11079.41924856223,150,True,17.547909148914673,False,151.54893474164214,172.6193860084254,False,35.827109544701365,False,False
11,1970-07-23 11:25:32.457307235,2025-09-16,2025-09-26 14:34:05.730,HH,C,2083830310,JASSM,3,103,76,2,2,1,225,9,2,0,1,26,0,0,0,0,-169548.4414079947,-4772723.926729049,4218059.972136021,-2.51419,-0.702851,0.608128,54.375,-45.875,-49.5,0.0,0.0,0.0,0.0,0.0,0.0,2,0,41.64276360824556,-92.03454607241552,9999.997418875088,139.86053996220522,-0.0030853757430173,0.0040267819716001,,8561.873061902648,11079.41924856223,150,11,2025-09-16,2025-09-26 14:34:05.906,HH,C,1435323922,HAWK11,1,1,73,2,1,1,225,2,1,0,0,12,1,225,2,1,-146117.22107108062,-4788149.405244674,4201970.462370396,3.01542,1.72419,-0.855194,-22.625,81.75,91.875,-0.1875,-7.17188,5.96875,0.0195312,-0.00976562,0.00390625,4,0,41.44699470308592,-91.74792013369138,10949.196179350552,-6.891610163924239,0.9211919804385948,0.6505741912053142,198.691,8561.873061902648,11079.41924856223,150,True,17.410909594839584,False,151.54747133268765,172.3940082361903,False,36.05191394652336,False,False
11,1970-07-23 11:25:32.467447151,2025-09-16,2025-09-26 14:34:06.744,HH,C,2085084534,JASSM,3,103,76,2,2,1,225,9,2,0,1,26,0,0,0,0,-169491.30505545562,-4772772.336885299,4218007.847136021,-2.51419,-0.702755,0.608128,54.375,-45.875,-49.5,0.0,0.0,0.0,0.0,0.0,0.0,2,0,41.64213587887893,-92.03384041187124,10000.006480048203,139.85736010486647,-0.0049111473895217,0.0008880388206603,,8561.873061902648,11079.41924856223,150,11,2025-09-16,2025-09-26 14:34:06.812,HH,C,1436318088,HAWK11,1,1,73,2,1,1,225,2,1,0,0,12,1,225,2,1,-146135.84997733062,-4788082.139619674,4202045.925261021,3.01466,1.72707,-0.858358,-22.375,81.375,91.625,-0.15625,-7.10938,5.92188,0.0,0.0,0.00390625,4,0,41.44790085785793,-91.74816738644611,10949.133653571407,-6.973629517652072,1.116558860072259,0.7297922715533827,197.861,8561.873061902648,11079.41924856223,150,True,17.317418059461126,False,151.4689370167288,172.2646362532348,False,36.2603964637362,False,False
11,1970-07-23 11:25:32.480046848,2025-09-16,2025-09-26 14:34:08.004,HH,C,2086454966,JASSM,3,103,76,2,2,1,225,9,2,0,1,26,0,0,0,0,-169428.8750017447,-4772825.229463424,4217950.886198521,-2.51419,-0.702755,0.608128,54.375,-45.875,-49.5,0.0,0.0,0.0,0.0,0.0,0.0,2,0,41.6414499578749,-92.03306938850324,10000.000173918626,139.85787242805392,-0.0040153311499509,0.0008863030726411,,8561.873061902648,11079.41924856223,150,11,2025-09-16,2025-09-26 14:34:07.812,HH,C,1437550852,HAWK11,1,1,73,2,1,1,225,2,1,0,0,12,1,225,2,1,-146159.08044608062,-4787997.457979049,4202140.524870396,2.99999,1.72391,-0.861905,-22.125,81.25,91.25,-0.203125,-7.70312,6.46875,-0.0117188,0.0175781,-0.00585938,4,0,41.449038958698935,-91.74847601541003,10948.173680143997,-6.8286204178647685,1.3026901967364997,-0.2448965197333552,197.518,8561.873061902648,11079.41924856223,150,True,17.20812859217803,False,151.38801242557506,172.10369442750846,False,36.50159608173058,False,False
11,1970-07-23 11:25:32.489495406,2025-09-16,2025-09-26 14:34:08.949,HH,C,2087707666,JASSM,3,103,76,2,2,1,225,9,2,0,1,26,0,0,0,0,-169371.80810721344,-4772873.577119674,4217898.819792271,-2.51419,-0.702755,0.608128,54.375,-45.875,-49.5,0.0,0.0,0.0,0.0,0.0,0.0,2,0,41.64082297213323,-92.03236461597112,9999.998827298865,139.8583407233789,-0.0031964828517696,0.0008847255929476,,8561.873061902648,11079.41924856223,150,11,2025-09-16,2025-09-26 14:34:08.906,HH,C,1438942684,HAWK11,1,1,73,2,1,1,225,2,1,0,0,12,1,225,2,1,-146184.94177420562,-4787903.571260299,4202245.952604771,2.99529,1.72573,-0.86737,-22.125,80.625,91.125,-0.203125,-7.71875,6.54688,0.00390625,-0.00195312,0.00195312,4,0,41.45030442898541,-91.74881946885164,10948.310833796477,-6.852854510578137,1.6234302293222425,-0.4351610179458621,197.103,8561.873061902648,11079.41924856223,150,True,17.0972700805026,False,151.42373943073056,171.9273696163709,False,36.64405677872772,False,False
11,1970-07-23 11:25:32.500813050,2025-09-16,2025-09-26 14:34:10.081,HH,C,2088960860,JASSM,3,103,76,2,2,1,225,9,2,0,1,26,0,0,0,0,-169314.71862967435,-4772921.944307174,4217846.733854771,-2.51419,-0.702755,0.608128,54.375,-45.875,-49.5,0.0,0.0,0.0,0.0,0.0,0.0,2,0,41.64019573871664,-92.03165957804168,10000.005071584706,139.8588091892609,-0.0023773140354553,0.0008831506765094,,8561.873061902648,11079.41924856223,150,11,2025-09-16,2025-09-26 14:34:09.998,HH,C,1440175450,HAWK11,1,1,73,2,1,1,225,2,1,0,0,12,1,225,2,1,-146207.80310233062,-4787819.873994674,4202340.448698521,2.99462,1.72822,-0.867562,-22.0,80.125,91.0,-0.34375,-7.57812,6.35938,-0.0078125,0.0,-0.00585938,4,0,41.45143603513298,-91.74912334786258,10949.535954304927,-6.9430358714195926,1.6483174503324172,-0.3671610975421805,195.624,8561.873061902648,11079.41924856223,150,True,16.993232339889666,False,151.39653816372413,171.7648504049303,False,36.83498805341471,False,False
11,1970-07-23 11:25:32.511263482,2025-09-16,2025-09-26 14:34:11.126,HH,C,2090214882,JASSM,3,103,76,2,2,1,225,9,2,0,1,26,0,0,0,0,-169257.59143240875,-4772970.340791549,4217794.608854771,-2.51419,-0.702755,0.608128,54.375,-45.875,-49.5,0.0,0.0,0.0,0.0,0.0,0.0,2,0,41.63956807111271,-92.03095408910296,9999.998949052182,139.85927794902236,-0.0015575926902771,0.0008815641397025,,8561.873061902648,11079.41924856223,150,11,2025-09-16,2025-09-26 14:34:11.109,HH,C,1441487748,HAWK11,1,1,73,2,1,1,225,2,1,0,0,12,1,225,2,1,-146231.72693045562,-4787732.225557174,4202439.726042271,3.00344,1.7217,-0.869,-21.875,79.875,90.75,-0.0625,-7.25,6.32812,0.00976562,-0.00390625,0.00195312,4,0,41.45262322415065,-91.74944138355858,10951.522382581938,-6.692733668110256,1.6978995323995731,-0.1394623598503547,195.856,8561.873061902648,11079.41924856223,150,True,16.886610764156874,False,151.36814683263535,171.59328701771437,False,37.03507017658703,False,False
11,1970-07-23 11:25:32.522225874,2025-09-16,2025-09-26 14:34:12.222,HH,C,2091525414,JASSM,3,103,76,2,2,1,225,9,2,0,1,26,0,0,0,0,-169197.8898943228,-4773020.918916549,4217740.136198521,-2.51419,-0.702755,0.608128,54.375,-45.875,-49.5,0.0,0.0,0.0,0.0,0.0,0.0,2,0,41.63891211817071,-92.03021682281248,10000.001693034736,139.8597678169423,-0.0007009349065642,0.0008799089314404,,8561.873061902648,11079.41924856223,150,11,2025-09-16,2025-09-26 14:34:12.312,HH,C,1442919348,HAWK11,1,1,73,2,1,1,225,2,1,0,0,12,1,225,2,1,-146258.13903983062,-4787636.102510299,4202548.751432896,2.99932,1.72439,-0.86785,-21.75,79.5,90.5,0.1875,-7.375,6.5,-0.00390625,0.00195312,0.00195312,4,0,41.453926172805495,-91.74979227672937,10954.048494201195,-6.800430705445048,1.647464065773491,-0.2613020485566901,194.744,8561.873061902648,11079.41924856223,150,True,16.772253781864094,False,151.3445637982764,171.40399183426652,False,37.24840957620925,False,False
