Subject_cm,Timestamp,SampleDate_cm,SampleTime_cm,Configuration_cm,Scenario_cm,DisTime_cm,MarkingTxt_cm,Application_cm,EntId_cm,Site_cm,ExerciseId_cm,ForceId_cm,Category_cm,Country_cm,Domain_cm,Kind_cm,Extra_cm,Specific_cm,Subcategory_cm,AltCategory_cm,AltCountry_cm,AltDomain_cm,AltKind_cm,ECEF_X_cm,ECEF_Y_cm,ECEF_Z_cm,OriPhi_cm,OriPsi_cm,OriTheta_cm,LinVelX_cm,LinVelY_cm,LinVelZ_cm,LinAccX_cm,LinAccY_cm,LinAccZ_cm,AngVelX_cm,AngVelY_cm,AngVelZ_cm,DrAlg_cm,Appearance_cm,Latitude_cm,Longitude_cm,Altitude_cm,Heading_cm,Pitch_cm,Roll_cm,CalibratedAirspeed_cm,CM_Altitude_Lead_cm,CM_Altitude_Wing_cm,CM_Airspeed_cm,Subject_ac,SampleDate_ac,SampleTime_ac,Configuration_ac,Scenario_ac,DisTime_ac,MarkingTxt_ac,Application_ac,EntId_ac,Site_ac,ExerciseId_ac,ForceId_ac,Category_ac,Country_ac,Domain_ac,Kind_ac,Extra_ac,Specific_ac,Subcategory_ac,AltCategory_ac,AltCountry_ac,AltDomain_ac,AltKind_ac,ECEF_X_ac,ECEF_Y_ac,ECEF_Z_ac,OriPhi_ac,OriPsi_ac,OriTheta_ac,LinVelX_ac,LinVelY_ac,LinVelZ_ac,LinAccX_ac,LinAccY_ac,LinAccZ_ac,AngVelX_ac,AngVelY_ac,AngVelZ_ac,DrAlg_ac,Appearance_ac,Latitude_ac,Longitude_ac,Altitude_ac,Heading_ac,Pitch_ac,Roll_ac,CalibratedAirspeed_ac,CM_Altitude_Lead_ac,CM_Altitude_Wing_ac,CM_Airspeed_ac,Bank_Angle_Condition,distance_nm,Distance_Condition,angle_between_vel,angle_between_pos,Cone_Condition,angle_between_pos_nose,Nose_Cone_Condition,Intercept_Criteria
11,1970-07-23 11:25:55.630424972,2025-09-16,2025-09-26 15:12:43.042,AA,C,553509556,JASSM,3,138,76,2,2,1,225,9,2,0,1,26,0,0,0,0,-180607.37829764312,-4777969.157197799,4211700.737761021,-2.36693,-0.400848,0.381002,74.5,-31.5,-32.25,0.0,0.0,0.0,0.0,0.0,0.0,2,0,41.56622805742624,-92.16475155729528,9999.998407415367,119.79843452620312,-0.0033157307828483,0.004553715895799,,8749.224682894945,11121.848502006404,150,11,2025-09-16,2025-09-26 15:12:43.207,AA,C,588721502,AMBUSH51,1,1,48,2,1,1,225,2,1,0,0,9,1,225,2,1,-146243.38444037334,-4792354.596398972,4196187.40447797,2.25224,2.80506,-0.332576,-100.075,39.4778,41.6068,-0.0982541,-7.06832,6.31224,0.011875,-0.00811536,-0.0119353,4,0,41.382916965588485,-91.74789428513571,8749.445072347151,-64.32834339005254,0.1244633718738321,-5.275934788914424,185.347,8749.224682894945,11121.848502006404,150,True,21.706170306128477,False,178.57549165730174,179.10923900335197,False,1.8320223860700868,True,False
11,1970-07-23 11:25:55.641483459,2025-09-16,2025-09-26 15:12:44.148,AA,C,554702668,JASSM,3,138,76,2,2,1,225,9,2,0,1,26,0,0,0,0,-180532.84509451807,-4778000.754854049,4211668.306120396,-2.36693,-0.400848,0.381002,74.5,-31.5,-32.25,0.0,0.0,0.0,0.0,0.0,0.0,2,0,41.56583795809022,-92.16384475888516,9999.99979372023,119.79903617139736,-0.0025331183919335,0.0045523603091935,,8749.224682894945,11121.848502006404,150,11,2025-09-16,2025-09-26 15:12:44.274,AA,C,589994034,AMBUSH51,1,1,48,2,1,1,225,2,1,0,0,9,1,225,2,1,-146349.34601842373,-4792312.8455188405,4196230.901132307,2.26742,2.81259,-0.326932,-100.346,39.1302,40.9451,-0.0876244,-7.38813,6.71823,0.0604382,0.0104706,-0.00558744,4,0,41.38343976051722,-91.74917517595637,8749.0180525059,-64.84562561494702,0.1922317225480102,-4.268242864258999,185.42,8749.224682894945,11121.848502006404,150,True,21.593845938585922,False,178.23370262954674,179.10315635047127,False,2.2290285767823814,True,False
11,1970-07-23 11:25:55.651584574,2025-09-16,2025-09-26 15:12:45.158,AA,C,555955302,JASSM,3,138,76,2,2,1,225,9,2,0,1,26,0,0,0,0,-180454.59216483065,-4778033.928682174,4211634.255339146,-2.36693,-0.400848,0.381098,74.5,-31.5,-32.25,0.0,0.0,0.0,0.0,0.0,0.0,2,0,41.565428383080906,-92.1628927169994,10000.002309345417,119.80350985064932,-0.0056375025830092,0.0045506911422025,,8749.224682894945,11121.848502006404,150,11,2025-09-16,2025-09-26 15:12:45.041,AA,C,590908666,AMBUSH51,1,1,48,2,1,1,225,2,1,0,0,9,1,225,2,1,-146426.3484220006,-4792282.827016866,4196262.087506272,2.31336,2.81762,-0.322217,-100.524,38.7154,40.9269,-0.327149,-7.5152,6.77987,0.0494693,-0.00599523,-0.0119686,4,0,41.38381489832665,-91.75010589624311,8748.587767132269,-65.23017150524788,0.2008196058064326,-1.5453405379972116,185.225,8749.224682894945,11121.848502006404,150,True,21.49722393566885,False,178.03418465598045,179.09771320662932,False,2.3821304274170187,True,False
11,1970-07-23 11:25:55.661363229,2025-09-16,2025-09-26 15:12:46.136,AA,C,557149338,JASSM,3,138,76,2,2,1,225,9,2,0,1,26,0,0,0,0,-180380.00134451807,-4778065.547822799,4211601.796354771,-2.36693,-0.400848,0.381098,74.5,-31.5,-32.25,0.0,0.0,0.0,0.0,0.0,0.0,2,0,41.565037969704846,-92.16198524131134,9999.99955208968,119.80411193577773,-0.0048542869847512,0.0045493884207873,,8749.224682894945,11121.848502006404,150,11,2025-09-16,2025-09-26 15:12:46.174,AA,C,592260732,AMBUSH51,1,1,48,2,1,1,225,2,1,0,0,9,1,225,2,1,-146541.08314902952,-4792238.592318494,4196308.171918141,2.38541,2.81305,-0.323867,-100.538,38.6669,40.9992,-0.0748061,-7.25991,6.58223,0.0594603,0.000571123,0.00725815,4,0,41.384368319944585,-91.751492523047,8748.335499332303,-64.99050492326481,0.089796192185998,2.5003860967737466,185.31,8749.224682894945,11121.848502006404,150,True,21.379839361761668,False,178.0283184079077,179.09024452243145,False,2.381631250791226,True,False
11,1970-07-23 11:25:55.671404113,2025-09-16,2025-09-26 15:12:47.140,AA,C,558342456,JASSM,3,138,76,2,2,1,225,9,2,0,1,26,0,0,0,0,-180305.46618826807,-4778097.143525924,4211569.362761021,-2.36693,-0.400848,0.381098,74.5,-31.5,-32.25,0.0,0.0,0.0,0.0,0.0,0.0,2,0,41.5646478474153,-92.16107845367652,10000.003637659558,119.80471355976212,-0.0040716592064863,0.0045480926694885,,8749.224682894945,11121.848502006404,150,11,2025-09-16,2025-09-26 15:12:47.274,AA,C,593573030,AMBUSH51,1,1,48,2,1,1,225,2,1,0,0,9,1,225,2,1,-146650.87300682502,-4792195.965856874,4196352.622775109,2.43151,2.80705,-0.330475,-100.222,39.1513,41.3315,-0.242613,-7.2191,6.47112,0.0316719,-0.00525454,0.0125616,4,0,41.38490202894719,-91.75281951967273,8748.133499691301,-64.49295913893351,0.1216841335831463,5.031867550314071,185.225,8749.224682894945,11121.848502006404,150,True,21.26539662547383,False,178.3586409552938,179.08322480927282,False,2.0756889508213816,True,False
11,1970-07-23 11:25:55.681474313,2025-09-16,2025-09-26 15:12:48.147,AA,C,559536070,JASSM,3,138,76,2,2,1,225,9,2,0,1,26,0,0,0,0,-180230.90075858065,-4778128.750947799,4211536.913542271,-2.36693,-0.400848,0.381098,74.5,-31.5,-32.25,0.0,0.0,0.0,0.0,0.0,0.0,2,0,41.564257549630895,-92.16017130915714,10000.003565708164,119.80531541588822,-0.0032887089265769,0.0045467876179716,,8749.224682894945,11121.848502006404,150,11,2025-09-16,2025-09-26 15:12:48.042,AA,C,594487662,AMBUSH51,1,1,48,2,1,1,225,2,1,0,0,9,1,225,2,1,-146727.58488819475,-4792165.617916476,4196384.372088084,2.44754,2.80211,-0.334879,-99.9165,39.4434,41.9657,-0.218302,-7.47521,6.5603,0.00869585,0.00774709,0.0103936,4,0,41.385282950826735,-91.75374693208454,8748.107492177576,-64.12617888948274,0.1074902984561274,5.858703493985957,185.225,8749.224682894945,11121.848502006404,150,True,21.17104356347531,False,178.65833040668912,179.07834833840994,False,1.7079891223300556,True,False
11,1970-07-23 11:25:55.692464108,2025-09-16,2025-09-26 15:12:49.246,AA,C,560787140,JASSM,3,138,76,2,2,1,225,9,2,0,1,26,0,0,0,0,-180152.7464617056,-4778161.877900924,4211502.901823521,-2.36693,-0.400848,0.381098,74.5,-31.5,-32.25,0.0,0.0,0.0,0.0,0.0,0.0,2,0,41.563848464615255,-92.15922051587792,10000.001866942735,119.8059462263358,-0.0024680781832109,0.0045454243589953,,8749.224682894945,11121.848502006404,150,11,2025-09-16,2025-09-26 15:12:49.275,AA,C,595959028,AMBUSH51,1,1,48,2,1,1,225,2,1,0,0,9,1,225,2,1,-146850.2957619426,-4792116.361322672,4196436.153307466,2.42525,2.79069,-0.344695,-99.3154,40.115,42.7535,-0.0451681,-7.15241,6.51026,-0.0517642,-0.00684828,0.0146921,4,0,41.38590321123469,-91.75523073456402,8748.480822535668,-63.29346496874567,0.0624623852636209,4.364392107172972,185.31,8749.224682894945,11121.848502006404,150,True,21.04562356510756,False,179.1405460151178,179.0724673260369,False,1.1231704440042487,True,False
11,1970-07-23 11:25:55.702340466,2025-09-16,2025-09-26 15:12:50.234,AA,C,561981224,JASSM,3,138,76,2,2,1,225,9,2,0,1,26,0,0,0,0,-180078.15173514312,-4778193.495088424,4211470.436979771,-2.36693,-0.400848,0.381098,74.5,-31.5,-32.25,0.0,0.0,0.0,0.0,0.0,0.0,2,0,41.56345799522904,-92.15831303850958,9999.997042914696,119.80654829378402,-0.0016848191923939,0.0045441152187913,,8749.224682894945,11121.848502006404,150,11,2025-09-16,2025-09-26 15:12:50.041,AA,C,596873660,AMBUSH51,1,1,48,2,1,1,225,2,1,0,0,9,1,225,2,1,-146926.3397770784,-4792085.293073372,4196468.915130289,2.39592,2.78558,-0.347439,-99.0904,40.3624,43.1776,-0.255556,-7.36024,6.60858,-0.040169,-0.00648209,0.00302206,4,0,41.38629535657442,-91.7561504613341,8748.838886753238,-62.98864115928437,-0.0222060353755378,2.5847584409447406,185.31,8749.224682894945,11121.848502006404,150,True,20.95120657214753,False,179.25794123403273,179.06876642350377,False,0.8596802195992783,True,False
11,1970-07-23 11:25:55.712790217,2025-09-16,2025-09-26 15:12:51.279,AA,C,563233188,JASSM,3,138,76,2,2,1,225,9,2,0,1,26,0,0,0,0,-179999.94079764312,-4778226.645479049,4211436.399870396,-2.36693,-0.400752,0.381098,74.5,-31.5,-32.25,0.0,0.0,0.0,0.0,0.0,0.0,2,0,41.56304859671368,-92.15736157988384,10000.000735737154,119.80353521407538,-0.0044300398767198,0.0024997831546213,,8749.224682894945,11121.848502006404,150,11,2025-09-16,2025-09-26 15:12:51.274,AA,C,598345024,AMBUSH51,1,1,48,2,1,1,225,2,1,0,0,9,1,225,2,1,-147048.15820046212,-4792035.466206614,4196521.775763044,2.30911,2.78751,-0.350985,-98.9158,40.3548,43.2529,-0.0300758,-7.50196,6.53172,-0.0660433,0.00221063,0.00436197,4,0,41.38692642928952,-91.75762385810104,8750.099946487668,-62.918334889179135,0.195936998908914,-2.3509983969513044,185.188,8749.224682894945,11121.848502006404,150,True,20.825822841063612,False,179.26135363012858,179.06430131566378,False,0.7947745193861692,True,False
11,1970-07-23 11:25:55.722403600,2025-09-16,2025-09-26 15:12:52.240,AA,C,564426772,JASSM,3,138,76,2,2,1,225,9,2,0,1,26,0,0,0,0,-179925.37732108062,-4778258.247041549,4211403.948698521,-2.36693,-0.400752,0.381098,74.5,-31.5,-32.25,0.0,0.0,0.0,0.0,0.0,0.0,2,0,41.56265829086785,-92.15645450612884,9999.998246490277,119.80413700431924,-0.0036471169846965,0.0024984370381163,,8749.224682894945,11121.848502006404,150,11,2025-09-16,2025-09-26 15:12:52.174,AA,C,599418724,AMBUSH51,1,1,48,2,1,1,225,2,1,0,0,9,1,225,2,1,-147137.25691579093,-4791999.162246809,4196560.52729244,2.27035,2.7882,-0.345104,-99.1181,40.1475,42.9618,-0.125991,-7.24163,6.5926,-0.0251325,-0.000777102,-0.00459291,4,0,41.38738775727975,-91.75870147589842,8751.565500111865,-63.18493746984333,-0.0134225455960317,-4.5586685867028205,185.31,8749.224682894945,11121.848502006404,150,True,20.723210374107538,False,179.17923217385658,179.06073801036638,False,1.0023348250415605,True,False
11,1970-07-23 11:25:55.732447965,2025-09-16,2025-09-26 15:12:53.244,AA,C,565679818,JASSM,3,138,76,2,2,1,225,9,2,0,1,26,0,0,0,0,-179847.09900076812,-4778291.424775924,4211369.880339146,-2.36693,-0.400752,0.381098,74.5,-31.5,-32.25,0.0,0.0,0.0,0.0,0.0,0.0,2,0,41.562248518480025,-92.15550225180834,10000.003181430648,119.804768764225,-0.0028251807372872,0.0024970125752744,,8749.224682894945,11121.848502006404,150,11,2025-09-16,2025-09-26 15:12:53.407,AA,C,600890088,AMBUSH51,1,1,48,2,1,1,225,2,1,0,0,9,1,225,2,1,-147259.98667178853,-4791949.782797733,4196612.858282032,2.2376,2.7985,-0.334883,-99.4804,39.5605,42.1471,0.0172368,-7.46448,6.36847,-0.0236678,-0.00306576,-0.000404676,4,0,41.38801239297825,-91.76018564363068,8752.865263633756,-63.99366621341146,-0.0262817396823706,-6.23820543516998,185.261,8749.224682894945,11121.848502006404,150,True,20.597561866354756,False,178.82675578907424,179.05527215846806,False,1.5308548658529086,True,False
11,1970-07-23 11:25:55.743330444,2025-09-16,2025-09-26 15:12:54.333,AA,C,566932630,JASSM,3,138,76,2,2,1,225,9,2,0,1,26,0,0,0,0,-179768.83532889312,-4778324.592744674,4211335.815886021,-2.36693,-0.400752,0.381098,74.5,-31.5,-32.25,0.0,0.0,0.0,0.0,0.0,0.0,2,0,41.5618388194573,-92.15455018931718,9999.998325127148,119.80540039174932,-0.00200340156765,0.0024955917367581,,8749.224682894945,11121.848502006404,150,11,2025-09-16,2025-09-26 15:12:54.274,AA,C,601924022,AMBUSH51,1,1,48,2,1,1,225,2,1,0,0,9,1,225,2,1,-147345.5720134287,-4791916.003498323,4196648.629904593,2.20887,2.80386,-0.331106,-99.9747,38.9915,41.5686,0.0180523,-7.24313,6.58168,-0.0262103,-0.010558,0.00320932,4,0,41.38843920164472,-91.76122040091666,8753.825578090851,-64.3517487662184,0.0302673666786358,-7.784240169976535,185.383,8749.224682894945,11121.848502006404,150,True,20.49533052103304,False,178.39671856245772,179.0501107549534,False,2.005123277099502,True,False
11,1970-07-23 11:25:55.753361366,2025-09-16,2025-09-26 15:12:55.336,AA,C,568125676,JASSM,3,138,76,2,2,1,225,9,2,0,1,26,0,0,0,0,-179694.30603201812,-4778356.178682174,4211303.376432896,-2.36693,-0.400752,0.381194,74.5,-31.5,-32.25,0.0,0.0,0.0,0.0,0.0,0.0,2,0,41.56144865581752,-92.15364356569314,9999.998288378403,119.80984403068187,-0.0051467464960466,0.0024940199018271,,8749.224682894945,11121.848502006404,150,11,2025-09-16,2025-09-26 15:12:55.507,AA,C,603395386,AMBUSH51,1,1,48,2,1,1,225,2,1,0,0,9,1,225,2,1,-147470.10115843455,-4791868.259466354,4196699.098375032,2.14983,2.8167,-0.31415,-101.108,38.1331,40.3314,0.0718062,-7.17617,6.78016,-0.032708,-0.00161974,-0.0163004,4,0,41.38904117165861,-91.76272550985236,8755.262568368546,-65.53570879254698,-0.1459027310543322,-10.932548161485272,186.031,8749.224682894945,11121.848502006404,150,False,20.37191832425803,False,177.54201784895267,179.04200339346798,False,2.943908557365383,True,False
11,1970-07-23 11:25:55.763404739,2025-09-16,2025-09-26 15:12:56.340,AA,C,569317422,JASSM,3,138,76,2,2,1,225,9,2,0,1,26,0,0,0,0,-179619.85681326812,-4778387.729463424,4211270.972136021,-2.36693,-0.400752,0.381194,74.5,-31.5,-32.25,0.0,0.0,0.0,0.0,0.0,0.0,2,0,41.5610589135286,-92.15273792763016,9999.999819982428,119.81044484952214,-0.0043650211464618,0.0024927232836765,,8749.224682894945,11121.848502006404,150,11,2025-09-16,2025-09-26 15:12:56.341,AA,C,604389552,AMBUSH51,1,1,48,2,1,1,225,2,1,0,0,9,1,225,2,1,-147553.95325518763,-4791837.096330339,4196731.761580573,2.12439,2.82816,-0.300315,-101.997,37.2603,39.43,-0.0764828,-7.10421,6.86333,-0.017813,-0.00457627,-0.0122141,4,0,41.38943172514701,-91.76373863278768,8755.79738037719,-66.54148044392797,-0.2455097793801195,-12.187763077669349,186.422,8749.224682894945,11121.848502006404,150,False,20.274025893919926,False,176.7945196688425,179.03441534684708,False,3.7069486397012548,True,False
11,1970-07-23 11:25:55.772442956,2025-09-16,2025-09-26 15:12:57.244,AA,C,570451982,JASSM,3,138,76,2,2,1,225,9,2,0,1,26,0,0,0,0,-179548.97986014312,-4778417.764619674,4211240.122526646,-2.36693,-0.400752,0.381194,74.5,-31.5,-32.25,0.0,0.0,0.0,0.0,0.0,0.0,2,0,41.56068787475331,-92.15187575531236,10000.000304019628,119.81101682799677,-0.003620810090369,0.0024914966520351,,8749.224682894945,11121.848502006404,150,11,2025-09-16,2025-09-26 15:12:57.174,AA,C,605383718,AMBUSH51,1,1,48,2,1,1,225,2,1,0,0,9,1,225,2,1,-147639.36435194573,-4791806.213558289,4196764.034265625,2.18705,2.83904,-0.288224,-102.906,36.6142,38.4488,0.135434,-7.25235,6.94643,0.114773,-0.00341322,-0.00690653,4,0,41.38981767948588,-91.76477028794224,8756.297655258702,-67.45489950888884,-0.2939512337765645,-8.4131415863259,186.703,8749.224682894945,11121.848502006404,150,True,20.177803320033057,False,176.09616204122906,179.02569000884668,False,4.441481545172931,True,False
11,1970-07-23 11:25:55.783321727,2025-09-16,2025-09-26 15:12:58.332,AA,C,571705088,JASSM,3,138,76,2,2,1,225,9,2,0,1,26,0,0,0,0,-179470.69763358062,-4778450.938447799,4211206.046354771,-2.36693,-0.400752,0.381194,74.5,-31.5,-32.25,0.0,0.0,0.0,0.0,0.0,0.0,2,0,41.56027803588133,-92.1509235138335,9999.999020080808,119.81164855487584,-0.0027988301115801,0.0024901192214799,,8749.224682894945,11121.848502006404,150,11,2025-09-16,2025-09-26 15:12:58.174,AA,C,606576716,AMBUSH51,1,1,48,2,1,1,225,2,1,0,0,9,1,225,2,1,-147742.6141508324,-4791769.843444509,4196801.704436206,2.29277,2.84944,-0.27882,-103.644,36.0441,37.9817,-0.0155261,-7.38758,7.00858,0.119013,0.0063531,-0.000338097,4,0,41.39026943683687,-91.76601707308784,8756.364265694121,-68.24043305064015,-0.2507445103500091,-2.185258261263035,186.862,8749.224682894945,11121.848502006404,150,True,20.066599518958885,False,175.60642637413767,179.01367979519168,False,4.939478657750809,True,False
11,1970-07-23 11:25:55.793341306,2025-09-16,2025-09-26 15:12:59.334,AA,C,572897496,JASSM,3,138,76,2,2,1,225,9,2,0,1,26,0,0,0,0,-179396.20739920562,-4778482.502900924,4211173.622526646,-2.36693,-0.400752,0.381194,74.5,-31.5,-32.25,0.0,0.0,0.0,0.0,0.0,0.0,2,0,41.559888068188165,-92.1500174112125,9999.999515472324,119.81224966800632,-0.0020166804006171,0.0024888305705769,,8749.224682894945,11121.848502006404,150,11,2025-09-16,2025-09-26 15:12:59.241,AA,C,607849248,AMBUSH51,1,1,48,2,1,1,225,2,1,0,0,9,1,225,2,1,-147854.00489604185,-4791731.198382161,4196841.981964324,2.39531,2.84976,-0.283115,-103.966,36.0382,38.2938,-0.282174,-7.36185,6.9623,0.0529293,0.00307616,0.00254977,4,0,41.39075082331339,-91.76736196448242,8757.115002416404,-68.07506836506268,-0.0672882267022902,3.6942247248897897,187.302,8749.224682894945,11121.848502006404,150,True,19.953085058494356,False,175.62062063931674,179.00044038887685,False,4.9243628466616265,True,False
11,1970-07-23 11:25:55.803397667,2025-09-16,2025-09-26 15:13:00.339,AA,C,574031044,JASSM,3,138,76,2,2,1,225,9,2,0,1,26,0,0,0,0,-179325.39392264312,-4778512.510713424,4211142.796354771,-2.36693,-0.400657,0.381194,74.5,-31.5,-32.25,0.0,0.0,0.0,0.0,0.0,0.0,2,0,41.559517315689234,-92.14915604233794,10000.000926468849,119.80917704658695,-0.0048395637200728,0.000444153585743,,8749.224682894945,11121.848502006404,150,11,2025-09-16,2025-09-26 15:13:00.173,AA,C,608962714,AMBUSH51,1,1,48,2,1,1,225,2,1,0,0,9,1,225,2,1,-147950.33893717107,-4791697.5007352,4196877.607590575,2.40479,2.84205,-0.288081,-104.027,36.3352,39.0871,-0.168079,-7.20466,6.82932,-0.0513272,0.00112456,0.00879571,4,0,41.39117412157886,-91.76852518451484,8758.810066291348,-67.57774744390733,-0.1766685674245374,4.112093199442903,187.583,8749.224682894945,11121.848502006404,150,True,19.85067765529159,False,175.92103902196524,178.9895671456069,False,4.605212651738286,True,False
11,1970-07-23 11:25:55.812444186,2025-09-16,2025-09-26 15:13:01.244,AA,C,575165184,JASSM,3,138,76,2,2,1,225,9,2,0,1,26,0,0,0,0,-179254.54333670562,-4778542.530244674,4211111.954557896,-2.36693,-0.400657,0.381194,74.5,-31.5,-32.25,0.0,0.0,0.0,0.0,0.0,0.0,2,0,41.55914638988618,-92.14829423372188,9999.997191461876,119.8097487664402,-0.0040956316363648,0.0004428808703329,,8749.224682894945,11121.848502006404,150,11,2025-09-16,2025-09-26 15:13:01.174,AA,C,610155712,AMBUSH51,1,1,48,2,1,1,225,2,1,0,0,9,1,225,2,1,-148054.12292078225,-4791660.955690606,4196916.219424065,2.32858,2.83503,-0.292214,-104.125,36.6391,39.4134,-0.0440391,-6.99075,6.61062,-0.0869491,0.00196096,0.000402595,4,0,41.39163313857347,-91.7697784673395,8760.550402900855,-67.14088463861101,-0.2906166150681507,-0.3714260747490037,188.182,8749.224682894945,11121.848502006404,150,True,19.743677130293534,False,176.0902246901135,178.97799872121908,False,4.449061750386915,True,False
11,1970-07-23 11:25:55.823319417,2025-09-16,2025-09-26 15:13:02.331,AA,C,576417332,JASSM,3,138,76,2,2,1,225,9,2,0,1,26,0,0,0,0,-179176.32165701812,-4778575.674775924,4211077.903776646,-2.36693,-0.400657,0.381194,74.5,-31.5,-32.25,0.0,0.0,0.0,0.0,0.0,0.0,2,0,41.55873685346763,-92.14734277559968,10000.001081612892,119.81037995449404,-0.0032742959031942,0.0004414647262074,,8749.224682894945,11121.848502006404,150,11,2025-09-16,2025-09-26 15:13:02.174,AA,C,611348712,AMBUSH51,1,1,48,2,1,1,225,2,1,0,0,9,1,225,2,1,-148158.13924430963,-4791624.27784784,4196955.032127367,2.18772,2.83759,-0.291677,-104.616,36.4111,39.0472,0.000987768,-7.21892,6.90343,-0.118399,0.00244574,-0.0103749,4,0,41.3920942452555,-91.7710345921872,8762.424450645554,-67.26124358418139,-0.2092270812000097,-8.39959975806996,188.927,8749.224682894945,11121.848502006404,150,True,19.631868487868402,False,175.80841940381188,178.96608472922637,False,4.759491705834181,True,False
11,1970-07-23 11:25:55.833362008,2025-09-16,2025-09-26 15:13:03.336,AA,C,577610698,JASSM,3,138,76,2,2,1,225,9,2,0,1,26,0,0,0,0,-179101.77087576812,-4778607.262666549,4211045.448698521,-2.36693,-0.400657,0.381194,74.5,-31.5,-32.25,0.0,0.0,0.0,0.0,0.0,0.0,2,0,41.55834652072727,-92.14643598057388,10000.000920467804,119.81098150872984,-0.0024915011607204,0.0004401076298501,,8749.224682894945,11121.848502006404,150,11,2025-09-16,2025-09-26 15:13:03.174,AA,C,612541710,AMBUSH51,1,1,48,2,1,1,225,2,1,0,0,9,1,225,2,1,-148262.8850422237,-4791588.336648418,4196993.116557013,2.12408,2.84766,-0.27625,-105.509,35.6275,37.9043,-0.0637523,-6.93091,6.63822,-0.0281723,-0.00420384,-0.0182271,4,0,41.39254590484048,-91.7722991766714,8764.593394237472,-68.28357273240643,-0.4181184834481245,-11.878486966750197,189.404,8749.224682894945,11121.848502006404,150,False,19.52233051727272,False,175.03814101713013,178.95286326066272,False,5.573052214373561,True,False
11,1970-07-23 11:25:55.842404248,2025-09-16,2025-09-26 15:13:04.240,AA,C,578803734,JASSM,3,138,76,2,2,1,225,9,2,0,1,26,0,0,0,0,-179027.24157889312,-4778638.838838424,4211013.003386021,-2.36684,-0.400657,0.381194,74.5,-31.5,-32.25,0.0,0.0,0.0,0.0,0.0,0.0,2,0,41.55795631168324,-92.14552945895332,9999.999148745716,119.81158287695314,-0.001708941855072,0.0059302384997846,,8749.224682894945,11121.848502006404,150,11,2025-09-16,2025-09-26 15:13:04.242,AA,C,613814242,AMBUSH51,1,1,48,2,1,1,225,2,1,0,0,9,1,225,2,1,-148375.79771444274,-4791550.781984403,4197032.052971438,2.10744,2.86002,-0.256961,-106.621,34.6955,36.2953,-0.0435904,-6.97617,6.70144,0.0135644,0.00352349,-0.0132003,4,0,41.393011396015424,-91.7736619384658,8765.27051967943,-69.55690169284168,-0.6814552481770979,-12.632974546538804,189.868,8749.224682894945,11121.848502006404,150,False,19.40859278580875,False,174.0311900764642,178.93576010677955,False,6.635157540136712,True,False
11,1970-07-23 11:25:55.852440429,2025-09-16,2025-09-26 15:13:05.244,AA,C,579937202,JASSM,3,138,76,2,2,1,225,9,2,0,1,26,0,0,0,0,-178956.43298514312,-4778668.840791549,4210982.175261021,-2.36684,-0.400657,0.38129,74.5,-31.5,-32.25,0.0,0.0,0.0,0.0,0.0,0.0,2,0,41.557585546155465,-92.14466820247124,10000.000763817388,119.81599651552666,-0.0048912123903419,0.0059287420502459,,8749.224682894945,11121.848502006404,150,11,2025-09-16,2025-09-26 15:13:05.240,AA,C,615007240,AMBUSH51,1,1,48,2,1,1,225,2,1,0,0,9,1,225,2,1,-148482.80513485408,-4791516.281963732,4197067.189202221,2.1993,2.87134,-0.242708,-107.587,33.961,35.0798,-0.186378,-7.07564,6.69241,0.113398,-0.000916502,-0.0104893,4,0,41.3934341311686,-91.7749530429325,8764.77608561452,-70.58319620409021,-0.7829156627815659,-7.196295895593423,190.345,8749.224682894945,11121.848502006404,150,True,19.30127175185417,False,173.22986818441208,178.91690369803985,False,7.47761058842009,True,False
11,1970-07-23 11:25:55.862338864,2025-09-16,2025-09-26 15:13:06.233,AA,C,581128884,JASSM,3,138,76,2,2,1,225,9,2,0,1,26,0,0,0,0,-178881.98767264312,-4778700.379854049,4210949.765104771,-2.36684,-0.400657,0.38129,74.5,-31.5,-32.375,0.0,0.0,0.0,0.0,0.0,0.0,2,0,41.55719576250479,-92.14376272429872,9999.999798230176,119.81659718260308,-0.004109535000774,0.0059274541388824,,8749.224682894945,11121.848502006404,150,11,2025-09-16,2025-09-26 15:13:06.240,AA,C,616200240,AMBUSH51,1,1,48,2,1,1,225,2,1,0,0,9,1,225,2,1,-148590.50768304896,-4791482.179572759,4197101.560385136,2.27385,2.88147,-0.23563,-108.229,33.4802,34.7314,-0.277391,-7.50701,7.07745,0.018949,0.000993484,-0.00213573,4,0,41.39384919287847,-91.7762523211192,8763.660306712554,-71.26537281502237,-0.647854509663988,-2.779059065414542,190.687,8749.224682894945,11121.848502006404,150,True,19.191587354078358,False,172.79378275952953,178.9723776758514,False,7.884272016451953,True,False
11,1970-07-23 11:25:55.872361812,2025-09-16,2025-09-26 15:13:07.236,AA,C,582322070,JASSM,3,138,76,2,2,1,225,9,2,0,1,26,0,0,0,0,-178807.44763358062,-4778731.957979049,4210917.313932896,-2.36684,-0.400657,0.38129,74.5,-31.5,-32.375,0.0,0.0,0.0,0.0,0.0,0.0,2,0,41.556805483596136,-92.1428561053476,10000.00060324368,119.8171986018016,-0.0033268671587039,0.005926171220846,,8749.224682894945,11121.848502006404,150,11,2025-09-16,2025-09-26 15:13:07.241,AA,C,617393238,AMBUSH51,1,1,48,2,1,1,225,2,1,0,0,9,1,225,2,1,-148699.0197855875,-4791448.977588831,4197135.265292309,2.28037,2.88125,-0.241196,-108.791,32.9194,34.6303,-0.157928,-7.42978,6.96465,0.0160799,-0.00461164,0.00570603,4,0,41.39425423593645,-91.77756095342502,8763.383096003266,-71.02472423166638,-0.4381452424848547,-2.411132390925473,191.31,8749.224682894945,11121.848502006404,150,True,19.08179328223342,False,172.47536231217566,178.9498576173465,False,8.215080577370072,True,False
11,1970-07-23 11:25:55.881403498,2025-09-16,2025-09-26 15:13:08.140,AA,C,583455464,JASSM,3,138,76,2,2,1,225,9,2,0,1,26,0,0,0,0,-178736.64489920562,-4778761.954072799,4210886.485807896,-2.36684,-0.400657,0.38129,74.5,-31.5,-32.375,0.0,0.0,0.0,0.0,0.0,0.0,2,0,41.55643473161975,-92.14199495220116,9999.999329791408,119.81776985628638,-0.0025834234158165,0.0059249230338131,,8749.224682894945,11121.848502006404,150,11,2025-09-16,2025-09-26 15:13:08.141,AA,C,618466938,AMBUSH51,1,1,48,2,1,1,225,2,1,0,0,9,1,225,2,1,-148797.20978623963,-4791419.303440446,4197165.986132926,2.28255,2.88771,-0.235074,-109.149,32.7675,34.4841,-0.183681,-7.27912,6.79814,-0.0123868,0.000159166,-0.00843161,4,0,41.39462003811964,-91.7787449803686,8764.529291687606,-71.52740652221581,-0.4135025510560947,-2.1953527431457536,191.665,8749.224682894945,11121.848502006404,150,True,18.980363875382125,False,172.3132529139565,178.92926817533976,False,8.403746033927243,True,False
11,1970-07-23 11:25:55.890461881,2025-09-16,2025-09-26 15:13:09.046,AA,C,584530118,JASSM,3,138,76,2,2,1,225,9,2,0,1,26,0,0,0,0,-178669.50915701812,-4778790.395479049,4210857.255339146,-2.36684,-0.400657,0.38129,74.5,-31.5,-32.375,0.0,0.0,0.0,0.0,0.0,0.0,2,0,41.55608318917089,-92.1411784092196,10000.000795234248,119.8183115143088,-0.0018784909390183,0.0059237511114238,,8749.224682894945,11121.848502006404,150,11,2025-09-16,2025-09-26 15:13:09.173,AA,C,619699702,AMBUSH51,1,1,48,2,1,1,225,2,1,0,0,9,1,225,2,1,-148910.85036024373,-4791385.142769405,4197201.226656257,2.26445,2.89065,-0.232831,-109.641,32.5222,34.2952,-0.0822511,-7.08494,6.76147,-0.0033716,0.00619497,-0.000130037,4,0,41.39504017543544,-91.78011526702876,8765.630945307019,-71.73404728384901,-0.3799854223570648,-3.1920498951719627,191.897,8749.224682894945,11121.848502006404,150,True,18.87239151077754,False,172.08352808136513,178.9048882457061,False,8.66299652973774,True,False
11,1970-07-23 11:25:55.900343207,2025-09-16,2025-09-26 15:13:10.034,AA,C,585663300,JASSM,3,138,76,2,2,1,225,9,2,0,1,26,0,0,0,0,-178598.71814139312,-4778820.383760299,4210826.433073521,-2.36684,-0.400561,0.38129,74.5,-31.375,-32.375,0.0,0.0,0.0,0.0,0.0,0.0,2,0,41.55571250803694,-92.1403174190506,10000.001052044625,119.815238866937,-0.0047016163091882,0.0038785950326132,,8749.224682894945,11121.848502006404,150,11,2025-09-16,2025-09-26 15:13:09.973,AA,C,620654102,AMBUSH51,1,1,48,2,1,1,225,2,1,0,0,9,1,225,2,1,-148998.58877326566,-4791359.270129714,4197228.040149953,2.27278,2.89257,-0.230193,-109.998,32.27,34.0918,-0.109228,-7.21382,6.75114,0.00052327,-0.00332791,-0.0155119,4,0,41.39535889014413,-91.781173049029,8766.865078909972,-71.91854517243759,-0.4034758429868258,-2.6883331526496144,192.276,8749.224682894945,11121.848502006404,150,True,18.777293167072184,False,171.92484470775545,178.89130715195728,False,8.896945455276834,True,False
11,1970-07-23 11:25:55.910360988,2025-09-16,2025-09-26 15:13:11.036,AA,C,586856148,JASSM,3,138,76,2,2,1,225,9,2,0,1,26,0,0,0,0,-178524.19958670562,-4778851.950166549,4210793.987761021,-2.36684,-0.400561,0.38129,74.5,-31.375,-32.375,0.0,0.0,0.0,0.0,0.0,0.0,2,0,41.55532230644568,-92.13941110402322,10000.002681434462,119.81584006698417,-0.0039191707581745,0.0038772553017506,,8749.224682894945,11121.848502006404,150,11,2025-09-16,2025-09-26 15:13:10.940,AA,C,621807334,AMBUSH51,1,1,48,2,1,1,225,2,1,0,0,9,1,225,2,1,-149103.95503650987,-4791328.355441844,4197259.989858925,2.28018,2.89744,-0.226681,-110.333,32.0522,33.8604,-0.257732,-7.25183,6.793,0.0126885,0.00736218,-0.00140544,4,0,41.39573900284896,-91.78244330938767,8768.192882642727,-72.25157755733952,-0.3404531885745827,-2.1988953730720784,192.471,8749.224682894945,11121.848502006404,150,True,18.66977508194796,False,171.7223436321067,178.86488717470112,False,9.131376371114726,True,False
11,1970-07-23 11:25:55.920400163,2025-09-16,2025-09-26 15:13:12.040,AA,C,588048250,JASSM,3,138,76,2,2,1,225,9,2,0,1,26,0,0,0,0,-178449.72790701812,-4778883.495088424,4210761.560026646,-2.36684,-0.400561,0.38129,74.5,-31.375,-32.375,0.0,0.0,0.0,0.0,0.0,0.0,2,0,41.55493233378786,-92.13850537072192,9999.998057099958,119.81644087651364,-0.0031372131630114,0.0038759079948981,,8749.224682894945,11121.848502006404,150,11,2025-09-16,2025-09-26 15:13:12.074,AA,C,623159398,AMBUSH51,1,1,48,2,1,1,225,2,1,0,0,9,1,225,2,1,-149229.61042325525,-4791291.790334955,4197298.012883016,2.29864,2.89842,-0.229004,-110.706,31.8327,33.7874,-0.0727135,-7.22786,6.81139,0.0227711,0.00146994,0.0030616,4,0,41.39618995928612,-91.78395807521812,8770.358083729427,-72.19212798369304,-0.2086324737518355,-1.1291011752774565,192.887,8749.224682894945,11121.848502006404,150,True,18.550688035352927,False,171.5612170087393,178.8330559833087,False,9.32652389933615,True,False
11,1970-07-23 11:25:55.929440648,2025-09-16,2025-09-26 15:13:12.944,AA,C,589121992,JASSM,3,138,76,2,2,1,225,9,2,0,1,26,0,0,0,0,-178382.65075858062,-4778911.909150924,4210732.352995396,-2.36684,-0.400561,0.38129,74.5,-31.375,-32.375,0.0,0.0,0.0,0.0,0.0,0.0,2,0,41.55458107438047,-92.1376895792994,10000.002360537605,119.81698201999292,-0.0024328970846708,0.0038746927078442,,8749.224682894945,11121.848502006404,150,11,2025-09-16,2025-09-26 15:13:12.941,AA,C,624193332,AMBUSH51,1,1,48,2,1,1,225,2,1,0,0,9,1,225,2,1,-149325.3194059951,-4791264.532773808,4197327.291461485,2.312,2.89584,-0.231209,-110.83,29.5803,35.9069,-0.137966,-7.08448,6.79676,0.0101273,-0.00473855,0.00977151,4,0,41.396532042319656,-91.78511163243355,8774.1614288629,-72.00242176718825,-0.2272267544028011,-0.3977531237941418,193.205,8749.224682894945,11121.848502006404,150,True,18.453527591600437,False,171.33925069028024,178.80834999237698,False,9.441838134381179,True,False
11,1970-07-23 11:25:55.939345086,2025-09-16,2025-09-26 15:13:13.934,AA,C,590256420,JASSM,3,138,76,2,2,1,225,9,2,0,1,26,0,0,0,0,-178311.78161795562,-4778941.926729049,4210701.493620396,-2.36684,-0.400561,0.38129,74.5,-31.375,-32.375,0.0,0.0,0.0,0.0,0.0,0.0,2,0,41.55420995973397,-92.13682768055628,10000.00086929395,119.81755374401628,-0.0016887696851695,0.0038734155159727,,8749.224682894945,11121.848502006404,150,11,2025-09-16,2025-09-26 15:13:14.107,AA,C,625585162,AMBUSH51,1,1,48,2,1,1,225,2,1,0,0,9,1,225,2,1,-149453.65448705407,-4791226.820669241,4197365.546582478,2.39144,2.89645,-0.233711,-111.006,32.0376,34.0479,-0.271893,-7.10679,6.63351,0.118083,0.0017425,0.00787817,4,0,41.39699085627453,-91.78665887575808,8774.231076384722,-71.9216145224958,-0.1034524334529628,4.161410624696323,193.816,8749.224682894945,11121.848502006404,150,True,18.335226312829217,False,171.65001774254247,178.77367255587922,False,9.306937156407365,True,False
11,1970-07-23 11:25:55.948379791,2025-09-16,2025-09-26 15:13:14.837,AA,C,591388782,JASSM,3,138,76,2,2,1,225,9,2,0,1,26,0,0,0,0,-178241.04236014312,-4778971.889619674,4210670.688932896,-2.36684,-0.400561,0.381386,74.5,-31.375,-32.375,0.0,0.0,0.0,0.0,0.0,0.0,2,0,41.55383950423629,-92.13596737111364,9999.999637219533,119.82196685317992,-0.0048716387810137,0.0038719330083636,,8749.224682894945,11121.848502006404,150,11,2025-09-16,2025-09-26 15:13:14.841,AA,C,626460028,AMBUSH51,1,1,48,2,1,1,225,2,1,0,0,9,1,225,2,1,-149534.9618181334,-4791202.990741691,4197390.128473551,2.4502,2.89547,-0.235024,-110.955,32.7266,34.3431,-0.242389,-6.95865,6.51847,0.0606025,-0.00110167,0.00842121,4,0,41.39728348637653,-91.78763912734068,8775.183598226035,-71.83013274887807,-0.0913348153856514,7.514933035464371,194.048,8749.224682894945,11121.848502006404,150,True,18.243971897849395,False,171.96616388135536,178.75073808581965,False,9.029655296719667,True,False
11,1970-07-23 11:25:55.957442534,2025-09-16,2025-09-26 15:13:15.744,AA,C,592522712,JASSM,3,138,76,2,2,1,225,9,2,0,1,26,0,0,0,0,-178170.20446951812,-4779001.891572799,4210639.843229771,-2.36684,-0.400561,0.381386,74.5,-31.375,-32.375,0.0,0.0,0.0,0.0,0.0,0.0,2,0,41.5534685549674,-92.1351058731853,9999.999482277151,119.82253830303678,-0.0041278473211049,0.0038707185464009,,8749.224682894945,11121.848502006404,150,11,2025-09-16,2025-09-26 15:13:15.573,AA,C,627334894,AMBUSH51,1,1,48,2,1,1,225,2,1,0,0,9,1,225,2,1,-149616.5960897649,-4791178.302443622,4197415.456245046,2.48642,2.88268,-0.246589,-110.666,33.5623,35.0071,-0.107456,-6.93199,6.59862,0.0354086,-0.00305743,0.028888,4,0,41.39758618935741,-91.78862361380394,8775.671966175549,-70.86087918158333,-0.1597974657518568,9.4134656771734,194.28,8749.224682894945,11121.848502006404,150,True,18.15218526559861,False,172.48274534599756,178.72836509624187,False,8.545617908745532,True,False
11,1970-07-23 11:25:55.967461864,2025-09-16,2025-09-26 15:13:16.746,AA,C,593596454,JASSM,3,138,76,2,2,1,225,9,2,0,1,26,0,0,0,0,-178103.12732108062,-4779030.301729049,4210610.632292271,-2.36684,-0.400561,0.381386,74.5,-31.375,-32.375,0.0,0.0,0.0,0.0,0.0,0.0,2,0,41.55311726834948,-92.13429012031702,9999.998891153127,119.82307940536394,-0.0034235306218049,0.0038695471324655,,8749.224682894945,11121.848502006404,150,11,2025-09-16,2025-09-26 15:13:16.673,AA,C,628647194,AMBUSH51,1,1,48,2,1,1,225,2,1,0,0,9,1,225,2,1,-149737.67462786846,-4791140.480580897,4197453.9873474445,2.47212,2.86281,-0.262208,-110.251,34.8848,36.0035,-0.320822,-6.98728,6.63264,-0.0535493,-0.00646753,0.0113632,4,0,41.39804882131149,-91.79008425359376,8775.535106146355,-69.4550397368068,-0.3496259985988716,8.301279795530935,194.659,8749.224682894945,11121.848502006404,150,True,18.039499678592207,False,173.27140920892285,178.69778148358853,False,7.8064461902910285,True,False
11,1970-07-23 11:25:55.977360117,2025-09-16,2025-09-26 15:13:17.736,AA,C,594789842,JASSM,3,138,76,2,2,1,225,9,2,0,1,26,0,0,0,0,-178028.57361014312,-4779061.877900924,4210578.165495396,-2.36684,-0.400561,0.381386,74.5,-31.375,-32.375,0.0,0.0,0.0,0.0,0.0,0.0,2,0,41.552726823947886,-92.13338345253932,10000.000493159394,119.82368080864056,-0.0026407114950214,0.0038682486494048,,8749.224682894945,11121.848502006404,150,11,2025-09-16,2025-09-26 15:13:17.841,AA,C,630039024,AMBUSH51,1,1,48,2,1,1,225,2,1,0,0,9,1,225,2,1,-149865.2307450204,-4791099.231580067,4197495.866503015,2.31598,2.85387,-0.274732,-110.193,35.4852,36.7563,-0.0364202,-7.34155,6.90321,-0.140502,-0.00147618,0.0132544,4,0,41.39855322077299,-91.79162358313025,8774.739359045652,-68.595250229534,-0.2140906684499628,-0.7851628723049331,195.343,8749.224682894945,11121.848502006404,150,True,17.91779884930562,False,173.69413469488993,178.66684444113656,False,7.415668081130063,True,False
11,1970-07-23 11:25:55.987380193,2025-09-16,2025-09-26 15:13:18.738,AA,C,596041664,JASSM,3,138,76,2,2,1,225,9,2,0,1,26,0,0,0,0,-177950.37146170562,-4779094.997041549,4210544.108854771,-2.36684,-0.400465,0.381386,74.5,-31.375,-32.375,0.0,0.0,0.0,0.0,0.0,0.0,2,0,41.552317271382776,-92.13243242787011,9999.998583776944,119.82066811181691,-0.0053860154596849,0.001822520011163,,8749.224682894945,11121.848502006404,150,11,2025-09-16,2025-09-26 15:13:18.573,AA,C,630913890,AMBUSH51,1,1,48,2,1,1,225,2,1,0,0,9,1,225,2,1,-149946.474605051,-4791072.914656292,4197522.985587922,2.22989,2.85479,-0.276091,-110.385,35.3348,36.6864,-0.117993,-7.18028,6.78372,-0.11361,-0.00505064,-0.0116857,4,0,41.39887774448146,-91.79260405181913,8775.094516754483,-68.57461697592949,-0.1226081189781706,-5.70334486274313,195.942,8749.224682894945,11121.848502006404,150,True,17.820870181580066,False,173.5895983333097,178.6461083423169,False,7.539429272670577,True,False
11,1970-07-23 11:25:55.997979138,2025-09-16,2025-09-26 15:13:19.797,AA,C,597295134,JASSM,3,138,76,2,2,1,225,9,2,0,1,26,0,0,0,0,-177872.06579764312,-4779128.159150924,4210510.007292271,-2.36684,-0.400465,0.381386,74.5,-31.375,-32.375,0.0,0.0,0.0,0.0,0.0,0.0,2,0,41.55190717504888,-92.1314801567538,9999.999191327446,119.8212997542957,-0.0045638079189627,0.0018211145926106,,8749.224682894945,11121.848502006404,150,11,2025-09-16,2025-09-26 15:13:19.740,AA,C,632305722,AMBUSH51,1,1,48,2,1,1,225,2,1,0,0,9,1,225,2,1,-150074.59520806777,-4791032.148179296,4197564.52911928,2.16274,2.86525,-0.258761,-111.111,34.8439,35.4899,-0.21783,-6.98502,6.58847,-0.00860846,-0.00240621,-0.0222655,4,0,41.39937686861727,-91.79414998399376,8774.817599414871,-69.69424986945316,-0.3833718617174009,-9.387807817195217,196.394,8749.224682894945,11121.848502006404,150,True,17.69672929986622,False,172.93201645787295,178.61296471746243,False,8.252814978707029,True,False
11,1970-07-23 11:25:56.007467981,2025-09-16,2025-09-26 15:13:20.746,AA,C,598488486,JASSM,3,138,76,2,2,1,225,9,2,0,1,26,0,0,0,0,-177797.51501639312,-4779159.731416549,4210477.538542271,-2.36684,-0.400465,0.381386,74.5,-31.375,-32.375,0.0,0.0,0.0,0.0,0.0,0.0,2,0,41.5515167179079,-92.13057355960956,9999.999344943732,119.82190109642116,-0.0037810173372919,0.0018197607713946,,8749.224682894945,11121.848502006404,150,11,2025-09-16,2025-09-26 15:13:20.673,AA,C,633419188,AMBUSH51,1,1,48,2,1,1,225,2,1,0,0,9,1,225,2,1,-150179.300173754,-4790999.577785747,4197597.144481229,2.1606,2.87441,-0.249309,-111.861,34.2114,34.4291,-0.168776,-7.16941,6.67422,0.0236324,-0.00399994,-0.0125803,4,0,41.39977130445674,-91.7954131161957,8773.534906541325,-70.43743139754615,-0.3833637917139746,-9.373557950072756,196.7,8749.224682894945,11121.848502006404,150,True,17.58907106306628,False,172.2689234724219,178.582703223421,False,8.956560396655286,True,False
11,1970-07-23 11:25:56.018337053,2025-09-16,2025-09-26 15:13:21.833,AA,C,599741024,JASSM,3,138,76,2,2,1,225,9,2,0,1,26,0,0,0,0,-177719.26794608062,-4779192.868135299,4210443.460417271,-2.36684,-0.400465,0.381386,74.5,-31.375,-32.375,0.0,0.0,0.0,0.0,0.0,0.0,2,0,41.55110690243311,-92.12962202478114,10000.0024245752,119.82253224053282,-0.0029594198264443,0.0018183470738207,,8749.224682894945,11121.848502006404,150,11,2025-09-16,2025-09-26 15:13:21.806,AA,C,634771254,AMBUSH51,1,1,48,2,1,1,225,2,1,0,0,9,1,225,2,1,-150305.71386335007,-4790961.472898871,4197635.075827095,2.19942,2.88958,-0.237558,-112.674,33.1662,33.6101,-0.101166,-7.46669,6.92154,0.0897142,0.00590993,-0.006996,4,0,41.400230489062295,-91.7969377004068,8771.854373095657,-71.50655428886452,-0.2252251629784742,-6.934114403117967,197.298,8749.224682894945,11121.848502006404,150,True,17.46704016665666,False,171.5540319479774,178.5436466652179,False,9.702811313255879,True,False
11,1970-07-23 11:25:56.028357659,2025-09-16,2025-09-26 15:13:22.835,AA,C,600935054,JASSM,3,138,76,2,2,1,225,9,2,0,1,26,0,0,0,0,-177644.67517264312,-4779224.454072799,4210410.972136021,-2.36684,-0.400465,0.381386,74.5,-31.375,-32.375,0.0,0.0,0.0,0.0,0.0,0.0,2,0,41.55071622680441,-92.1287149411868,9999.997804830084,119.82313389579735,-0.0021761974379258,0.0018170057639147,,8749.224682894945,11121.848502006404,150,11,2025-09-16,2025-09-26 15:13:22.741,AA,C,635884718,AMBUSH51,1,1,48,2,1,1,225,2,1,0,0,9,1,225,2,1,-150411.6879110186,-4790930.294003033,4197666.350862975,2.31024,2.89897,-0.231511,-113.073,32.7183,33.4191,-0.261466,-7.24564,6.70053,0.0922671,0.00222312,-0.00521085,4,0,41.40060733048135,-91.79821550668888,8771.199143353682,-72.11714016842292,-0.0768353473544123,-0.4582465213383277,197.494,8749.224682894945,11121.848502006404,150,True,17.359352107507142,False,171.28962357712183,178.5089037257617,False,9.99676094310826,True,False
11,1970-07-23 11:25:56.039378106,2025-09-16,2025-09-26 15:13:23.937,AA,C,602245504,JASSM,3,138,76,2,2,1,225,9,2,0,1,26,0,0,0,0,-177562.80993826812,-4779259.120088424,4210375.315886021,-2.36684,-0.400465,0.381386,74.5,-31.375,-32.375,0.0,0.0,0.0,0.0,0.0,0.0,2,0,41.55028744684837,-92.12771943331794,9999.99758635427,119.82379419623976,-0.0013166106951666,0.0018155277242788,,8749.224682894945,11121.848502006404,150,11,2025-09-16,2025-09-26 15:13:23.846,AA,C,637197018,AMBUSH51,1,1,48,2,1,1,225,2,1,0,0,9,1,225,2,1,-150535.39054546866,-4790894.129772778,4197702.751459398,2.37882,2.89247,-0.239322,-113.234,32.9833,33.7246,-0.0355599,-7.42471,6.78702,0.0543961,0.00424337,0.0144362,4,0,41.401045105359046,-91.79970701164672,8770.779110085,-71.54382882067229,-0.0365635081774707,3.3835952086346954,197.824,8749.224682894945,11121.848502006404,150,True,17.236999134981385,False,171.43529138720817,178.46766386048665,False,9.8959136853208,True,False
11,1970-07-23 11:25:56.049418150,2025-09-16,2025-09-26 15:13:24.941,AA,C,603498204,JASSM,3,138,76,2,2,1,225,9,2,0,1,26,0,0,0,0,-177484.55212576812,-4779292.258760299,4210341.229948521,-2.36684,-0.400465,0.381482,74.5,-31.375,-32.375,0.0,0.0,0.0,0.0,0.0,0.0,2,0,41.54987754578193,-92.12676780507064,10000.00039827632,119.82826797153042,-0.004420400241558,0.0018139435985073,,8749.224682894945,11121.848502006404,150,11,2025-09-16,2025-09-26 15:13:24.773,AA,C,638310482,AMBUSH51,1,1,48,2,1,1,225,2,1,0,0,9,1,225,2,1,-150641.63565567217,-4790862.73730206,4197734.628230461,2.42028,2.8898,-0.239888,-113.134,33.482,34.4367,-0.192104,-7.14043,6.64791,0.012701,-0.00520045,0.00720406,4,0,41.40142719823217,-91.8009881688074,8770.93977472913,-71.41962376273426,-0.1223360279516968,5.72233746984194,198.349,8749.224682894945,11121.848502006404,150,True,17.12672862371445,False,171.82312906257366,178.4321954817706,False,9.542832035069326,True,False
11,1970-07-23 11:25:56.060470248,2025-09-16,2025-09-26 15:13:26.047,AA,C,604750902,JASSM,3,138,76,2,2,1,225,9,2,0,1,26,0,0,0,0,-177406.29431326812,-4779325.393525924,4210307.144011021,-2.36684,-0.400465,0.381482,74.5,-31.375,-32.375,0.0,0.0,0.0,0.0,0.0,0.0,2,0,41.54946766011184,-92.12581619058206,9999.997934075542,119.82889914811624,-0.0035987002807194,0.0018125989387308,,8749.224682894945,11121.848502006404,150,11,2025-09-16,2025-09-26 15:13:25.907,AA,C,639662548,AMBUSH51,1,1,48,2,1,1,225,2,1,0,0,9,1,225,2,1,-150768.99454924284,-4790824.370437485,4197773.548946748,2.39546,2.88101,-0.250051,-113.023,34.1152,35.3545,-0.143157,-7.41946,6.89552,-0.0922047,0.00993796,0.0169038,4,0,41.401894369836825,-91.80252422305676,8770.87007528485,-70.66176898782999,-0.0809394690207845,4.177245618866469,198.569,8749.224682894945,11121.848502006404,150,True,17.00403609735173,False,172.31385611864738,178.3910571758402,False,9.09085962389421,True,False
11,1970-07-23 11:25:56.070779752,2025-09-16,2025-09-26 15:13:27.077,AA,C,605945448,JASSM,3,138,76,2,2,1,225,9,2,0,1,26,0,0,0,0,-177331.66931326812,-4779356.991182174,4210274.640104771,-2.36684,-0.400465,0.381482,74.5,-31.375,-32.375,0.0,0.0,0.0,0.0,0.0,0.0,2,0,41.54907678634738,-92.12490876180412,10000.001556544645,119.82950101291772,-0.0028151401537506,0.0018113098398717,,8749.224682894945,11121.848502006404,150,11,2025-09-16,2025-09-26 15:13:27.006,AA,C,640974846,AMBUSH51,1,1,48,2,1,1,225,2,1,0,0,9,1,225,2,1,-150893.0524520619,-4790786.534895239,4197812.310555679,2.31071,2.87279,-0.256566,-113.051,34.3365,35.7859,-0.136565,-7.1761,6.57759,-0.0627871,-0.00685868,-0.0106391,4,0,41.40235790434456,-91.80402066004328,8771.516167859865,-70.07832793357524,-0.1575187637642625,-0.7982769621543138,199.021,8749.224682894945,11121.848502006404,150,True,16.885268600370335,False,172.50537405897313,178.35179212944186,False,8.936182885204834,True,False
11,1970-07-23 11:25:56.081398664,2025-09-16,2025-09-26 15:13:28.139,AA,C,607256300,JASSM,3,138,76,2,2,1,225,9,2,0,1,26,0,0,0,0,-177249.77771170562,-4779391.663057174,4210238.968229771,-2.36684,-0.400369,0.381482,74.5,-31.375,-32.375,0.0,0.0,0.0,0.0,0.0,0.0,2,0,41.54864783896648,-92.1239129859787,9999.997341472646,119.82651822037806,-0.0055217012774433,-0.0002349610055453,,8749.224682894945,11121.848502006404,150,11,2025-09-16,2025-09-26 15:13:28.173,AA,C,642366678,AMBUSH51,1,1,48,2,1,1,225,2,1,0,0,9,1,225,2,1,-151025.73177569825,-4790746.148418744,4197853.767431701,2.23523,2.88087,-0.249164,-113.467,34.1673,35.3812,-0.0429929,-7.25165,6.68584,-0.0387979,0.00106006,-0.00582463,4,0,41.40285317418553,-91.80562108600576,8772.413849637385,-70.69549344930518,-0.1189361753396208,-5.005689489520321,199.388,8749.224682894945,11121.848502006404,150,True,16.756963468849378,False,172.25545511293592,178.3088616954931,False,9.238568455333656,True,False
11,1970-07-23 11:25:56.091435811,2025-09-16,2025-09-26 15:13:29.143,AA,C,608510728,JASSM,3,138,76,2,2,1,225,9,2,0,1,26,0,0,0,0,-177171.41247733062,-4779424.842744674,4210204.831511021,-2.36674,-0.400369,0.381482,74.5,-31.375,-32.375,0.0,0.0,0.0,0.0,0.0,0.0,2,0,41.54823734336633,-92.12296010161316,9999.997754695109,119.82715022395728,-0.0046988617591524,0.0052550916399378,,8749.224682894945,11121.848502006404,150,11,2025-09-16,2025-09-26 15:13:29.073,AA,C,643440378,AMBUSH51,1,1,48,2,1,1,225,2,1,0,0,9,1,225,2,1,-151127.86227121993,-4790715.670300188,4197885.105346397,2.21822,2.8841,-0.24632,-113.901,33.6494,34.8585,-0.0952078,-7.22747,6.66068,-0.0101065,0.00712708,-0.0175509,4,0,41.40322689572823,-91.80685280767678,8773.36664492638,-70.93796303616661,-0.0979455929988302,-5.934089826095445,199.694,8749.224682894945,11121.848502006404,150,True,16.648811672977597,False,171.8630464166573,178.27319302884257,False,9.667378296598923,True,False
11,1970-07-23 11:25:56.103460298,2025-09-16,2025-09-26 15:13:30.346,AA,C,609822838,JASSM,3,138,76,2,2,1,225,9,2,0,1,26,0,0,0,0,-177089.44275076812,-4779459.547822799,4210169.124479771,-2.36674,-0.400369,0.381482,74.5,-31.375,-32.375,0.0,0.0,0.0,0.0,0.0,0.0,2,0,41.54780796148136,-92.12196340154908,10000.000639885482,119.82781128294847,-0.0038381766942932,0.0052536096733618,,8749.224682894945,11121.848502006404,150,11,2025-09-16,2025-09-26 15:13:30.340,AA,C,644951510,AMBUSH51,1,1,48,2,1,1,225,2,1,0,0,9,1,225,2,1,-151272.70156771952,-4790673.128249999,4197928.864172442,2.26749,2.88983,-0.237703,-114.5,33.1359,34.1988,-0.0593218,-7.18191,6.66873,0.0956605,0.00535441,-0.00943654,4,0,41.40374820609224,-91.808599376098,8774.92064147643,-71.51765039287349,-0.1999745463490943,-3.0315326054299474,200.097,8749.224682894945,11121.848502006404,150,True,16.514065455661108,False,171.40147102627958,178.2222162164864,False,10.185832941151745,True,False
11,1970-07-23 11:25:56.114376197,2025-09-16,2025-09-26 15:13:31.437,AA,C,611134040,JASSM,3,138,76,2,2,1,225,9,2,0,1,26,0,0,0,0,-177007.52966483062,-4779494.225557174,4210133.442839146,-2.36674,-0.400369,0.381482,74.5,-31.375,-32.375,0.0,0.0,0.0,0.0,0.0,0.0,2,0,41.54737889252399,-92.12096740486614,10000.001554482167,119.82847186981613,-0.0029780996418286,0.0052521497297371,,8749.224682894945,11121.848502006404,150,11,2025-09-16,2025-09-26 15:13:31.443,AA,C,646263808,AMBUSH51,1,1,48,2,1,1,225,2,1,0,0,9,1,225,2,1,-151397.54935274983,-4790636.735993352,4197965.935657775,2.46139,2.89127,-0.232119,-114.6,33.729,34.3469,-0.297341,-6.87661,6.38775,0.137362,0.00451177,0.00836087,4,0,41.40419151641976,-91.81010479085776,8775.548884205686,-71.80749868263985,-0.358006100615066,8.099067829759367,200.28,8749.224682894945,11121.848502006404,150,True,16.391044786922077,False,171.60343695564717,178.17551607753694,False,10.04727204087221,True,False
11,1970-07-23 11:25:56.126006860,2025-09-16,2025-09-26 15:13:32.600,AA,C,612447694,JASSM,3,138,76,2,2,1,225,9,2,0,1,26,0,0,0,0,-176925.46423514312,-4779528.967744674,4210097.690886021,-2.36674,-0.400369,0.381482,74.5,-31.375,-32.375,0.0,0.0,0.0,0.0,0.0,0.0,2,0,41.546948990527206,-92.11996956903228,9999.99850551896,119.82913367086714,-0.0021164098324834,0.0052506641544996,,8749.224682894945,11121.848502006404,150,11,2025-09-16,2025-09-26 15:13:32.543,AA,C,647576106,AMBUSH51,1,1,48,2,1,1,225,2,1,0,0,9,1,225,2,1,-151524.26871140712,-4790598.454913456,4198004.3785877945,2.56166,2.87121,-0.255435,-114.074,35.1,35.7261,-0.188357,-7.3299,6.75567,0.0829731,-0.000618977,0.0221968,4,0,41.40465495058101,-91.8116333015263,8774.662231234171,-70.07063856307695,-0.2595639626227865,13.556826237996855,200.83,8749.224682894945,11121.848502006404,150,False,16.266422334550946,False,172.52128065984098,178.12907008527984,False,9.184560603291493,True,False
11,1970-07-23 11:25:56.135407280,2025-09-16,2025-09-26 15:13:33.540,AA,C,613700512,JASSM,3,138,76,2,2,1,225,9,2,0,1,26,0,0,0,0,-176847.19861014312,-4779562.100557174,4210063.595182896,-2.36674,-0.400369,0.381482,74.5,-31.375,-32.375,0.0,0.0,0.0,0.0,0.0,0.0,2,0,41.5465389959941,-92.11901794777144,10000.000069294554,119.82976481548975,-0.001294623317156,0.0052492560384736,,8749.224682894945,11121.848502006404,150,11,2025-09-16,2025-09-26 15:13:33.543,AA,C,648769106,AMBUSH51,1,1,48,2,1,1,225,2,1,0,0,9,1,225,2,1,-151636.79750815162,-4790562.816589202,4198040.286430493,2.62133,2.85778,-0.268156,-113.326,36.8398,37.4291,-0.279952,-7.41894,6.7458,0.021142,0.00370866,0.0162214,4,0,41.40508820026717,-91.81299128331804,8773.679715760332,-69.03155152238966,-0.2990542981913039,16.77176982318707,201.123,8749.224682894945,11121.848502006404,150,False,16.151666812540387,False,173.6804237909808,178.090174109678,False,8.077459055282945,True,False
11,1970-07-23 11:25:56.146447192,2025-09-16,2025-09-26 15:13:34.644,AA,C,615011100,JASSM,3,138,76,2,2,1,225,9,2,0,1,26,0,0,0,0,-176765.32361014312,-4779596.758760299,4210027.925261021,-2.36674,-0.400369,0.381578,74.5,-31.375,-32.375,0.0,0.0,0.0,0.0,0.0,0.0,2,0,41.54611008845655,-92.11802245462027,9999.995972981467,119.83426777736818,-0.004360304803649,0.0052476244642709,,8749.224682894945,11121.848502006404,150,11,2025-09-16,2025-09-26 15:13:34.509,AA,C,649922338,AMBUSH51,1,1,48,2,1,1,225,2,1,0,0,9,1,225,2,1,-151746.90042541627,-4790525.842337062,4198077.4353982005,2.5963,2.83616,-0.289372,-112.385,38.4485,39.2821,-0.173789,-7.34545,6.74131,-0.0635237,0.0107515,0.0223175,4,0,41.40553821771103,-91.81432080391738,8771.923347559677,-67.33099114113931,-0.3221660797166226,14.98758331869388,201.392,8749.224682894945,11121.848502006404,150,False,16.035206932836154,False,174.88106102780444,178.05516181311515,False,6.917440946570309,True,False
11,1970-07-23 11:25:56.156466160,2025-09-16,2025-09-26 15:13:35.646,AA,C,616263800,JASSM,3,138,76,2,2,1,225,9,2,0,1,26,0,0,0,0,-176687.06579764312,-4779629.887666549,4209993.831511021,-2.36674,-0.400369,0.381578,74.5,-31.375,-32.375,0.0,0.0,0.0,0.0,0.0,0.0,2,0,41.545700112482656,-92.11707095321476,10000.001727177125,119.83489883212428,-0.0035385971964924,0.0052462660553597,,8749.224682894945,11121.848502006404,150,11,2025-09-16,2025-09-26 15:13:35.509,AA,C,651115336,AMBUSH51,1,1,48,2,1,1,225,2,1,0,0,9,1,225,2,1,-151858.67068641027,-4790486.473454865,4198117.260899117,2.55756,2.81874,-0.308677,-111.399,39.8001,41.0488,-0.0997444,-7.73644,6.71788,-0.0577646,0.00886437,0.0151852,4,0,41.406020220666605,-91.8156711720259,8770.22280087123,-65.87329635038951,-0.2410342785381732,12.466326800407568,201.612,8749.224682894945,11121.848502006404,150,False,15.9192199961058,False,175.98900318094235,178.0235663900176,False,5.838258575276447,True,False
11,1970-07-23 11:25:56.168023044,2025-09-16,2025-09-26 15:13:36.802,AA,C,617517078,JASSM,3,138,76,2,2,1,225,9,2,0,1,26,0,0,0,0,-176608.77087576812,-4779663.028291549,4209959.720182896,-2.36674,-0.400369,0.381578,74.5,-31.375,-32.375,0.0,0.0,0.0,0.0,0.0,0.0,2,0,41.545289948491785,-92.11611901440877,9999.998932552371,119.83553017185385,-0.0027165081422234,0.0052449187141888,,8749.224682894945,11121.848502006404,150,11,2025-09-16,2025-09-26 15:13:36.876,AA,C,652745768,AMBUSH51,1,1,48,2,1,1,225,2,1,0,0,9,1,225,2,1,-152009.32916222786,-4790431.312400173,4198174.179519416,2.40091,2.80472,-0.325016,-110.466,40.6718,42.8107,-0.130209,-7.5224,6.75912,-0.118728,0.00436197,0.00726648,4,0,41.4067042127606,-91.8174921996378,8769.815034890396,-64.67143176675705,-0.1339036338428044,3.236693452093925,201.612,8749.224682894945,11121.848502006404,150,True,15.778865110698835,False,176.93395303027123,177.98846730376752,False,4.887874780914219,True,False
11,1970-07-23 11:25:56.178345619,2025-09-16,2025-09-26 15:13:37.834,AA,C,618830636,JASSM,3,138,76,2,2,1,225,9,2,0,1,26,0,0,0,0,-176526.71032889312,-4779697.762666549,4209923.968229771,-2.36674,-0.400273,0.381578,74.5,-31.375,-32.375,0.0,0.0,0.0,0.0,0.0,0.0,2,0,41.5448600497923,-92.11512130471752,10000.000176625816,119.8325488808424,-0.0054212961131622,0.0031981597594303,,8749.224682894945,11121.848502006404,150,11,2025-09-16,2025-09-26 15:13:37.709,AA,C,653739934,AMBUSH51,1,1,48,2,1,1,225,2,1,0,0,9,1,225,2,1,-152101.8427543047,-4790397.111196086,4198210.050650394,2.33219,2.80523,-0.328197,-110.172,40.6557,43.0673,0.0430871,-7.60772,6.4599,-0.0814646,-0.00200257,-0.00656948,4,0,41.40713237635882,-91.81861056660348,8770.758532790109,-64.56093317536187,0.0139349949983932,-0.6911795117369672,201.576,8749.224682894945,11121.848502006404,150,True,15.671051644542617,False,177.0575380803765,177.96556259726924,False,4.767868866980442,True,False
11,1970-07-23 11:25:56.189364477,2025-09-16,2025-09-26 15:13:38.936,AA,C,620142364,JASSM,3,138,76,2,2,1,225,9,2,0,1,26,0,0,0,0,-176444.76501639312,-4779732.448213424,4209888.263151646,-2.36674,-0.400273,0.381578,74.5,-31.375,-32.375,0.0,0.0,0.0,0.0,0.0,0.0,2,0,41.54443072399312,-92.11412500928314,9999.998772748657,119.83320962753103,-0.0045608677210426,0.0031966762702861,,8749.224682894945,11121.848502006404,150,11,2025-09-16,2025-09-26 15:13:38.809,AA,C,655052232,AMBUSH51,1,1,48,2,1,1,225,2,1,0,0,9,1,225,2,1,-152222.1912695997,-4790352.6639506295,4198256.904190914,2.27618,2.80738,-0.321834,-110.166,40.5224,42.6882,-0.105872,-7.25442,6.22693,-0.0193152,0.00157397,0.00709795,4,0,41.407690364497455,-91.82006542601464,8772.514798924163,-64.90429415065124,-0.1559512300103887,-3.860993024961671,201.319,8749.224682894945,11121.848502006404,150,True,15.546365643859147,False,176.92026042935422,177.93758087786566,False,4.951288935196354,True,False
11,1970-07-23 11:25:56.200824619,2025-09-16,2025-09-26 15:13:40.082,AA,C,621454820,JASSM,3,138,76,2,2,1,225,9,2,0,1,26,0,0,0,0,-176362.77380545562,-4779767.151338424,4209852.538542271,-2.36674,-0.400273,0.381578,74.5,-31.375,-32.375,0.0,0.0,0.0,0.0,0.0,0.0,2,0,41.54400116323405,-92.11312816982183,9999.99857458594,119.83387072940508,-0.0036999649147249,0.0031952039100371,,8749.224682894945,11121.848502006404,150,11,2025-09-16,2025-09-26 15:13:39.942,AA,C,656404298,AMBUSH51,1,1,48,2,1,1,225,2,1,0,0,9,1,225,2,1,-152347.88512164552,-4790306.690617679,4198305.082366464,2.27793,2.81198,-0.314703,-110.328,40.3271,41.9609,-0.193402,-7.2533,6.18974,0.00684412,-0.0180668,-0.00138672,4,0,41.40826534439906,-91.8215847597518,8773.819903733965,-65.37263754612461,-0.2603602168159812,-3.676689890574331,201.172,8749.224682894945,11121.848502006404,150,True,15.418657086128535,False,176.62935302599794,177.9066822077866,False,5.305800965762144,True,False
11,1970-07-23 11:25:56.212407272,2025-09-16,2025-09-26 15:13:41.240,AA,C,622827318,JASSM,3,138,76,2,2,1,225,9,2,0,1,26,0,0,0,0,-176277.03064139312,-4779803.442354049,4209815.179167271,-2.36674,-0.400273,0.381578,74.5,-31.375,-32.375,0.0,0.0,0.0,0.0,0.0,0.0,2,0,41.54355193719632,-92.11208572873356,10000.00310136379,119.83456206817704,-0.0027996672361734,0.0031936648777912,,8749.224682894945,11121.848502006404,150,11,2025-09-16,2025-09-26 15:13:41.409,AA,C,658154028,AMBUSH51,1,1,48,2,1,1,225,2,1,0,0,9,1,225,2,1,-152509.66285776117,-4790247.602398561,4198366.157128654,2.39529,2.81732,-0.308297,-110.315,40.2934,41.6929,-0.320477,-7.22526,6.3118,0.111529,-0.00549797,-0.00297421,4,0,41.4089985577621,-91.82354026767338,8773.691727484456,-65.84009439706003,-0.3054068221709625,3.143689023153992,200.83,8749.224682894945,11121.848502006404,150,True,15.266947930307248,False,176.54598753766118,177.86616251978765,False,5.443308497562845,True,False
11,1970-07-23 11:25:56.222444551,2025-09-16,2025-09-26 15:13:42.244,AA,C,624138398,JASSM,3,138,76,2,2,1,225,9,2,0,1,26,0,0,0,0,-176195.12536795562,-4779838.106416549,4209779.489714146,-2.36674,-0.400273,0.381578,74.5,-31.375,-32.375,0.0,0.0,0.0,0.0,0.0,0.0,2,0,41.543122809582144,-92.11108996223588,10000.000988951182,119.83522244699056,-0.0019396677204989,0.0031921940873146,,8749.224682894945,11121.848502006404,150,11,2025-09-16,2025-09-26 15:13:42.143,AA,C,659028894,AMBUSH51,1,1,48,2,1,1,225,2,1,0,0,9,1,225,2,1,-152590.45123649624,-4790217.794452661,4198396.769157351,2.48006,2.81386,-0.315062,-109.995,40.7856,42.0634,-0.452877,-7.42882,6.63762,0.15311,0.00991924,0.0177548,4,0,41.40936724471479,-91.824516937821,8773.139313695532,-65.43124314134496,-0.1700713702262982,7.938344850488175,200.72,8749.224682894945,11121.848502006404,150,True,15.166529699104842,False,176.86229418578284,177.84254862033978,False,5.163766001006673,True,False
11,1970-07-23 11:25:56.233465250,2025-09-16,2025-09-26 15:13:43.346,AA,C,625450258,JASSM,3,138,76,2,2,1,225,9,2,0,1,26,0,0,0,0,-176113.17028983062,-4779872.790010299,4209743.778776646,-2.36674,-0.400273,0.381578,74.5,-31.375,-32.375,0.0,0.0,0.0,0.0,0.0,0.0,2,0,41.54269342305609,-92.11009360409707,10000.000275533012,119.83588321256312,-0.0010791509577157,0.0031907313864911,,8749.224682894945,11121.848502006404,150,11,2025-09-16,2025-09-26 15:13:43.543,AA,C,660699092,AMBUSH51,1,1,48,2,1,1,225,2,1,0,0,9,1,225,2,1,-152743.43514085375,-4790159.45559765,4198456.684460138,2.63897,2.79345,-0.330233,-108.613,42.8071,43.8346,-0.376202,-7.2738,6.46441,0.0539758,0.0104311,0.0289962,4,0,41.41008979136311,-91.8263671488637,8771.674055057381,-64.03564537008548,-0.3540449220471531,16.66568765369438,200.28,8749.224682894945,11121.848502006404,150,False,15.021562300013185,False,178.24393058933035,177.80764051567795,False,3.8736216730978343,True,False
11,1970-07-23 11:25:56.244487085,2025-09-16,2025-09-26 15:13:44.448,AA,C,626762610,JASSM,3,138,76,2,2,1,225,9,2,0,1,26,0,0,0,0,-176031.18591483062,-4779907.487275924,4209708.052214146,-2.36674,-0.400273,0.381674,74.5,-31.375,-32.375,0.0,0.0,0.0,0.0,0.0,0.0,2,0,41.542263847512096,-92.10909690241375,10000.001193050775,119.840387066921,-0.0041435387904001,0.0031890987638283,,8749.224682894945,11121.848502006404,150,11,2025-09-16,2025-09-26 15:13:44.309,AA,C,661613726,AMBUSH51,1,1,48,2,1,1,225,2,1,0,0,9,1,225,2,1,-152825.51053642557,-4790126.410402726,4198490.348748583,2.65489,2.77418,-0.346652,-107.602,44.2666,45.1391,-0.149666,-7.48579,6.57375,-0.0573485,0.000612735,0.0256423,4,0,41.41049807508637,-91.8273604642604,8769.897321217728,-62.63517786741856,-0.4310246477196303,17.20209439592308,200.537,8749.224682894945,11121.848502006404,150,False,14.919205372617668,False,179.23643964446183,177.7885916702274,False,2.96050605939479,True,False
