Subject_cm,Timestamp,SampleDate_cm,SampleTime_cm,Configuration_cm,Scenario_cm,DisTime_cm,MarkingTxt_cm,Application_cm,EntId_cm,Site_cm,ExerciseId_cm,ForceId_cm,Category_cm,Country_cm,Domain_cm,Kind_cm,Extra_cm,Specific_cm,Subcategory_cm,AltCategory_cm,AltCountry_cm,AltDomain_cm,AltKind_cm,ECEF_X_cm,ECEF_Y_cm,ECEF_Z_cm,OriPhi_cm,OriPsi_cm,OriTheta_cm,LinVelX_cm,LinVelY_cm,LinVelZ_cm,LinAccX_cm,LinAccY_cm,LinAccZ_cm,AngVelX_cm,AngVelY_cm,AngVelZ_cm,DrAlg_cm,Appearance_cm,Latitude_cm,Longitude_cm,Altitude_cm,Heading_cm,Pitch_cm,Roll_cm,CalibratedAirspeed_cm,CM_Altitude_Lead_cm,CM_Altitude_Wing_cm,CM_Airspeed_cm,Subject_ac,SampleDate_ac,SampleTime_ac,Configuration_ac,Scenario_ac,DisTime_ac,MarkingTxt_ac,Application_ac,EntId_ac,Site_ac,ExerciseId_ac,ForceId_ac,Category_ac,Country_ac,Domain_ac,Kind_ac,Extra_ac,Specific_ac,Subcategory_ac,AltCategory_ac,AltCountry_ac,AltDomain_ac,AltKind_ac,ECEF_X_ac,ECEF_Y_ac,ECEF_Z_ac,OriPhi_ac,OriPsi_ac,OriTheta_ac,LinVelX_ac,LinVelY_ac,LinVelZ_ac,LinAccX_ac,LinAccY_ac,LinAccZ_ac,AngVelX_ac,AngVelY_ac,AngVelZ_ac,DrAlg_ac,Appearance_ac,Latitude_ac,Longitude_ac,Altitude_ac,Heading_ac,Pitch_ac,Roll_ac,CalibratedAirspeed_ac,CM_Altitude_Lead_ac,CM_Altitude_Wing_ac,CM_Airspeed_ac,Bank_Angle_Condition,distance_nm,Distance_Condition,angle_between_vel,angle_between_pos,Cone_Condition,angle_between_pos_nose,Nose_Cone_Condition,Intercept_Criteria
11,1970-07-23 11:25:40.691374370,2025-09-16,2025-09-26 14:47:49.137,HA,C,3066126548,JASSM,3,113,76,2,2,1,225,9,2,0,1,26,0,0,0,0,-163090.83337576812,-4785393.631807174,4204030.849089146,-2.36559,-0.397301,0.382249,76.125,-31.875,-33.0,0.0,0.0,0.0,0.0,0.0,0.0,2,0,41.47403741171348,-91.95193996212777,9999.999531996578,119.85475946286456,-0.0022543285622556,0.0050428487983217,,8736.853420967655,11026.390928219933,150,11,2025-09-16,2025-09-26 14:47:48.969,HA,C,3101030534,AMBUSH51,1,1,48,2,1,1,225,2,1,0,0,9,1,225,2,1,-146512.6078185903,-4791951.545443092,4196631.840187788,2.36597,2.77729,-0.384802,-106.574,39.0542,44.0613,-0.217974,-7.72976,7.00037,-0.00896008,0.00254769,-0.00554582,4,0,41.388266341946085,-91.75125722330831,8742.013253781775,-61.153387756722665,1.1684607248029932,0.713696125433591,195.832,8736.853420967655,11026.390928219933,150,True,10.386349339922448,False,177.51769106445772,178.70982733902167,False,1.8920667504545026,True,False
11,1970-07-23 11:25:40.702418553,2025-09-16,2025-09-26 14:47:50.241,HA,C,3067498318,JASSM,3,113,76,2,2,1,225,9,2,0,1,26,0,0,0,0,-163003.30163748687,-4785430.368135299,4203992.685026646,-2.36559,-0.397301,0.382249,76.125,-31.875,-33.0,0.0,0.0,0.0,0.0,0.0,0.0,2,0,41.47357900643401,-91.95087819021283,10000.001443908995,119.85546265067548,-0.0013361675777312,0.0050413071847522,,8736.853420967655,11026.390928219933,150,11,2025-09-16,2025-09-26 14:47:50.169,HA,C,3102462132,AMBUSH51,1,1,48,2,1,1,225,2,1,0,0,9,1,225,2,1,-146640.89690439086,-4791904.410954811,4196685.185102078,2.3641,2.77933,-0.389558,-106.319,38.6459,44.6604,-0.0697877,-7.57846,6.70526,0.00124107,-0.00116617,0.000564881,4,0,41.388883555535166,-91.752806929802,8751.417920959766,-61.03721595737577,1.438396661188461,0.6533531498600612,195.453,8736.853420967655,11026.390928219933,150,True,10.252451542951379,False,177.4373588379476,178.70589113274397,False,1.8020681362281208,True,False
11,1970-07-23 11:25:40.713274131,2025-09-16,2025-09-26 14:47:51.327,HA,C,3068751290,JASSM,3,113,76,2,2,1,225,9,2,0,1,26,0,0,0,0,-162923.34997733062,-4785463.920869674,4203957.823698521,-2.36559,-0.397205,0.382249,76.125,-31.875,-33.0,0.0,0.0,0.0,0.0,0.0,0.0,2,0,41.4731602884303,-91.94990837968876,9999.997463708738,119.85246704722078,-0.0040671728959033,0.0029910429052018,,8736.853420967655,11026.390928219933,150,11,2025-09-16,2025-09-26 14:47:51.135,HA,C,3103615364,AMBUSH51,1,1,48,2,1,1,225,2,1,0,0,9,1,225,2,1,-146742.59727442573,-4791867.15617555,4196727.983737761,2.37035,2.7809,-0.393476,-106.023,38.5188,44.9587,-0.208576,-7.46617,6.81735,0.00670472,0.00527327,0.000976839,4,0,41.389375615734274,-91.7540354292397,8760.259677108652,-60.9372957684891,1.656671858280161,1.0483372904894874,195.27,8736.853420967655,11026.390928219933,150,True,10.139582413133555,False,177.44186933773824,178.7029056591068,False,1.7184293101743169,True,False
11,1970-07-23 11:25:40.724318018,2025-09-16,2025-09-26 14:47:52.431,HA,C,3070062130,JASSM,3,113,76,2,2,1,225,9,2,0,1,26,0,0,0,0,-162839.70642264312,-4785499.024385299,4203921.352995396,-2.36559,-0.397205,0.382249,76.125,-31.75,-33.0,0.0,0.0,0.0,0.0,0.0,0.0,2,0,41.47272222086493,-91.94889379940508,10000.00249142082,119.85313896961748,-0.0031897936103488,0.0029895077703863,,8736.853420967655,11026.390928219933,150,11,2025-09-16,2025-09-26 14:47:52.302,HA,C,3105007196,AMBUSH51,1,1,48,2,1,1,225,2,1,0,0,9,1,225,2,1,-146866.7124266284,-4791822.052072327,4196780.3138142,2.36925,2.78204,-0.40082,-105.686,38.3686,45.0772,-0.137176,-7.49926,6.80991,-0.000271518,0.0017529,0.00512763,4,0,41.389974622550405,-91.75553458149142,8772.163214979439,-60.68174602229634,1.9970331502929857,1.0189116784015015,195.233,8736.853420967655,11026.390928219933,150,True,10.010643044445603,False,177.5054931787767,178.76712359881205,False,1.685464911058805,True,False
11,1970-07-23 11:25:40.735333262,2025-09-16,2025-09-26 14:47:53.533,HA,C,3071375552,JASSM,3,113,76,2,2,1,225,9,2,0,1,26,0,0,0,0,-162755.89782889312,-4785534.194307174,4203884.808073521,-2.36559,-0.397205,0.382345,76.125,-31.75,-33.0,0.0,0.0,0.0,0.0,0.0,0.0,2,0,41.4722832817267,-91.94787723209376,10000.00053039091,119.85765959630744,-0.0062314729772692,0.0029876838907673,,8736.853420967655,11026.390928219933,150,11,2025-09-16,2025-09-26 14:47:53.701,HA,C,3106677394,AMBUSH51,1,1,48,2,1,1,225,2,1,0,0,9,1,225,2,1,-147014.2772315676,-4791768.238871754,4196843.174548264,2.32238,2.78338,-0.406165,-105.272,38.2316,45.1694,-0.196026,-7.41335,6.71719,-0.236931,0.00549589,-0.00409981,4,0,41.39069223691654,-91.75731707781544,8787.26459850994,-60.51495385406346,2.26426581927303,-1.629953595737909,195.038,8736.853420967655,11026.390928219933,150,True,9.86700875271987,False,177.50775810198044,178.76652149009024,False,1.643152153450463,True,False
11,1970-07-23 11:25:40.745975616,2025-09-16,2025-09-26 14:47:54.597,HA,C,3072629016,JASSM,3,113,76,2,2,1,225,9,2,0,1,26,0,0,0,0,-162675.91491873687,-4785567.756807174,4203849.931120396,-2.36559,-0.397205,0.382345,76.125,-31.75,-33.0,0.0,0.0,0.0,0.0,0.0,0.0,2,0,41.47186438112392,-91.94690708251164,9999.997871073769,119.8583020827892,-0.0053924990416429,0.0029862819165927,,8736.853420967655,11026.390928219933,150,11,2025-09-16,2025-09-26 14:47:54.670,HA,C,3107830626,AMBUSH51,1,1,48,2,1,1,225,2,1,0,0,9,1,225,2,1,-147115.7028695549,-4791731.684223283,4196886.037536636,2.08786,2.77525,-0.409733,-105.755,37.6332,44.2295,0.198846,-7.12758,6.45652,-0.177216,0.00139088,-0.00313025,4,0,41.39118056742357,-91.75854210258063,8797.973221160697,-60.0691819564304,2.1058203626157046,-15.234594535655637,195.306,8736.853420967655,11026.390928219933,150,False,9.754364904874784,False,177.14790449558672,178.7646759927015,False,2.1659895243200986,True,False
11,1970-07-23 11:25:40.756418061,2025-09-16,2025-09-26 14:47:55.641,HA,C,3073941264,JASSM,3,113,76,2,2,1,225,9,2,0,1,26,0,0,0,0,-162592.18103201812,-4785602.893525924,4203813.417448521,-2.36559,-0.397205,0.382345,76.125,-31.75,-33.0,0.0,0.0,0.0,0.0,0.0,0.0,2,0,41.47142581774612,-91.94589144889564,9999.998105313014,119.85897468558744,-0.004514175098406,0.0029848066456176,,8736.853420967655,11026.390928219933,150,11,2025-09-16,2025-09-26 14:47:55.536,HA,C,3108864558,AMBUSH51,1,1,48,2,1,1,225,2,1,0,0,9,1,225,2,1,-147207.82812244195,-4791699.554833259,4196923.860055717,2.03999,2.7984,-0.389185,-106.746,36.3137,42.8203,-0.283616,-7.98069,7.20825,-0.0400962,0.0170432,-0.0541027,4,0,41.39161022832516,-91.75965441764949,8807.9383297893,-61.76741683645202,2.149273677314111,-17.524464673152075,195.575,8736.853420967655,11026.390928219933,150,False,9.645507888296697,False,176.27146193518274,178.76263723418162,False,3.1911874041576396,True,False
11,1970-07-23 11:25:40.767995122,2025-09-16,2025-09-26 14:47:56.799,HA,C,3075253336,JASSM,3,113,76,2,2,1,225,9,2,0,1,26,0,0,0,0,-162508.45837576812,-4785638.024385299,4203776.907682896,-2.36559,-0.397205,0.382345,76.125,-31.75,-33.0,0.0,0.0,0.0,0.0,0.0,0.0,2,0,41.47098730433844,-91.94487596565082,9999.998290275882,119.859647182956,-0.0036359692663398,0.0029833314883307,,8736.853420967655,11026.390928219933,150,11,2025-09-16,2025-09-26 14:47:56.768,HA,C,3110335924,AMBUSH51,1,1,48,2,1,1,225,2,1,0,0,9,1,225,2,1,-147341.11868985769,-4791656.414769469,4196975.175615657,1.93837,2.84497,-0.359256,-108.49,32.9119,40.2434,-0.0488015,-8.03842,7.38935,-0.0569677,0.0090974,-0.0117439,4,0,41.39218894835322,-91.76126255531442,8823.20571256942,-64.72963328616409,2.7472939572993966,-22.49784170023773,194.732,8736.853420967655,11026.390928219933,150,False,9.51286914005317,False,174.15239020863993,178.76433976590397,False,5.412219195920161,True,False
11,1970-07-23 11:25:40.778454969,2025-09-16,2025-09-26 14:47:57.845,HA,C,3076564232,JASSM,3,113,76,2,2,1,225,9,2,0,1,26,0,0,0,0,-162424.81042654935,-4785673.122041549,4203740.431120396,-2.36559,-0.397205,0.382345,76.125,-31.75,-33.125,0.0,0.0,0.0,0.0,0.0,0.0,2,0,41.47054918850216,-91.94386140295896,10000.000188985396,119.86031906485532,-0.0027585550936982,0.0029818705657433,,8736.853420967655,11026.390928219933,150,11,2025-09-16,2025-09-26 14:47:57.869,HA,C,3111648222,AMBUSH51,1,1,48,2,1,1,225,2,1,0,0,9,1,225,2,1,-147460.57339088782,-4791622.135909855,4197017.103307666,1.90013,2.87772,-0.324685,-110.021,30.2872,36.8407,-0.0816747,-7.6671,6.97773,-0.0159426,0.0145943,-0.0548892,4,0,41.392654082951374,-91.7627021754225,8838.870943386295,-67.38710151060019,2.6760895819891988,-24.18529316093299,194.805,8736.853420967655,11026.390928219933,150,False,9.39024294740398,False,172.1046912649748,178.8178903801061,False,7.583367628683846,True,False
11,1970-07-23 11:25:40.789990770,2025-09-16,2025-09-26 14:47:58.999,HA,C,3077818274,JASSM,3,113,76,2,2,1,225,9,2,0,1,26,0,0,0,0,-162344.79089529935,-4785706.698213424,4203705.532682896,-2.36559,-0.397205,0.382345,76.125,-31.75,-33.125,0.0,0.0,0.0,0.0,0.0,0.0,2,0,41.47013003499303,-91.94289086160435,9999.999981313902,119.86096178869512,-0.001919183727222,0.0029804440459919,,8736.853420967655,11026.390928219933,150,11,2025-09-16,2025-09-26 14:47:58.902,HA,C,3112880988,AMBUSH51,1,1,48,2,1,1,225,2,1,0,0,9,1,225,2,1,-147575.76020087453,-4791591.948471032,4197053.4463805305,1.84497,2.90843,-0.287849,-111.503,27.6882,33.343,-0.0224681,-7.70281,7.06775,-0.0448566,0.0137829,-0.0174551,4,0,41.39305793705677,-91.76408932327084,8852.171828685077,-70.07899612516803,2.47205087628639,-26.93592878921982,194.084,8736.853420967655,11026.390928219933,150,False,9.273780934451084,False,170.00391388846836,178.81960623527542,False,9.811919544298407,True,False
11,1970-07-23 11:25:40.800338476,2025-09-16,2025-09-26 14:48:00.033,HA,C,3079129282,JASSM,3,113,76,2,2,1,225,9,2,0,1,26,0,0,0,0,-162261.13611014312,-4785741.795869674,4203669.050261021,-2.36559,-0.397205,0.382345,76.125,-31.75,-33.125,0.0,0.0,0.0,0.0,0.0,0.0,2,0,41.46969186345184,-91.94187624389696,9999.998191732297,119.86163369560872,-0.001041697317132,0.0029789804766269,,8736.853420967655,11026.390928219933,150,11,2025-09-16,2025-09-26 14:48:00.036,HA,C,3114233052,AMBUSH51,1,1,48,2,1,1,225,2,1,0,0,9,1,225,2,1,-147702.30272066483,-4791562.735639731,4197088.446931874,1.83047,2.94251,-0.256125,-113.039,24.2977,29.4383,-0.10915,-7.99688,7.37966,-0.000876971,0.0165771,-0.0356978,4,0,41.393444830017565,-91.7656117862458,8865.826942924501,-72.69320274024756,2.634963358568322,-27.358764750557604,194.194,8736.853420967655,11026.390928219933,150,False,9.150283259875746,False,167.45897001159645,178.81643170303875,False,12.476299474750281,True,False
11,1970-07-23 11:25:40.811994745,2025-09-16,2025-09-26 14:48:01.199,HA,C,3080441634,JASSM,3,113,76,2,2,1,225,9,2,0,1,26,0,0,0,0,-162177.39538748687,-4785776.930635299,4203632.528776646,-2.36559,-0.397109,0.382345,76.125,-31.75,-33.125,0.0,0.0,0.0,0.0,0.0,0.0,2,0,41.46925321582274,-91.94086059714316,10000.000467902462,119.85866866517044,-0.0037329494068121,0.0009281361510467,,8736.853420967655,11026.390928219933,150,11,2025-09-16,2025-09-26 14:48:01.202,HA,C,3115624884,AMBUSH51,1,1,48,2,1,1,225,2,1,0,0,9,1,225,2,1,-147835.52354888798,-4791536.04836581,4197119.873453966,1.79972,2.97677,-0.2074,-114.35,21.2381,24.6803,-0.0795375,-7.97875,7.17377,-0.0165917,0.0244459,-0.0302654,4,0,41.393791322638485,-91.76721311575324,8878.457766961057,-76.04942274665427,2.1832490511136067,-28.81011367937504,193.51,8736.853420967655,11026.390928219933,150,False,9.024899817631473,False,164.77030974170714,178.80174973012495,False,15.332418945002283,True,False
11,1970-07-23 11:25:40.821395842,2025-09-16,2025-09-26 14:48:02.139,HA,C,3081694332,JASSM,3,113,76,2,2,1,225,9,2,0,1,26,0,0,0,0,-162097.46081717435,-4785810.465791549,4203597.667448521,-2.36559,-0.397109,0.382345,76.125,-31.75,-33.125,0.0,0.0,0.0,0.0,0.0,0.0,2,0,41.46883451430868,-91.93989112704722,10000.00108018902,119.85931066318564,-0.0028944866614803,0.0009266850364569,,8736.853420967655,11026.390928219933,150,11,2025-09-16,2025-09-26 14:48:02.135,HA,C,3116738350,AMBUSH51,1,1,48,2,1,1,225,2,1,0,0,9,1,225,2,1,-147941.76944527775,-4791517.795523247,4197140.895419601,1.79604,3.00618,-0.176303,-115.256,18.1517,21.2497,-0.0485274,-8.22811,7.42364,0.00744541,0.0222759,-0.04892,4,0,41.39402232689508,-91.76848909642855,8887.226881523446,-78.48287696233437,2.22943583386726,-28.793622113843902,193.547,8736.853420967655,11026.390928219933,150,False,8.918073162673359,False,162.5126023939177,178.77610734660018,False,17.70543543161782,True,False
11,1970-07-23 11:25:40.831585828,2025-09-16,2025-09-26 14:48:03.158,HA,C,3082887728,JASSM,3,113,76,2,2,1,225,9,2,0,1,26,0,0,0,0,-162021.31091483062,-4785842.413057174,4203564.454557896,-2.36559,-0.397109,0.382441,76.125,-31.75,-33.125,0.0,0.0,0.0,0.0,0.0,0.0,2,0,41.46843561558803,-91.9389675701664,10000.000933352934,119.86376978715776,-0.0060163654735394,0.0009250181789722,,8736.853420967655,11026.390928219933,150,11,2025-09-16,2025-09-26 14:48:03.302,HA,C,3118130182,AMBUSH51,1,1,48,2,1,1,225,2,1,0,0,9,1,225,2,1,-148077.7779400269,-4791498.8480930375,4197162.211642839,1.79269,3.03965,-0.133287,-116.315,14.3607,16.2991,-0.116178,-8.0295,7.57514,0.0003485,0.020318,-0.0330034,4,0,41.39425396449373,-91.77012089710836,8897.1943352242,-81.58701662997912,2.010983112630142,-28.80481997073965,193.168,8736.853420967655,11026.390928219933,150,False,8.799834744549981,False,159.4858778118211,178.7229453343956,False,20.91669304183679,True,False
11,1970-07-23 11:25:40.841314175,2025-09-16,2025-09-26 14:48:04.131,HA,C,3084081346,JASSM,3,113,76,2,2,1,225,9,2,0,1,26,0,0,0,0,-161945.14636404935,-4785874.366182174,4203531.233854771,-2.36559,-0.397109,0.382441,76.125,-31.75,-33.125,0.0,0.0,0.0,0.0,0.0,0.0,2,0,41.46803662479342,-91.93804384706846,10000.001063053662,119.8643814811012,-0.0052174368910249,0.0009236701517454,,8736.853420967655,11026.390928219933,150,11,2025-09-16,2025-09-26 14:48:04.035,HA,C,3119005048,AMBUSH51,1,1,48,2,1,1,225,2,1,0,0,9,1,225,2,1,-148162.48459734616,-4791489.253697507,4197172.920249949,1.80742,3.06055,-0.112033,-116.779,11.8635,13.6872,-0.038537,-8.07264,7.34554,0.0273463,0.0224527,-0.0253302,4,0,41.39436776129868,-91.77113637947792,8903.264913192015,-83.28834797869348,2.095857776008012,-27.874991585132125,192.972,8736.853420967655,11026.390928219933,150,False,8.709119638175894,False,157.72243262903046,178.67252126670905,False,22.794397099921763,True,False
11,1970-07-23 11:25:40.851353597,2025-09-16,2025-09-26 14:48:05.135,HA,C,3085275368,JASSM,3,113,76,2,2,1,225,9,2,0,1,26,0,0,0,0,-161868.95593436187,-4785906.327119674,4203498.003386021,-2.36559,-0.397109,0.382441,76.125,-31.75,-33.125,0.0,0.0,0.0,0.0,0.0,0.0,2,0,41.46763751937882,-91.93711982267504,10000.001094018306,119.8649933697208,-0.0044182517365126,0.0009223458002257,,8736.853420967655,11026.390928219933,150,11,2025-09-16,2025-09-26 14:48:05.269,HA,C,3120476412,AMBUSH51,1,1,48,2,1,1,225,2,1,0,0,9,1,225,2,1,-148307.2503824174,-4791476.501233492,4197185.353972234,1.78982,3.07546,-0.0697171,-117.457,9.19221,8.12861,-0.0270172,-7.09838,6.46623,0.00324261,0.0126386,-0.0402585,4,0,41.3945009263836,-91.7728705232927,8909.885035928193,-85.6710045191496,1.1304928201531268,-28.872950787540947,192.594,8736.853420967655,11026.390928219933,150,False,8.590040154562276,False,154.86022924848598,178.55667581743998,False,25.922015175753963,True,False
11,1970-07-23 11:25:40.862359948,2025-09-16,2025-09-26 14:48:06.235,HA,C,3086585824,JASSM,3,113,76,2,2,1,225,9,2,0,1,26,0,0,0,0,-161785.33630545562,-4785941.405244674,4203461.528776646,-2.36549,-0.397109,0.382441,76.125,-31.75,-33.125,0.0,0.0,0.0,0.0,0.0,0.0,2,0,41.46719945868512,-91.9361057109841,9999.999154346484,119.86566490854524,-0.0035411238962888,0.0064123379309754,,8736.853420967655,11026.390928219933,150,11,2025-09-16,2025-09-26 14:48:06.269,HA,C,3121669412,AMBUSH51,1,1,48,2,1,1,225,2,1,0,0,9,1,225,2,1,-148425.06701235,-4791468.130116246,4197190.87098036,1.79467,3.08758,-0.0304442,-117.885,7.4617,3.76541,-0.079144,-6.80944,6.16481,0.0285385,0.00944486,-0.0479567,4,0,41.39456626980469,-91.77428110576083,8910.235154179523,-87.81842273626289,0.163173785131182,-28.584458276524643,192.63,8736.853420967655,11026.390928219933,150,False,8.48098863508476,False,152.7150184596614,178.4265660924375,False,28.302688365919895,True,False
11,1970-07-23 11:25:40.872390873,2025-09-16,2025-09-26 14:48:07.239,HA,C,3087780426,JASSM,3,113,76,2,2,1,225,9,2,0,1,26,0,0,0,0,-161709.10876639312,-4785973.379854049,4203428.280729771,-2.36549,-0.397109,0.382441,76.125,-31.75,-33.125,0.0,0.0,0.0,0.0,0.0,0.0,2,0,41.46680014514007,-91.935181261087,10000.00005640637,119.86627706877157,-0.0027415508142943,0.0064110142230863,,8736.853420967655,11026.390928219933,150,11,2025-09-16,2025-09-26 14:48:07.234,HA,C,3122822644,AMBUSH51,1,1,48,2,1,1,225,2,1,0,0,9,1,225,2,1,-148539.53716817973,-4791461.901808693,4197192.318000106,1.80396,3.11798,0.00214471,-118.174,5.0098,-0.154075,-0.0700045,-7.93934,7.21403,0.00402907,0.0196793,-0.0410012,4,0,41.394591987389,-91.77565091904964,8906.779041538679,-90.37164147581537,0.2357823524477138,-28.036626718004086,193.058,8736.853420967655,11026.390928219933,150,False,8.379489697109177,False,150.49694306325347,178.27184297140613,False,30.746602598820168,False,False
11,1970-07-23 11:25:40.883412287,2025-09-16,2025-09-26 14:48:08.341,HA,C,3089033226,JASSM,3,113,76,2,2,1,225,9,2,0,1,26,0,0,0,0,-161629.16784842435,-4786006.913057174,4203393.409636021,-2.36549,-0.397109,0.382441,76.125,-31.75,-33.125,0.0,0.0,0.0,0.0,0.0,0.0,2,0,41.466381342638975,-91.93421178896196,10000.000406688168,119.86691903700071,-0.0019030124394317,0.006409601319467,,8736.853420967655,11026.390928219933,150,11,2025-09-16,2025-09-26 14:48:08.335,HA,C,3124134942,AMBUSH51,1,1,48,2,1,1,225,2,1,0,0,9,1,225,2,1,-148670.34669906393,-4791458.399934594,4197188.708064277,1.81885,-3.14,0.0385885,-118.319,1.6633,-4.48307,-0.0861481,-7.84881,7.12307,0.0229084,0.00861262,-0.0410616,4,0,41.39456431208562,-91.777214920063,8900.313167966093,-92.89395153852328,-0.0610511601988733,-27.216428900258578,193.51,8736.853420967655,11026.390928219933,150,False,8.269986696235529,False,147.85069495717966,178.06031235687794,False,33.66509704421448,False,False
11,1970-07-23 11:25:40.893351085,2025-09-16,2025-09-26 14:48:09.335,HA,C,3090285816,JASSM,3,113,76,2,2,1,225,9,2,0,1,26,0,0,0,0,-161549.24011404935,-4786040.438447799,4203358.544401646,-2.36549,-0.397013,0.382441,76.125,-31.75,-33.125,0.0,0.0,0.0,0.0,0.0,0.0,2,0,41.46596261533193,-91.93324249011444,9999.999870355736,119.86392354085132,-0.0046342619464509,0.0043584046241894,,8736.853420967655,11026.390928219933,150,11,2025-09-16,2025-09-26 14:48:09.341,HA,C,3125327942,AMBUSH51,1,1,48,2,1,1,225,2,1,0,0,9,1,225,2,1,-148787.79362775976,-4791458.1152154775,4197181.873085107,1.83992,-3.11598,0.0705925,-118.268,-1.07957,-8.37838,-0.022818,-7.58895,7.07838,0.0180148,0.00579134,-0.0353275,4,0,41.39449817236879,-91.77861809242236,8893.753042905124,-95.17855525802992,-0.2446876267705235,-26.078334881915357,193.742,8736.853420967655,11026.390928219933,150,False,8.168044031441974,False,145.55722289424264,177.84066965745467,False,36.22825924808386,False,False
11,1970-07-23 11:25:40.906453162,2025-09-16,2025-09-26 14:48:10.645,HA,C,3091536966,JASSM,3,113,76,2,2,1,225,9,2,0,1,26,0,0,0,0,-161469.40466483062,-4786073.924775924,4203323.718229771,-2.36549,-0.397013,0.382441,76.125,-31.75,-33.125,0.0,0.0,0.0,0.0,0.0,0.0,2,0,41.465544357367705,-91.93227432302017,10000.000350408538,119.8645646343594,-0.0037968347111677,0.0043569472119985,,8736.853420967655,11026.390928219933,150,11,2025-09-16,2025-09-26 14:48:10.641,HA,C,3126878840,AMBUSH51,1,1,48,2,1,1,225,2,1,0,0,9,1,225,2,1,-148941.3593089416,-4791461.692955719,4197167.139179879,1.86704,-3.09033,0.108486,-118.04,-4.40632,-13.1434,-0.0122911,-7.63621,6.91301,0.025557,0.0197958,-0.0398923,4,0,41.3943490309918,-91.78045131613769,8882.327309762763,-97.77563807389572,-0.5878396779782281,-24.63710696384993,194.317,8736.853420967655,11026.390928219933,150,False,8.052572789523959,False,142.76424851556578,177.51555106020868,False,39.401538070315915,False,False
11,1970-07-23 11:25:40.914411617,2025-09-16,2025-09-26 14:48:11.441,HA,C,3092789664,JASSM,3,113,76,2,2,1,225,9,2,0,1,26,0,0,0,0,-161389.47009451812,-4786107.452119674,4203288.847136021,-2.36549,-0.397013,0.382441,76.125,-31.75,-33.125,0.0,0.0,0.0,0.0,0.0,0.0,2,0,41.46512556389986,-91.93130496657396,10000.000282465988,119.86520651009656,-0.0029583638484937,0.0043554809206093,,8736.853420967655,11026.390928219933,150,11,2025-09-16,2025-09-26 14:48:11.307,HA,C,3127674172,AMBUSH51,1,1,48,2,1,1,225,2,1,0,0,9,1,225,2,1,-149020.00979483142,-4791465.207457287,4197157.236795912,1.89186,-3.07552,0.127974,-117.898,-6.2197,-15.2384,-0.196516,-7.65474,6.95456,0.0456576,0.012237,-0.0437955,4,0,41.39424672049032,-91.7813895959631,8875.506614258587,-99.1705642273243,-0.6996861133668115,-23.2992619574351,194.585,8736.853420967655,11026.390928219933,150,False,7.969883775421676,False,141.43112528809968,177.3237721980661,False,40.944836455029446,False,False
11,1970-07-23 11:25:40.924458185,2025-09-16,2025-09-26 14:48:12.445,HA,C,3093982712,JASSM,3,113,76,2,2,1,225,9,2,0,1,26,0,0,0,0,-161313.34167654935,-4786139.379854049,4203255.636198521,-2.36549,-0.397013,0.382441,76.125,-31.75,-33.125,0.0,0.0,0.0,0.0,0.0,0.0,2,0,41.4647267211775,-91.930381779735,9999.996017460677,119.86581780889202,-0.0021598268082098,0.0043540988198469,,8736.853420967655,11026.390928219933,150,11,2025-09-16,2025-09-26 14:48:12.275,HA,C,3128827404,AMBUSH51,1,1,48,2,1,1,225,2,1,0,0,9,1,225,2,1,-149134.72530646776,-4791472.236899219,4197140.332729056,1.93019,-3.05755,0.152864,-117.646,-8.52833,-18.3884,0.00691405,-7.73178,6.82082,0.0341665,0.0149688,-0.0199123,4,0,41.39406954408427,-91.78275741024808,8864.907616610775,-100.91463376461124,-0.8875791637862208,-21.223142797007736,195.27,8736.853420967655,11026.390928219933,150,False,7.875825881634911,False,139.560858277837,177.0318002435116,False,43.136515534628465,False,False
11,1970-07-23 11:25:40.934512325,2025-09-16,2025-09-26 14:48:13.451,HA,C,3095175808,JASSM,3,113,76,2,2,1,225,9,2,0,1,26,0,0,0,0,-161237.21032889312,-4786171.309541549,4203222.425261021,-2.36549,-0.397013,0.382536,76.125,-31.75,-33.125,0.0,0.0,0.0,0.0,0.0,0.0,2,0,41.46432785997405,-91.92945856839164,10000.000377853225,119.87027679566076,-0.0052817720666635,0.0043524974203657,,8736.853420967655,11026.390928219933,150,11,2025-09-16,2025-09-26 14:48:13.307,HA,C,3130060170,AMBUSH51,1,1,48,2,1,1,225,2,1,0,0,9,1,225,2,1,-149255.33331867776,-4791482.091630452,4197119.580151787,1.97067,-3.0378,0.173579,-117.318,-11.1048,-20.9313,-0.235777,-7.87849,7.285,0.0317218,0.0189241,-0.0296037,4,0,41.39384846934277,-91.78419456044148,8853.368444671905,-102.54456533233989,-0.8481210855432808,-19.06319773556501,195.942,8736.853420967655,11026.390928219933,150,False,7.7808272969509344,False,137.83251047978027,176.70106385700717,False,45.213617320166584,False,False
11,1970-07-23 11:25:40.944553854,2025-09-16,2025-09-26 14:48:14.455,HA,C,3096370628,JASSM,3,113,76,2,2,1,225,9,2,0,1,26,0,0,0,0,-161160.96862967435,-4786203.286104049,4203189.163542271,-2.36549,-0.397013,0.382536,76.125,-31.75,-33.125,0.0,0.0,0.0,0.0,0.0,0.0,2,0,41.46392839181932,-91.92853402996477,10000.004539963886,119.87088897982892,-0.0044820377453477,0.0043511523234264,,8736.853420967655,11026.390928219933,150,11,2025-09-16,2025-09-26 14:48:14.341,HA,C,3131292934,AMBUSH51,1,1,48,2,1,1,225,2,1,0,0,9,1,225,2,1,-149377.01940274934,-4791494.608060589,4197096.06102321,2.01347,-3.01632,0.193501,-116.885,-13.5312,-23.2246,-0.0544461,-7.79042,7.12059,0.0336692,0.0148482,-0.0254758,4,0,41.39359266464482,-91.78564359005338,8842.465864020838,-104.20405555887076,-0.7133984438329896,-16.813006303011534,196.59,8736.853420967655,11026.390928219933,150,False,7.686760018743552,False,136.23667723571742,176.34381125200386,False,47.18172611052507,False,False
11,1970-07-23 11:25:40.955388628,2025-09-16,2025-09-26 14:48:15.538,HA,C,3097623348,JASSM,3,113,76,2,2,1,225,9,2,0,1,26,0,0,0,0,-161081.03259451812,-4786236.807588424,4203154.288542271,-2.36549,-0.397013,0.382536,76.125,-31.75,-33.125,0.0,0.0,0.0,0.0,0.0,0.0,2,0,41.4635095755631,-91.92756470649653,9999.998776516117,119.87153081325488,-0.0036435611076556,0.004349755529892,,8736.853420967655,11026.390928219933,150,11,2025-09-16,2025-09-26 14:48:15.406,HA,C,3132565466,AMBUSH51,1,1,48,2,1,1,225,2,1,0,0,9,1,225,2,1,-149500.83142060856,-4791509.734920654,4197069.998339941,2.2735,-2.99968,0.211535,-116.709,-15.3425,-24.5878,-0.326995,-7.41642,6.76724,0.374242,0.0033508,-0.0218993,4,0,41.39330374563265,-91.7871170335347,8832.638297878013,-105.59760034466404,-0.71635175280663,-2.089019939618463,197.188,8736.853420967655,11026.390928219933,150,True,7.590906104537208,False,135.18898024260676,175.9570155662825,False,48.62747519385737,False,False
11,1970-07-23 11:25:40.966411416,2025-09-16,2025-09-26 14:48:16.641,HA,C,3098934820,JASSM,3,113,76,2,2,1,225,9,2,0,1,26,0,0,0,0,-160997.34753592435,-4786271.903291549,4203117.776823521,-2.36549,-0.397013,0.382536,76.125,-31.75,-33.125,0.0,0.0,0.0,0.0,0.0,0.0,2,0,41.46307108847754,-91.92654993401403,10000.000263063434,119.87220273484289,-0.0027657493857618,0.0043482766388242,,8736.853420967655,11026.390928219933,150,11,2025-09-16,2025-09-26 14:48:16.613,HA,C,3133997066,AMBUSH51,1,1,48,2,1,1,225,2,1,0,0,9,1,225,2,1,-149641.1962865808,-4791527.451050594,4197039.539274903,2.44319,-3.00118,0.198991,-117.201,-15.2869,-23.9651,-0.213302,-8.06116,7.3204,0.0590005,0.00565818,0.0547561,4,0,41.39296664724908,-91.78878724105203,8820.923165708442,-105.01099210802622,-0.2928357834523803,7.646129068945759,197.078,8736.853420967655,11026.390928219933,150,True,7.48739057448882,False,135.4785017192596,175.5011943635553,False,48.80633755107024,False,False
11,1970-07-23 11:25:40.975428708,2025-09-16,2025-09-26 14:48:17.542,HA,C,3100068422,JASSM,3,113,76,2,2,1,225,9,2,0,1,26,0,0,0,0,-160925.01208670562,-4786302.237275924,4203086.218229771,-2.36549,-0.397013,0.382536,76.125,-31.75,-33.125,0.0,0.0,0.0,0.0,0.0,0.0,2,0,41.46269208334897,-91.9256727997029,10000.00357187726,119.87278351596534,-0.0020069995944335,0.0043470156098469,,8736.853420967655,11026.390928219933,150,11,2025-09-16,2025-09-26 14:48:17.440,HA,C,3134991230,AMBUSH51,1,1,48,2,1,1,225,2,1,0,0,9,1,225,2,1,-149739.87864187898,-4791539.784151342,4197019.293206976,2.46289,-3.02284,0.185142,-117.708,-14.7586,-22.8792,-0.123413,-7.31196,6.78448,-0.0175925,-0.00301166,0.00916398,4,0,41.39273825015191,-91.7899615029602,8814.926689401414,-103.60552808199336,-0.6607126617674302,8.99984637371659,197.799,8736.853420967655,11026.390928219933,150,True,7.406169872135603,False,136.07208835587952,175.16945408625307,False,48.550966956990784,False,False
11,1970-07-23 11:25:40.985468760,2025-09-16,2025-09-26 14:48:18.546,HA,C,3101262138,JASSM,3,113,76,2,2,1,225,9,2,0,1,26,0,0,0,0,-160848.84118826812,-4786334.178682174,4203052.983854771,-2.36549,-0.396918,0.382536,76.125,-31.75,-33.125,0.0,0.0,0.0,0.0,0.0,0.0,2,0,41.46229296427215,-91.92474916845347,10000.00330355063,119.86975800410367,-0.0047776486174051,0.0022954027123022,,8736.853420967655,11026.390928219933,150,11,2025-09-16,2025-09-26 14:48:18.507,HA,C,3136263762,AMBUSH51,1,1,48,2,1,1,225,2,1,0,0,9,1,225,2,1,-149865.18609974446,-4791554.260886032,4196995.11771709,2.4362,-3.01751,0.18864,-118.412,-13.781,-21.7723,-0.132676,-7.41293,6.78491,-0.017761,0.00657364,0.00242285,4,0,41.39246560609968,-91.7914530193778,8807.733219616353,-103.95627716081974,-0.5717738663074913,7.417603626966148,197.909,8736.853420967655,11026.390928219933,150,True,7.3126378611130125,False,136.82699527297004,174.7488034190562,False,48.229623922930664,False,False
11,1970-07-23 11:25:41.011189611,2025-09-16,2025-09-26 14:48:21.118,HA,C,3102512994,JASSM,3,113,76,2,2,1,225,9,2,0,1,26,0,0,0,0,-160769.02380545562,-4786367.647432174,4203018.157682896,-2.36549,-0.396918,0.382536,76.125,-31.75,-33.125,0.0,0.0,0.0,0.0,0.0,0.0,2,0,41.46187473563856,-91.92378133361484,10000.001337454669,119.8703988311529,-0.0039404161551028,0.0022939524509275,,8736.853420967655,11026.390928219933,150,11,2025-09-16,2025-09-26 14:48:21.008,HA,C,3139246260,AMBUSH51,1,1,48,2,1,1,225,2,1,0,0,9,1,225,2,1,-150162.3572388551,-4791585.131624768,4196942.808012545,2.41422,-3.03657,0.167005,-119.45,-11.9333,-19.3486,-0.198947,-7.21271,6.54054,-0.00904331,-0.00665478,0.00168216,4,0,41.39187344895085,-91.79499145423516,8793.0894029327,-102.3182163297672,-0.5361769477302479,6.335645107746381,198.765,8736.853420967655,11026.390928219933,150,True,7.153666864309061,False,138.3307527695645,173.77544772717712,False,47.72157963271194,False,False
11,1970-07-23 11:25:41.015448686,2025-09-16,2025-09-26 14:48:21.544,HA,C,3104781046,JASSM,3,113,76,2,2,1,225,9,2,0,1,26,0,0,0,0,-160624.29870779935,-4786428.331025924,4202955.009245396,-2.36549,-0.396918,0.382536,76.125,-31.75,-33.125,0.0,0.0,0.0,0.0,0.0,0.0,2,0,41.4611163833112,-91.9220264853649,10000.00086044822,119.87156074541792,-0.0024223452397385,0.0022913240194248,,8736.853420967655,11026.390928219933,150,11,2025-09-16,2025-09-26 14:48:21.374,HA,C,3139683692,AMBUSH51,1,1,48,2,1,1,225,2,1,0,0,9,1,225,2,1,-150206.9023757336,-4791589.398178658,4196935.384426142,2.40799,-3.0395,0.163828,-119.576,-11.546,-19.2212,-0.319063,-7.35086,6.51761,-0.0141678,-0.00787609,0.00670264,4,0,41.39178964227108,-91.79552198592812,8790.916266916298,-102.07273057532282,-0.5368509057236798,6.004263910072136,198.838,8736.853420967655,11026.390928219933,150,True,7.046828536233272,False,138.5040811095413,173.55256965354232,False,47.77593991462235,False,False
11,1970-07-23 11:25:41.016249011,2025-09-16,2025-09-26 14:48:21.624,HA,C,3103646388,JASSM,3,113,76,2,2,1,225,9,2,0,1,26,0,0,0,0,-160696.70153983062,-4786397.973604049,4202986.601042271,-2.36549,-0.396918,0.382536,76.125,-31.75,-33.125,0.0,0.0,0.0,0.0,0.0,0.0,2,0,41.46149576638509,-91.92290439232023,10000.00237416217,119.8709794707802,-0.0031817991859746,0.002292632640939,,8736.853420967655,11026.390928219933,150,11,2025-09-16,2025-09-26 14:48:21.740,HA,C,3140121126,AMBUSH51,1,1,48,2,1,1,225,2,1,0,0,9,1,225,2,1,-150249.97198475242,-4791593.401114769,4196928.433474414,2.4073,-3.0427,0.161309,-119.71,-11.2577,-18.9607,-0.118969,-7.41434,6.60091,0.00187566,-0.00621994,0.015258,4,0,41.39171086759386,-91.79603498873084,8789.007124091175,-101.84469356666952,-0.5745838836156838,5.992038212001104,198.838,8736.853420967655,11026.390928219933,150,True,7.076283410942794,False,138.69411741425301,173.45535585317702,False,47.68811570507539,False,False
11,1970-07-23 11:25:41.025611620,2025-09-16,2025-09-26 14:48:22.561,HA,C,3106033714,JASSM,3,113,76,2,2,1,225,9,2,0,1,26,0,0,0,0,-160544.36560233062,-4786461.846650924,4202920.130339146,-2.36549,-0.396918,0.382632,76.125,-31.75,-33.125,0.0,0.0,0.0,0.0,0.0,0.0,2,0,41.46069751998351,-91.92105728302698,10000.002572272942,119.87605028067718,-0.0055042691396961,0.0022896287046366,,8736.853420967655,11026.390928219933,150,11,2025-09-16,2025-09-26 14:48:22.441,HA,C,3140956224,AMBUSH51,1,1,48,2,1,1,225,2,1,0,0,9,1,225,2,1,-150333.76827097937,-4791601.007630479,4196915.032992676,2.41711,-3.04476,0.154823,-119.939,-10.8024,-18.44,-0.207619,-7.38561,6.63583,0.0255279,-0.0035006,0.0117148,4,0,41.39155950957888,-91.79703315241932,8785.116229169615,-101.49076965911304,-0.4124628670973993,6.569516722610352,199.144,8736.853420967655,11026.390928219933,150,True,6.950379134269966,False,139.0334077108152,173.09280013770925,False,47.715107788868885,False,False
11,1970-07-23 11:25:41.035449094,2025-09-16,2025-09-26 14:48:23.544,HA,C,3107167220,JASSM,3,113,76,2,2,1,225,9,2,0,1,26,0,0,0,0,-160472.03650076812,-4786492.172822799,4202888.567839146,-2.36549,-0.396918,0.382632,76.125,-31.75,-33.125,0.0,0.0,0.0,0.0,0.0,0.0,2,0,41.46031849173406,-91.92018029171524,10000.00172462882,119.87663093994966,-0.0047455798097778,0.0022883571808343,,8736.853420967655,11026.390928219933,150,11,2025-09-16,2025-09-26 14:48:23.474,HA,C,3142188990,AMBUSH51,1,1,48,2,1,1,225,2,1,0,0,9,1,225,2,1,-150458.72807905797,-4791611.535718598,4196896.166707412,2.43241,-3.04823,0.147537,-120.325,-10.088,-17.3474,-0.0560478,-7.3939,6.59801,0.0630493,0.00554374,0.0177235,4,0,41.39134617270554,-91.79852194509296,8779.738931244045,-101.050074626838,-0.2784513743490858,7.473266681557821,199.29,8736.853420967655,11026.390928219933,150,True,6.859343651546146,False,139.66286861108776,172.63576720958926,False,47.54663536661301,False,False
11,1970-07-23 11:25:41.050223669,2025-09-16,2025-09-26 14:48:25.022,HA,C,3108418574,JASSM,3,113,76,2,2,1,225,9,2,0,1,26,0,0,0,0,-160392.18737967435,-4786525.649385299,4202853.724089146,-2.36549,-0.396918,0.382632,76.125,-31.75,-33.125,0.0,0.0,0.0,0.0,0.0,0.0,2,0,41.45990006577241,-91.91921213297208,9999.999273991494,119.87727195645424,-0.0039080192547904,0.0022869681678023,,8736.853420967655,11026.390928219933,150,11,2025-09-16,2025-09-26 14:48:24.907,HA,C,3143898954,AMBUSH51,1,1,48,2,1,1,225,2,1,0,0,9,1,225,2,1,-150631.79165199472,-4791624.868044912,4196872.0731939785,2.4726,-3.06106,0.133683,-120.972,-8.61362,-15.6684,-0.0161101,-7.54184,6.62448,0.00392296,0.00528367,0.0270904,4,0,41.39107184893751,-91.80058430837092,8773.648966763452,-99.97437078898218,-0.2897652877671216,9.8741161109296,199.584,8736.853420967655,11026.390928219933,150,True,6.745901549708335,False,140.7450877360339,172.00459821289746,False,47.10499299432538,False,False
11,1970-07-23 11:25:41.063385274,2025-09-16,2025-09-26 14:48:26.338,HA,C,3109553222,JASSM,3,113,76,2,2,1,225,9,2,0,1,26,0,0,0,0,-160319.78503592435,-4786556.004854049,4202822.128386021,-2.36549,-0.396918,0.382632,76.125,-31.75,-33.125,0.0,0.0,0.0,0.0,0.0,0.0,2,0,41.45952063960484,-91.91833427567738,9999.99999422042,119.8778531799031,-0.0031485619357074,0.0022856951113686,,8736.853420967655,11026.390928219933,150,11,2025-09-16,2025-09-26 14:48:26.374,HA,C,3145648686,AMBUSH51,1,1,48,2,1,1,225,2,1,0,0,9,1,225,2,1,-150809.46963422175,-4791636.745782631,4196850.019200795,2.4753,-3.07443,0.114819,-121.456,-7.33794,-13.6641,-0.256589,-7.51351,6.76435,-0.0143967,0.00508393,0.00873538,4,0,41.390819047142585,-91.80270232435925,8768.777839370365,-98.66340545178063,-0.1353756618861475,10.118527418053766,199.73,8736.853420967655,11026.390928219933,150,False,6.635197117638033,False,141.8650925644573,171.3521722726529,False,46.63945159781436,False,False
11,1970-07-23 11:25:41.066567368,2025-09-16,2025-09-26 14:48:26.656,HA,C,3110806182,JASSM,3,113,76,2,2,1,225,9,2,0,1,26,0,0,0,0,-160239.83288748687,-4786589.522432174,4202787.237761021,-2.36549,-0.396918,0.382632,76.125,-31.75,-33.125,0.0,0.0,0.0,0.0,0.0,0.0,2,0,41.45910165818248,-91.91736489238528,9999.996572123177,119.87849499702124,-0.0023099211688039,0.0022843039503517,,8736.853420967655,11026.390928219933,150,11,2025-09-16,2025-09-26 14:48:26.740,HA,C,3146086120,AMBUSH51,1,1,48,2,1,1,225,2,1,0,0,9,1,225,2,1,-150853.21498817182,-4791639.22610743,4196845.126484893,2.46947,-3.07704,0.11013,-121.578,-6.9547,-13.1497,-0.187439,-7.49492,6.72107,-0.0247435,0.0124139,0.0219638,4,0,41.39076306762135,-91.80322395685856,8767.653795661667,-98.36414604235034,-0.0674053358689267,9.801014964420917,199.95,8736.853420967655,11026.390928219933,150,True,6.569201398709764,False,142.16894263128037,171.13876932903668,False,46.549249803074034,False,False
11,1970-07-23 11:25:41.079290168,2025-09-16,2025-09-26 14:48:27.929,HA,C,3111999518,JASSM,3,113,76,2,2,1,225,9,2,0,1,26,0,0,0,0,-160163.68591483062,-4786621.446260299,4202754.007292271,-2.36549,-0.396822,0.382632,76.125,-31.75,-33.125,0.0,0.0,0.0,0.0,0.0,0.0,2,0,41.4587025984173,-91.91644165613002,10000.000200513876,119.87546944911357,-0.0050808162844227,0.0002322243993591,,8736.853420967655,11026.390928219933,150,11,2025-09-16,2025-09-26 14:48:28.040,HA,C,3147637018,AMBUSH51,1,1,48,2,1,1,225,2,1,0,0,9,1,225,2,1,-151012.3828041224,-4791647.350414961,4196829.11867321,2.43809,-3.09447,0.0982718,-121.968,-7.76789,-10.0683,-0.256157,-7.33893,6.62252,-0.018071,-0.00523998,0.0105164,4,0,41.39057683692292,-91.80512225271404,8765.249789672685,-97.19762533084348,-0.3569286737173523,8.102250067184423,199.877,8736.853420967655,11026.390928219933,150,True,6.462501845994943,False,142.9977420171718,170.53115860373143,False,46.27767248068471,False,False
11,1970-07-23 11:25:41.087233231,2025-09-16,2025-09-26 14:48:28.723,HA,C,3113192564,JASSM,3,113,76,2,2,1,225,9,2,0,1,26,0,0,0,0,-160087.55847342435,-4786653.360322799,4202720.784636021,-2.36549,-0.396822,0.382632,76.125,-31.75,-33.125,0.0,0.0,0.0,0.0,0.0,0.0,2,0,41.458303638172914,-91.91551866862504,10000.002476729876,119.87608053842898,-0.0042822905868535,0.0002308431485289,,8736.853420967655,11026.390928219933,150,11,2025-09-16,2025-09-26 14:48:28.741,HA,C,3148472116,AMBUSH51,1,1,48,2,1,1,225,2,1,0,0,9,1,225,2,1,-151097.13021843077,-4791650.6472835615,4196820.703978494,2.42552,-3.09609,0.0940353,-122.188,-4.88996,-11.0043,-0.134507,-7.31593,6.66251,-0.0185995,-0.00145538,0.00348188,4,0,41.390484519490926,-91.80613336588556,8761.679479745182,-96.95546230724352,-0.2640960691991898,7.3898655735706225,199.914,8736.853420967655,11026.390928219933,150,True,6.383655739573863,False,143.5810294074828,170.16721969347856,False,46.12070419591243,False,False
11,1970-07-23 11:25:41.095432405,2025-09-16,2025-09-26 14:48:29.543,HA,C,3114325962,JASSM,3,113,76,2,2,1,225,9,2,0,1,26,0,0,0,0,-160015.23425467435,-4786683.678682174,4202689.220182896,-2.36549,-0.396822,0.382632,76.125,-31.75,-33.125,0.0,0.0,0.0,0.0,0.0,0.0,2,0,41.45792459992311,-91.91464180331816,10000.001785280898,119.87666108679264,-0.0035236571219559,0.0002295283980435,,8736.853420967655,11026.390928219933,150,11,2025-09-16,2025-09-26 14:48:29.440,HA,C,3149307216,AMBUSH51,1,1,48,2,1,1,225,2,1,0,0,9,1,225,2,1,-151182.69048792272,-4791653.814195587,4196813.0729913525,2.41113,-3.09841,0.0875518,-122.353,-4.39134,-10.2928,-0.0566338,-7.60732,6.57872,-0.00751199,0.00437653,0.00551462,4,0,41.39039810530181,-91.80715423549869,8759.55633652425,-96.5903319144427,-0.1159069577278797,6.576483014291876,200.17,8736.853420967655,11026.390928219933,150,True,6.306867669433745,False,143.98926613878183,169.79809876899347,False,46.08233096946442,False,False
11,1970-07-23 11:25:41.104488936,2025-09-16,2025-09-26 14:48:30.448,HA,C,3115458950,JASSM,3,113,76,2,2,1,225,9,2,0,1,26,0,0,0,0,-159942.93786795562,-4786713.983369674,4202657.667448521,-2.3654,-0.396822,0.382632,76.125,-31.75,-33.125,0.0,0.0,0.0,0.0,0.0,0.0,2,0,41.45754570988228,-91.913765286455,9999.998908267096,119.8772414000987,-0.0027653205759589,0.0057196937663113,,8736.853420967655,11026.390928219933,150,11,2025-09-16,2025-09-26 14:48:30.540,HA,C,3150619514,AMBUSH51,1,1,48,2,1,1,225,2,1,0,0,9,1,225,2,1,-151318.05110935657,-4791658.015350191,4196802.356197515,2.40152,-3.10219,0.0754664,-122.508,-3.82995,-8.9324,-0.202949,-7.5348,6.78523,-0.00954265,-9.25865e-05,0.00926801,4,0,41.39027534205621,-91.80876960233748,8757.155847689752,-95.9302671459216,0.1833992342279353,6.043618653114435,199.987,8736.853420967655,11026.390928219933,150,True,6.211436246215896,False,144.6419683055702,169.24644041163336,False,45.97586734887982,False,False
11,1970-07-23 11:25:41.114367418,2025-09-16,2025-09-26 14:48:31.436,HA,C,3116590942,JASSM,3,113,76,2,2,1,225,9,2,0,1,26,0,0,0,0,-159870.70495779935,-4786744.262666549,4202626.142057896,-2.3654,-0.396822,0.382632,76.125,-31.75,-33.125,0.0,0.0,0.0,0.0,0.0,0.0,2,0,41.45716713614056,-91.91288954888056,10000.00190784393,119.87782119310776,-0.0020076446682098,0.0057183799538142,,8736.853420967655,11026.390928219933,150,11,2025-09-16,2025-09-26 14:48:31.340,HA,C,3151573914,AMBUSH51,1,1,48,2,1,1,225,2,1,0,0,9,1,225,2,1,-151415.9477903016,-4791660.791899642,4196795.324404735,2.39674,-3.10414,0.0685315,-122.544,-3.42424,-8.14505,-0.112818,-7.56314,6.73597,0.00162598,-0.0028036,0.0138162,4,0,41.39019295358654,-91.8099379772158,8756.340936417322,-95.55957482028124,0.3642132590286601,5.779431591771497,200.439,8736.853420967655,11026.390928219933,150,True,6.130216805790419,False,145.0422779016945,168.81688090399462,False,46.00332365243546,False,False
11,1970-07-23 11:25:41.123629977,2025-09-16,2025-09-26 14:48:32.362,HA,C,3117666502,JASSM,3,113,76,2,2,1,225,9,2,0,1,26,0,0,0,0,-159802.07312186187,-4786773.030244674,4202596.186979771,-2.3654,-0.396822,0.382728,76.125,-31.75,-33.125,0.0,0.0,0.0,0.0,0.0,0.0,2,0,41.45680743343532,-91.91205748032898,9999.999863505258,119.88222002943016,-0.0052079781298326,0.0057169165897379,,8736.853420967655,11026.390928219933,150,11,2025-09-16,2025-09-26 14:48:32.507,HA,C,3152965746,AMBUSH51,1,1,48,2,1,1,225,2,1,0,0,9,1,225,2,1,-151558.35913859133,-4791664.292812452,4196785.929137915,2.38846,-3.11298,0.0616448,-122.722,-2.6919,-7.39291,-0.17105,-7.29196,6.41458,0.0111697,0.00718741,0.0144778,4,0,41.39008191296868,-91.81163782286878,8755.649404141888,-94.9302378823122,0.2487133351671203,5.3416696184716335,200.133,8736.853420967655,11026.390928219933,150,True,6.034808600572251,False,145.53541112047435,168.2189880197524,False,46.11352450359747,False,False
11,1970-07-23 11:25:41.132472670,2025-09-16,2025-09-26 14:48:33.247,HA,C,3118740324,JASSM,3,113,76,2,2,1,225,9,2,0,1,26,0,0,0,0,-159733.55163748687,-4786801.750947799,4202566.278776646,-2.3654,-0.396822,0.382728,76.125,-31.75,-33.125,0.0,0.0,0.0,0.0,0.0,0.0,2,0,41.45644829806053,-91.91122675906102,9999.996797043084,119.8827700109637,-0.0044892326754061,0.0057157171684842,,8736.853420967655,11026.390928219933,150,11,2025-09-16,2025-09-26 14:48:33.240,HA,C,3153840612,AMBUSH51,1,1,48,2,1,1,225,2,1,0,0,9,1,225,2,1,-151648.37818432425,-4791665.872261198,4196780.557044181,2.39156,-3.11488,0.0584518,-122.786,-2.08987,-6.90625,-0.16759,-7.27815,6.54695,0.00335288,-0.00895384,0.00182156,4,0,41.39001930507048,-91.81271254181192,8754.888507194151,-94.72190295253664,0.2893415209169251,5.5266703916073,200.353,8736.853420967655,11026.390928219933,150,True,5.959070007288199,False,145.89226007754567,167.802229576775,False,46.17860396283976,False,False
11,1970-07-23 11:25:41.142350627,2025-09-16,2025-09-26 14:48:34.235,HA,C,3119931738,JASSM,3,113,76,2,2,1,225,9,2,0,1,26,0,0,0,0,-159657.52673514312,-4786833.616182174,4202533.097136021,-2.3654,-0.396822,0.382728,76.125,-31.75,-33.125,0.0,0.0,0.0,0.0,0.0,0.0,2,0,41.456049842865234,-91.91030508092172,9999.999559832368,119.88338020618434,-0.0036917884428227,0.0057143986116944,,8736.853420967655,11026.390928219933,150,11,2025-09-16,2025-09-26 14:48:34.240,HA,C,3155033610,AMBUSH51,1,1,48,2,1,1,225,2,1,0,0,9,1,225,2,1,-151771.08168600505,-4791667.607071387,4196773.666635266,2.39335,-3.12214,0.0544792,-122.824,-1.24613,-6.41583,-0.188716,-6.98338,6.33164,0.0102251,-0.00041924,0.00080623,4,0,41.38993935427476,-91.81417762877722,8753.767006035885,-94.27714984977048,0.1300132898399574,5.654067390495031,200.317,8736.853420967655,11026.390928219933,150,True,5.86680384172697,False,146.32394433297668,167.24225793677235,False,46.316882982597356,False,False
11,1970-07-23 11:25:41.152388906,2025-09-16,2025-09-26 14:48:35.238,HA,C,3121125512,JASSM,3,113,76,2,2,1,225,9,2,0,1,26,0,0,0,0,-159581.35095389312,-4786865.543916549,4202499.847136021,-2.3654,-0.396822,0.382728,76.125,-31.75,-33.125,0.0,0.0,0.0,0.0,0.0,0.0,2,0,41.45565057695677,-91.90938158523169,9999.999134387825,119.883991599875,-0.0028927555090915,0.0057130664527989,,8736.853420967655,11026.390928219933,150,11,2025-09-16,2025-09-26 14:48:35.274,HA,C,3156266376,AMBUSH51,1,1,48,2,1,1,225,2,1,0,0,9,1,225,2,1,-151898.98401356634,-4791668.383054687,4196767.145486586,2.41487,-3.12818,0.0482592,-122.956,-0.333274,-5.71104,-0.287772,-7.31462,6.65089,0.0329056,0.00721862,0.011694,4,0,41.38986660083607,-91.81570517728942,8751.50085769433,-93.78257332700984,0.1085214303270595,6.90624478070517,200.317,8736.853420967655,11026.390928219933,150,True,5.77268152221998,False,146.8530050712777,166.6478191511767,False,46.39008968463608,False,False
11,1970-07-23 11:25:41.161430978,2025-09-16,2025-09-26 14:48:36.143,HA,C,3122257910,JASSM,3,113,76,2,2,1,225,9,2,0,1,26,0,0,0,0,-159509.09216483062,-4786895.829072799,4202468.306120396,-2.3654,-0.396822,0.382728,76.125,-31.75,-33.125,0.0,0.0,0.0,0.0,0.0,0.0,2,0,41.45527183457504,-91.90850558689898,9999.99881280042,119.88457154380664,-0.0021348093541459,0.0057118026177157,,8736.853420967655,11026.390928219933,150,11,2025-09-16,2025-09-26 14:48:36.140,HA,C,3157300308,AMBUSH51,1,1,48,2,1,1,225,2,1,0,0,9,1,225,2,1,-152006.44028934813,-4791668.458049156,4196762.160685728,2.43133,-3.13796,0.0429867,-123.202,0.375445,-4.97964,-0.19513,-7.40921,6.44771,0.0289504,-0.00423505,0.00471359,4,0,41.38981222828964,-91.8169887530948,8749.255490652537,-93.18633208316572,-0.1103429124911651,7.874745777571441,200.439,8736.853420967655,11026.390928219933,150,True,5.688766530808678,False,147.3294980715728,166.12335341281963,False,46.441388011640555,False,False
11,1970-07-23 11:25:41.171466593,2025-09-16,2025-09-26 14:48:37.146,HA,C,3123392730,JASSM,3,113,76,2,2,1,225,9,2,0,1,26,0,0,0,0,-159436.67907889312,-4786926.178682174,4202436.696745396,-2.3654,-0.396726,0.382728,76.125,-31.75,-33.125,0.0,0.0,0.0,0.0,0.0,0.0,2,0,41.454892271215854,-91.90762772832484,9999.999446484786,119.88151617719888,-0.0049448636587523,0.0036592891108802,,8736.853420967655,11026.390928219933,150,11,2025-09-16,2025-09-26 14:48:37.040,HA,C,3158374006,AMBUSH51,1,1,48,2,1,1,225,2,1,0,0,9,1,225,2,1,-152117.0213236395,-4791667.756117175,4196757.963449596,2.45024,3.13547,0.0337743,-123.355,1.08884,-3.91142,-0.185901,-7.29951,6.40956,0.0137392,0.00168216,0.00815489,4,0,41.38976719022355,-91.81830994795372,8747.05715609587,-92.42175548302984,-0.1791254026255488,8.977436091246462,200.952,8736.853420967655,11026.390928219933,150,True,5.603646282808847,False,147.9226164199731,165.57487458306764,False,46.39534562827892,False,False
11,1970-07-23 11:25:41.180350074,2025-09-16,2025-09-26 14:48:38.035,HA,C,3124525780,JASSM,3,113,76,2,2,1,225,9,2,0,1,26,0,0,0,0,-159364.37829764312,-4786956.479463424,4202405.136198521,-2.3654,-0.396726,0.382728,76.125,-31.75,-33.125,0.0,0.0,0.0,0.0,0.0,0.0,2,0,41.45451329897288,-91.90675124212414,9999.99900599486,119.88209643547104,-0.004186479347252,0.0036579792234814,,8736.853420967655,11026.390928219933,150,11,2025-09-16,2025-09-26 14:48:38.073,HA,C,3159606772,AMBUSH51,1,1,48,2,1,1,225,2,1,0,0,9,1,225,2,1,-152244.64672327,-4791666.244187904,4196754.569375079,2.44714,3.12704,0.0266216,-123.534,-0.178807,-1.18961,-0.126463,-7.33199,6.56007,-0.0112903,-0.00197136,0.00454298,4,0,41.38972915699062,-91.81983504911295,8745.946840653743,-91.79624637674225,-0.2688628349719278,8.812000893640441,200.916,8736.853420967655,11026.390928219933,150,True,5.512323745941056,False,148.46362452609895,164.94603716963493,False,46.412707590593016,False,False
11,1970-07-23 11:25:41.190050850,2025-09-16,2025-09-26 14:48:39.005,HA,C,3125599520,JASSM,3,113,76,2,2,1,225,9,2,0,1,26,0,0,0,0,-159295.86267264312,-4786985.192354049,4202375.227995396,-2.3654,-0.396726,0.382728,76.125,-31.75,-33.125,0.0,0.0,0.0,0.0,0.0,0.0,2,0,41.45415417049903,-91.90592065256136,9999.998274326066,119.88264630486456,-0.0034678038276938,0.0036567460259871,,8736.853420967655,11026.390928219933,150,11,2025-09-16,2025-09-26 14:48:39.007,HA,C,3160720238,AMBUSH51,1,1,48,2,1,1,225,2,1,0,0,9,1,225,2,1,-152359.19209623843,-4791663.291815743,4196752.086647295,2.44342,3.11853,0.0139958,-123.663,3.04935,-1.56622,-0.341143,-7.56589,6.72686,0.000200777,0.012984,0.0185932,4,0,41.38970829838268,-91.82120445083513,8742.254889009506,-90.9321365977822,-0.15516626595855,8.605459292335052,200.879,8736.853420967655,11026.390928219933,150,True,5.428161626514633,False,149.34042361715996,164.36203482546662,False,46.19372243388167,False,False
11,1970-07-23 11:25:41.200828901,2025-09-16,2025-09-26 14:48:40.082,HA,C,3126911882,JASSM,3,113,76,2,2,1,225,9,2,0,1,26,0,0,0,0,-159212.11950858062,-4787020.288057174,4202338.671354771,-2.3654,-0.396726,0.382728,76.125,-31.75,-33.125,0.0,0.0,0.0,0.0,0.0,0.0,2,0,41.45371520032853,-91.9049054770664,10000.002324690238,119.88331836907118,-0.0025893941344943,0.0036552237276747,,8736.853420967655,11026.390928219933,150,11,2025-09-16,2025-09-26 14:48:40.107,HA,C,3162032536,AMBUSH51,1,1,48,2,1,1,225,2,1,0,0,9,1,225,2,1,-152495.38290653378,-4791659.349475953,4196750.756915569,2.43623,3.10931,0.00550235,-123.81,3.98305,-0.25814,-0.0922664,-7.51893,6.6193,-0.0038439,0.00438485,0.00791562,4,0,41.38969699994978,-91.82283278972908,8740.329914717597,-90.21869775918027,-0.2286651883538374,8.196753180846772,201.356,8736.853420967655,11026.390928219933,150,True,5.326886625401179,False,150.07955822441187,163.64574937162664,False,46.16958949618754,False,False
11,1970-07-23 11:25:41.211447511,2025-09-16,2025-09-26 14:48:41.144,HA,C,3128164032,JASSM,3,113,76,2,2,1,225,9,2,0,1,26,0,0,0,0,-159132.21814139312,-4787053.770479049,4202303.790495396,-2.3654,-0.396726,0.382728,76.125,-31.75,-33.125,0.0,0.0,0.0,0.0,0.0,0.0,2,0,41.4532963705005,-91.90393688775367,10000.000034241626,119.88395958694144,-0.0017512883476913,0.0036537798998905,,8736.853420967655,11026.390928219933,150,11,2025-09-16,2025-09-26 14:48:41.106,HA,C,3163225534,AMBUSH51,1,1,48,2,1,1,225,2,1,0,0,9,1,225,2,1,-152619.58927482134,-4791654.7531721685,4196750.885331754,2.42422,3.10321,-0.00299319,-123.881,4.92553,0.845834,-0.0845805,-7.43871,6.47774,-0.0282701,-0.0020213,0.0192923,4,0,41.38970168433303,-91.82431821955032,8739.029553160095,-89.6235862078245,-0.1677263812528454,7.506929981773517,201.356,8736.853420967655,11026.390928219933,150,True,5.232485557100275,False,150.74953426173565,162.9677834855694,False,46.179403747495414,False,False
11,1970-07-23 11:25:41.221467290,2025-09-16,2025-09-26 14:48:42.146,HA,C,3129358208,JASSM,3,113,76,2,2,1,225,9,2,0,1,26,0,0,0,0,-159056.01696951812,-4787085.702119674,4202270.524870396,-2.3654,-0.396726,0.382824,76.125,-31.75,-33.125,0.0,0.0,0.0,0.0,0.0,0.0,2,0,41.45289692965302,-91.90301316506164,10000.001292116856,119.88841919783752,-0.0048720905487516,0.0036522079755585,,8736.853420967655,11026.390928219933,150,11,2025-09-16,2025-09-26 14:48:42.340,HA,C,3164696900,AMBUSH51,1,1,48,2,1,1,225,2,1,0,0,9,1,225,2,1,-152772.80194844102,-4791648.274356371,4196752.169616768,2.38602,3.09265,-0.0117146,-123.981,5.64462,1.8772,-0.13104,-7.26484,6.6435,-0.0079614,0.00104342,-0.00250608,4,0,41.38971985094631,-91.82615085519043,8737.888166333134,-88.84965615364038,-0.2900495264524816,5.310524672380378,201.392,8736.853420967655,11026.390928219933,150,True,5.12993386147491,False,151.32444383159762,162.15055173415982,False,46.42076229629298,False,False
11,1970-07-23 11:25:41.231345950,2025-09-16,2025-09-26 14:48:43.134,HA,C,3130609238,JASSM,3,113,76,2,2,1,225,9,2,0,1,26,0,0,0,0,-158976.18786795562,-4787119.153291549,4202235.673307896,-2.3654,-0.396726,0.382824,76.125,-31.75,-33.125,0.0,0.0,0.0,0.0,0.0,0.0,2,0,41.4524784532348,-91.90204547647627,10000.000484732269,119.88905980911322,-0.0040347381151668,0.0036508133107166,,8736.853420967655,11026.390928219933,150,11,2025-09-16,2025-09-26 14:48:43.107,HA,C,3165611532,AMBUSH51,1,1,48,2,1,1,225,2,1,0,0,9,1,225,2,1,-152868.29220197495,-4791644.022162362,4196754.054457898,2.37676,3.09071,-0.0159557,-124.078,3.70459,4.24758,-0.22233,-7.40138,6.65196,-0.0134542,-0.00319683,0.00593282,4,0,41.389739755093984,-91.82729313305826,8739.008125278611,-88.59486663000534,-0.2115996192369922,4.777275888616967,201.392,8736.853420967655,11026.390928219933,150,True,5.046851750619956,False,151.51851157833332,161.55618564073603,False,46.72744867004319,False,False
11,1970-07-23 11:25:41.241406138,2025-09-16,2025-09-26 14:48:44.140,HA,C,3131803466,JASSM,3,113,76,2,2,1,225,9,2,0,1,26,0,0,0,0,-158899.98278983062,-4787151.084932174,4202202.403776646,-2.3654,-0.396726,0.382824,76.125,-31.75,-33.125,0.0,0.0,0.0,0.0,0.0,0.0,2,0,41.45207897156698,-91.90112173028976,10000.001287014138,119.8896713254946,-0.0032354017177844,0.0036494858493441,,8736.853420967655,11026.390928219933,150,11,2025-09-16,2025-09-26 14:48:44.174,HA,C,3166884064,AMBUSH51,1,1,48,2,1,1,225,2,1,0,0,9,1,225,2,1,-153000.6711884577,-4791636.630815135,4196756.634369034,2.51383,3.08752,-0.0252384,-124.076,7.1849,3.37928,-0.441544,-7.44486,6.73326,0.246098,0.0115275,-0.00732473,4,0,41.389776007146985,-91.82887725475528,8736.815216143612,-88.07598934582377,0.0041199792179942,12.626243504566984,201.722,8736.853420967655,11026.390928219933,150,False,4.9526930685424535,False,152.31044399462834,160.78441900043168,False,46.80889117675093,False,False
11,1970-07-23 11:25:41.252428720,2025-09-16,2025-09-26 14:48:45.242,HA,C,3133056896,JASSM,3,113,76,2,2,1,225,9,2,0,1,26,0,0,0,0,-158820.00036795562,-4787184.598604049,4202167.483854771,-2.3654,-0.396726,0.382824,76.125,-31.75,-33.125,0.0,0.0,0.0,0.0,0.0,0.0,2,0,41.451659676211634,-91.90015220821869,10000.001860345868,119.8903131401216,-0.0023964417887375,0.0036480888706848,,8736.853420967655,11026.390928219933,150,11,2025-09-16,2025-09-26 14:48:45.307,HA,C,3168236130,AMBUSH51,1,1,48,2,1,1,225,2,1,0,0,9,1,225,2,1,-153140.0216304841,-4791627.491818977,4196761.679233968,2.64153,3.07412,-0.0484941,-123.845,9.03189,5.97258,-0.245594,-7.73492,7.04295,0.134736,0.0159779,0.062138,4,0,41.38983795078063,-91.83054532167982,8736.227054120121,-86.57028516068571,0.31144725903795,19.91842239518201,201.172,8736.853420967655,11026.390928219933,150,False,4.85361717912233,False,153.77374289455003,159.95117866520394,False,46.173704997843764,False,False
11,1970-07-23 11:25:41.262468237,2025-09-16,2025-09-26 14:48:46.246,HA,C,3134307756,JASSM,3,113,76,2,2,1,225,9,2,0,1,26,0,0,0,0,-158740.18200858062,-4787218.041963424,4202132.636198521,-2.3654,-0.39663,0.382824,76.125,-31.75,-33.125,0.0,0.0,0.0,0.0,0.0,0.0,2,0,41.45124124638504,-91.89918468793158,10000.004438630607,119.88731735551228,-0.0051288247766725,0.0015949873016284,,8736.853420967655,11026.390928219933,150,11,2025-09-16,2025-09-26 14:48:46.306,HA,C,3169429128,AMBUSH51,1,1,48,2,1,1,225,2,1,0,0,9,1,225,2,1,-153264.46730780657,-4791616.906586388,4196769.075510329,2.7958,3.04761,-0.0784885,-123.442,11.771,9.16819,-0.384074,-8.07968,7.07141,0.135949,0.0122391,0.0133189,4,0,41.389927185066725,-91.83203590288174,8736.018845056762,-84.27961917955625,0.3146648482713209,28.673644743110145,201.356,8736.853420967655,11026.390928219933,150,False,4.759499334645254,False,155.72202728075683,159.17030539659046,False,45.00907652463156,False,False
11,1970-07-23 11:25:41.272833099,2025-09-16,2025-09-26 14:48:47.283,HA,C,3135502240,JASSM,3,113,76,2,2,1,225,9,2,0,1,26,0,0,0,0,-158663.96032889312,-4787249.975557174,4202099.356901646,-2.3654,-0.39663,0.382824,76.125,-31.75,-33.125,0.0,0.0,0.0,0.0,0.0,0.0,2,0,41.450841667434325,-91.898260777598,10000.00010552386,119.88792896563342,-0.0043293218260029,0.0015936190740036,,8736.853420967655,11026.390928219933,150,11,2025-09-16,2025-09-26 14:48:47.273,HA,C,3170582360,AMBUSH51,1,1,48,2,1,1,225,2,1,0,0,9,1,225,2,1,-153382.62099683535,-4791603.344672546,4196779.360252921,2.8736,3.01822,-0.106619,-122.741,15.6514,12.6533,-0.323748,-8.01468,7.08481,-0.0027391,0.0219055,0.0644599,4,0,41.39005480617231,-91.83345246677888,8734.265950279982,-81.96233198018555,0.1315218813992836,32.9847918630152,201.026,8736.853420967655,11026.390928219933,150,False,4.6686825436952155,False,158.1297293055803,158.41710038917697,False,43.378066647364214,False,False
11,1970-07-23 11:25:41.283365466,2025-09-16,2025-09-26 14:48:48.336,HA,C,3136813080,JASSM,3,113,76,2,2,1,225,9,2,0,1,26,0,0,0,0,-158580.31482108062,-4787285.020479049,4202062.833464146,-2.3654,-0.39663,0.382824,76.125,-31.75,-33.125,0.0,0.0,0.0,0.0,0.0,0.0,2,0,41.45040313649619,-91.89724689300654,9999.996561135524,119.88860013133126,-0.0034519360653454,0.0015920957836225,,8736.853420967655,11026.390928219933,150,11,2025-09-16,2025-09-26 14:48:48.306,HA,C,3171815126,AMBUSH51,1,1,48,2,1,1,225,2,1,0,0,9,1,225,2,1,-153509.83674706906,-4791584.866844838,4196794.115736941,2.85966,2.9688,-0.139073,-121.81,19.8992,16.617,-0.122454,-8.02757,7.13,-0.0125241,0.0174531,0.0338565,4,0,41.39024010925556,-91.83497916690486,8730.839027086206,-78.70344055717902,-0.721240440974567,31.82227480189665,201.429,8736.853420967655,11026.390928219933,150,False,4.568603369523525,False,160.8205161766806,157.58881088416308,False,41.5386589879172,False,False
11,1970-07-23 11:25:41.293409765,2025-09-16,2025-09-26 14:48:49.340,HA,C,3138007944,JASSM,3,113,76,2,2,1,225,9,2,0,1,26,0,0,0,0,-158504.06970389312,-4787316.963838424,4202029.542448521,-2.3654,-0.39663,0.382824,76.125,-31.75,-33.125,0.0,0.0,0.0,0.0,0.0,0.0,2,0,41.45000340934977,-91.89632272239054,9999.997425991394,119.88921190358116,-0.0026521823366205,0.0015907186479769,,8736.853420967655,11026.390928219933,150,11,2025-09-16,2025-09-26 14:48:49.273,HA,C,3172968358,AMBUSH51,1,1,48,2,1,1,225,2,1,0,0,9,1,225,2,1,-153626.232903876,-4791563.500667175,4196811.684785691,2.82254,2.94136,-0.162296,-120.76,23.7913,20.1363,-0.142612,-8.03099,6.9602,-0.0658768,0.0177756,0.0346762,4,0,41.39046363251403,-91.83637773857564,8725.56498782192,-76.67457612522112,-0.9794439131042044,29.429336175172267,201.649,8736.853420967655,11026.390928219933,150,False,4.475437040752037,False,163.25357743290945,156.82289282385634,False,39.893492219820985,False,False
11,1970-07-23 11:25:41.304462226,2025-09-16,2025-09-26 14:48:50.446,HA,C,3139258824,JASSM,3,113,76,2,2,1,225,9,2,0,1,26,0,0,0,0,-158424.24939139312,-4787350.405244674,4201994.688932896,-2.3654,-0.39663,0.382824,76.125,-31.75,-33.125,0.0,0.0,0.0,0.0,0.0,0.0,2,0,41.44958491968687,-91.89535522874412,10000.000023009532,119.88985234913372,-0.0018149219145925,0.0015892673926517,,8736.853420967655,11026.390928219933,150,11,2025-09-16,2025-09-26 14:48:50.406,HA,C,3174320424,AMBUSH51,1,1,48,2,1,1,225,2,1,0,0,9,1,225,2,1,-153763.05416639487,-4791534.539572616,4196836.339872623,2.78325,2.90461,-0.20006,-119.446,27.4438,24.0704,-0.201251,-8.39665,7.45919,-0.018252,0.0299054,0.0349259,4,0,41.39077625994085,-91.8380232177984,8718.598020222535,-73.68082618840221,-1.0433187583263004,26.74589860785565,201.979,8736.853420967655,11026.390928219933,150,False,4.370166366607346,False,165.78210088694684,155.93585214068554,False,38.26335683464574,False,False
