Subject_cm,Timestamp,SampleDate_cm,SampleTime_cm,Configuration_cm,Scenario_cm,DisTime_cm,MarkingTxt_cm,Application_cm,EntId_cm,Site_cm,ExerciseId_cm,ForceId_cm,Category_cm,Country_cm,Domain_cm,Kind_cm,Extra_cm,Specific_cm,Subcategory_cm,AltCategory_cm,AltCountry_cm,AltDomain_cm,AltKind_cm,ECEF_X_cm,ECEF_Y_cm,ECEF_Z_cm,OriPhi_cm,OriPsi_cm,OriTheta_cm,LinVelX_cm,LinVelY_cm,LinVelZ_cm,LinAccX_cm,LinAccY_cm,LinAccZ_cm,AngVelX_cm,AngVelY_cm,AngVelZ_cm,DrAlg_cm,Appearance_cm,Latitude_cm,Longitude_cm,Altitude_cm,Heading_cm,Pitch_cm,Roll_cm,CalibratedAirspeed_cm,CM_Altitude_Lead_cm,CM_Altitude_Wing_cm,CM_Airspeed_cm,Subject_ac,SampleDate_ac,SampleTime_ac,Configuration_ac,Scenario_ac,DisTime_ac,MarkingTxt_ac,Application_ac,EntId_ac,Site_ac,ExerciseId_ac,ForceId_ac,Category_ac,Country_ac,Domain_ac,Kind_ac,Extra_ac,Specific_ac,Subcategory_ac,AltCategory_ac,AltCountry_ac,AltDomain_ac,AltKind_ac,ECEF_X_ac,ECEF_Y_ac,ECEF_Z_ac,OriPhi_ac,OriPsi_ac,OriTheta_ac,LinVelX_ac,LinVelY_ac,LinVelZ_ac,LinAccX_ac,LinAccY_ac,LinAccZ_ac,AngVelX_ac,AngVelY_ac,AngVelZ_ac,DrAlg_ac,Appearance_ac,Latitude_ac,Longitude_ac,Altitude_ac,Heading_ac,Pitch_ac,Roll_ac,CalibratedAirspeed_ac,CM_Altitude_Lead_ac,CM_Altitude_Wing_ac,CM_Airspeed_ac,Bank_Angle_Condition,distance_nm,Distance_Condition,angle_between_vel,angle_between_pos,Cone_Condition,angle_between_pos_nose,Nose_Cone_Condition,Intercept_Criteria
11,1970-07-23 11:25:31.865469720,2025-09-16,2025-09-26 14:33:06.546,HH,C,2013203732,JASSM,3,105,76,2,2,1,225,9,2,0,1,26,0,0,0,0,-187929.7503679556,-4786139.678682174,4202156.794401646,-2.30155,-0.153302,0.128183,86.0,-13.125,-11.125,0.0,0.0,0.0,0.0,0.0,0.0,2,0,41.45153132621291,-92.24858730753049,10000.00147542058,99.81892384292692,-0.0011996474570057,0.0023887949855518,,8561.873061902648,11079.41924856223,150,11,2025-09-16,2025-09-26 14:33:06.622,HH,C,2048368204,AMBUSH51,1,1,48,2,1,1,225,2,1,0,0,9,1,225,2,1,-146870.81986152925,-4792293.223637059,4196148.778518753,2.50649,2.44025,-0.581445,-78.8469,66.5785,68.4672,-0.00928356,-7.29161,6.4648,-0.0132836,-0.00268501,0.00578509,4,0,41.38290700617522,-91.75541114943586,8561.873061902648,-40.91088770787357,-1.5252834569941134,-0.3744866629402955,198.508,8561.873061902648,11079.41924856223,150,True,22.557570500274174,False,140.79346875660383,179.04109640655076,False,38.63131541588713,False,False
11,1970-07-23 11:25:31.876250683,2025-09-16,2025-09-26 14:33:07.625,HH,C,2014514264,JASSM,3,105,76,2,2,1,225,9,2,0,1,26,0,0,0,0,-187835.2269304556,-4786154.288057174,4202144.462370396,-2.30145,-0.153206,0.128183,86.0,-13.125,-11.125,0.0,0.0,0.0,0.0,0.0,0.0,2,0,41.45138326122527,-92.2474506375426,9999.997976382276,99.81603993198252,-0.0043918612493969,0.0071776074149052,,8561.873061902648,11079.41924856223,150,11,2025-09-16,2025-09-26 14:33:07.689,HH,C,2049640736,AMBUSH51,1,1,48,2,1,1,225,2,1,0,0,9,1,225,2,1,-146954.50257700402,-4792222.066445443,4196221.300653005,2.49017,2.44308,-0.57949,-79.0771,66.7603,68.7579,-0.182418,-7.3037,6.54937,-0.0197688,-0.00474896,-0.00591617,4,0,41.38380468186531,-91.75643676895632,8550.401510276175,-41.0869021771086,-1.5350070537439082,-1.21575445184656,198.911,8561.873061902648,11079.41924856223,150,True,22.450603652850187,False,140.7759320621383,179.10078910019308,False,38.76003670801383,False,False
11,1970-07-23 11:25:31.886270802,2025-09-16,2025-09-26 14:33:08.627,HH,C,2015708242,JASSM,3,105,76,2,2,1,225,9,2,0,1,26,0,0,0,0,-187749.10778983065,-4786167.598604049,4202133.227995396,-2.30145,-0.153206,0.128279,86.0,-13.125,-11.125,0.0,0.0,0.0,0.0,0.0,0.0,2,0,41.45124835851782,-92.24641503594697,10000.001830805097,99.82081600265693,-0.0072704482585141,0.007176627353153,,8561.873061902648,11079.41924856223,150,11,2025-09-16,2025-09-26 14:33:08.656,HH,C,2050793968,AMBUSH51,1,1,48,2,1,1,225,2,1,0,0,9,1,225,2,1,-147031.77315672184,-4792156.909895277,4196287.830968283,2.44401,2.44285,-0.58067,-79.5447,66.8196,68.6737,-0.180701,-7.28194,6.68169,-0.0567347,-0.00415391,-0.00175498,4,0,41.384627369056446,-91.7573836261346,8540.222632618821,-41.03873845688094,-1.4858537253235804,-3.8692029057397166,199.4,8561.873061902648,11079.41924856223,150,True,22.35262118631329,False,140.94876936442978,179.14665892469003,False,38.69146536014802,False,False
11,1970-07-23 11:25:31.896310574,2025-09-16,2025-09-26 14:33:09.631,HH,C,2016901288,JASSM,3,105,76,2,2,1,225,9,2,0,1,26,0,0,0,0,-187663.0589617056,-4786180.897432174,4202121.999479771,-2.30145,-0.153206,0.128279,86.0,-13.125,-11.125,0.0,0.0,0.0,0.0,0.0,0.0,2,0,41.451113539358495,-92.24538028455989,10000.00035390711,99.82150098916172,-0.0064832507529064,0.007176075042354,,8561.873061902648,11079.41924856223,150,11,2025-09-16,2025-09-26 14:33:09.455,HH,C,2051748366,AMBUSH51,1,1,48,2,1,1,225,2,1,0,0,9,1,225,2,1,-147095.61415846084,-4792103.539392656,4196342.346305207,2.40172,2.44943,-0.577839,-80.1147,66.6305,68.4427,-0.123986,-7.33496,6.55772,-0.0620985,-0.00468238,-0.00736427,4,0,41.385301268725286,-91.75816576948117,8531.974411867359,-41.38994348756432,-1.429283807607585,-6.076998492928962,199.73,8561.873061902648,11079.41924856223,150,True,22.263622623622386,False,141.2378640396101,179.17631246041407,False,38.4876425090292,False,False
11,1970-07-23 11:25:31.906430586,2025-09-16,2025-09-26 14:33:10.643,HH,C,2018095290,JASSM,3,105,76,2,2,1,225,9,2,0,1,26,0,0,0,0,-187576.9378679556,-4786194.206025924,4202110.763151646,-2.30145,-0.153206,0.128279,86.0,-13.125,-11.125,0.0,0.0,0.0,0.0,0.0,0.0,2,0,41.45097861691556,-92.24434466911416,10000.002903433297,99.82218654582076,-0.0056953958950876,0.0071755411280993,,8561.873061902648,11079.41924856223,150,11,2025-09-16,2025-09-26 14:33:10.656,HH,C,2053179966,AMBUSH51,1,1,48,2,1,1,225,2,1,0,0,9,1,225,2,1,-147192.58067767508,-4792023.696825215,4196423.672362428,2.33197,2.46451,-0.567589,-81.4571,66.2887,67.6894,-0.0295572,-7.34614,6.49105,-0.056123,-0.00918895,-0.0088935,4,0,41.38630760291286,-91.75935333190566,8519.257739484783,-42.324153231896936,-1.467119006988122,-9.581452176894572,200.256,8561.873061902648,11079.41924856223,150,True,22.153183984807363,False,141.94226023982884,179.206285083251,False,37.91383368584272,False,False
11,1970-07-23 11:25:31.916469712,2025-09-16,2025-09-26 14:33:11.646,HH,C,2019288090,JASSM,3,105,76,2,2,1,225,9,2,0,1,26,0,0,0,0,-187490.90466483065,-4786207.500947799,4202099.534636021,-2.30145,-0.153206,0.128279,86.0,-13.125,-11.125,0.0,0.0,0.0,0.0,0.0,0.0,2,0,41.45084379873804,-92.24331011489026,10000.001250048452,99.8228713981418,-0.0049083409785315,0.0071749839535439,,8561.873061902648,11079.41924856223,150,11,2025-09-16,2025-09-26 14:33:11.688,HH,C,2054412730,AMBUSH51,1,1,48,2,1,1,225,2,1,0,0,9,1,225,2,1,-147276.8106430688,-4791955.530767381,4196492.827641139,2.26184,2.4774,-0.561212,-82.955,65.6767,67.0836,-0.188838,-7.55531,6.77848,-0.0725389,0.0114152,-0.0215061,4,0,41.387164621113314,-91.7603845022901,8507.917592518685,-43.04336432520429,-1.3819661141688568,-13.186658898151888,200.842,8561.873061902648,11079.41924856223,150,False,22.0513832174958,False,142.71793074760782,179.21555830494236,False,37.24739983286934,False,False
11,1970-07-23 11:25:31.927229525,2025-09-16,2025-09-26 14:33:12.722,HH,C,2020539150,JASSM,3,105,76,2,2,1,225,9,2,0,1,26,0,0,0,0,-187400.6683367056,-4786221.442354049,4202087.759245396,-2.30145,-0.153206,0.128279,86.0,-13.125,-11.125,0.0,0.0,0.0,0.0,0.0,0.0,2,0,41.45070241353113,-92.2422250238694,9999.999980858627,99.82358970274888,-0.0040828407994331,0.0071744283764561,,8561.873061902648,11079.41924856223,150,11,2025-09-16,2025-09-26 14:33:12.655,HH,C,2055565962,AMBUSH51,1,1,48,2,1,1,225,2,1,0,0,9,1,225,2,1,-147358.61788985998,-4791891.99847738,4196557.051138014,2.14468,2.50355,-0.546245,-85.0516,64.7888,65.6217,-0.153353,-7.67095,6.8241,-0.110422,0.0130859,-0.0222759,4,0,41.38796121123107,-91.7613850580158,8497.105297825294,-44.57718949581518,-1.2818873967822884,-19.075836970754608,201.319,8561.873061902648,11079.41924856223,150,False,21.949337569204474,False,143.94390073395982,179.21004829962723,False,36.12710287501725,False,False
11,1970-07-23 11:25:31.936810828,2025-09-16,2025-09-26 14:33:13.681,HH,C,2021672554,JASSM,3,105,76,2,2,1,225,9,2,0,1,26,0,0,0,0,-187318.92028983065,-4786234.073213424,4202077.089323521,-2.30145,-0.153206,0.128279,86.0,-13.125,-11.125,0.0,0.0,0.0,0.0,0.0,0.0,2,0,41.45057429904116,-92.2412420080082,9999.99995778945,99.8242404342746,-0.0033349893718595,0.0071739052168971,,8561.873061902648,11079.41924856223,150,11,2025-09-16,2025-09-26 14:33:13.690,HH,C,2056798728,AMBUSH51,1,1,48,2,1,1,225,2,1,0,0,9,1,225,2,1,-147447.56525335627,-4791826.177413177,4196623.387747374,2.06555,2.52638,-0.525922,-87.8874,63.3189,63.837,-0.0186312,-7.39493,6.59139,-0.0201412,0.00428707,-0.0315491,4,0,41.388784368698296,-91.76247177394828,8485.793902960468,-46.182807638511086,-1.494907007409424,-22.90260181567805,201.832,8561.873061902648,11079.41924856223,150,False,21.84792772602126,False,145.60753225254584,179.1908245059543,False,34.57040213799063,False,False
11,1970-07-23 11:25:31.945432282,2025-09-16,2025-09-26 14:33:14.543,HH,C,2022806256,JASSM,3,105,76,2,2,1,225,9,2,0,1,26,0,0,0,0,-187237.1488054556,-4786246.706025924,4202066.417448521,-2.30145,-0.153206,0.128279,86.0,-13.125,-11.125,0.0,0.0,0.0,0.0,0.0,0.0,2,0,41.45044615680513,-92.24025871496224,10000.001810754771,99.82489134763377,-0.0025869270592794,0.0071733989114255,,8561.873061902648,11079.41924856223,150,11,2025-09-16,2025-09-26 14:33:14.655,HH,C,2057951960,AMBUSH51,1,1,48,2,1,1,225,2,1,0,0,9,1,225,2,1,-147534.60100734603,-4791765.033546791,4196684.126153128,2.02595,2.5586,-0.49856,-90.7779,62.0767,61.4405,-0.109041,-7.64317,6.78881,-0.0277645,0.0105143,-0.0228293,4,0,41.389542245669794,-91.76353396243672,8473.709530259022,-48.42227936278208,-1.6902923201633844,-24.20433072347333,202.162,8561.873061902648,11079.41924856223,150,False,21.748325063327677,False,147.37589707482294,179.16087320565592,False,32.90732658478953,False,False
11,1970-07-23 11:25:31.955470192,2025-09-16,2025-09-26 14:33:15.547,HH,C,2023941060,JASSM,3,105,76,2,2,1,225,9,2,0,1,26,0,0,0,0,-187155.29919608065,-4786259.350557174,4202055.731901646,-2.30145,-0.153206,0.128279,86.0,-13.125,-11.125,0.0,0.0,0.0,0.0,0.0,0.0,2,0,41.45031786236305,-92.23927448651156,9999.998833403792,99.82554287854884,-0.0018381465028977,0.0071728710235198,,8561.873061902648,11079.41924856223,150,11,2025-09-16,2025-09-26 14:33:15.656,HH,C,2059144958,AMBUSH51,1,1,48,2,1,1,225,2,1,0,0,9,1,225,2,1,-147626.5212297014,-4791704.119302218,4196743.724473458,1.99557,2.5802,-0.478876,-93.9146,60.5962,58.7976,-0.0577947,-7.71025,6.71117,-0.00695231,-0.00195472,-0.0291273,4,0,41.390290154534334,-91.76465444191884,8460.094875970442,-49.98579619569657,-1.8498538312409931,-25.31564415352137,202.993,8561.873061902648,11079.41924856223,150,False,21.64625647195311,False,149.32314112184753,179.12118871611125,False,31.06448987575468,False,False
11,1970-07-23 11:25:31.965251977,2025-09-16,2025-09-26 14:33:16.525,HH,C,2025134154,JASSM,3,105,76,2,2,1,225,9,2,0,1,26,0,0,0,0,-187069.24450858065,-4786272.643525924,4202044.499479771,-2.30145,-0.153206,0.128279,86.0,-13.125,-11.125,0.0,0.0,0.0,0.0,0.0,0.0,2,0,41.45018298885114,-92.23823969740468,10000.001220917122,99.82622787737434,-0.0010509008600809,0.007172336824217,,8561.873061902648,11079.41924856223,150,11,2025-09-16,2025-09-26 14:33:16.388,HH,C,2060019824,AMBUSH51,1,1,48,2,1,1,225,2,1,0,0,9,1,225,2,1,-147696.39887495828,-4791660.164172578,4196786.044550419,1.98825,2.59732,-0.455871,-96.0804,59.2746,57.1405,-0.202788,-7.59461,6.76191,-0.00119114,0.00665062,-0.0332011,4,0,41.390824552821655,-91.76550538127972,8449.057783222299,-51.50986853860076,-2.2800971721099934,-25.23851606939656,203.47,8561.873061902648,11079.41924856223,150,False,21.55601116093503,False,150.689507500815,179.08670987398006,False,29.768953749393237,True,False
11,1970-07-23 11:25:31.975289663,2025-09-16,2025-09-26 14:33:17.528,HH,C,2026326866,JASSM,3,105,76,2,2,1,225,9,2,0,1,26,0,0,0,0,-186983.21716483065,-4786285.932588424,4202033.267057896,-2.30145,-0.15311,0.128279,86.0,-13.125,-11.125,0.0,0.0,0.0,0.0,0.0,0.0,2,0,41.45004812292284,-92.23720524123708,10000.000592534085,99.8232763793215,-0.0043208332202982,0.006469193270373,,8561.873061902648,11079.41924856223,150,11,2025-09-16,2025-09-26 14:33:17.688,HH,C,2061570724,AMBUSH51,1,1,48,2,1,1,225,2,1,0,0,9,1,225,2,1,-147824.22405054528,-4791584.269059408,4196857.495962731,1.96909,2.62948,-0.424998,-100.051,57.0616,53.6297,-0.110239,-7.93068,6.92959,0.000643944,0.00844617,-0.0294581,4,0,41.391734999873854,-91.76706035623144,8427.03979778664,-53.93283276182908,-2.507623558239064,-25.449226647793413,204.337,8561.873061902648,11079.41924856223,150,False,21.43088326090623,False,153.24357781442552,179.02053066925842,False,27.341520494103673,True,False
11,1970-07-23 11:25:31.986008914,2025-09-16,2025-09-26 14:33:18.600,HH,C,2027519776,JASSM,3,105,76,2,2,1,225,9,2,0,1,26,0,0,0,0,-186897.1761492056,-4786299.221650924,4202022.034636021,-2.30145,-0.15311,0.128279,86.0,-13.125,-11.125,0.0,0.0,0.0,0.0,0.0,0.0,2,0,41.44991325086761,-92.23617062594062,10000.002607637534,99.82396125946563,-0.0035337130368337,0.0064686076867435,,8561.873061902648,11079.41924856223,150,11,2025-09-16,2025-09-26 14:33:18.588,HH,C,2062644422,AMBUSH51,1,1,48,2,1,1,225,2,1,0,0,9,1,225,2,1,-147915.60409638382,-4791533.48378795,4196904.40870819,1.96736,2.65379,-0.402585,-102.687,55.3904,51.2687,-0.122389,-7.92282,7.02395,0.00209828,0.0192299,-0.0288568,4,0,41.39233707177726,-91.76817072999668,8410.807914575147,-55.74237883472151,-2.6060220352579284,-24.90763547561641,204.924,8561.873061902648,11079.41924856223,150,False,21.32855570418413,False,154.98233908789658,178.97107030646703,False,25.685841053029588,True,False
11,1970-07-23 11:25:31.995473675,2025-09-16,2025-09-26 14:33:19.547,HH,C,2028711718,JASSM,3,105,76,2,2,1,225,9,2,0,1,26,0,0,0,0,-186811.20544608065,-4786312.498994674,4202010.810026646,-2.30145,-0.15311,0.128375,86.0,-13.125,-11.125,0.0,0.0,0.0,0.0,0.0,0.0,2,0,41.44977847562792,-92.2351368608107,10000.00349409899,99.82873613990444,-0.0064136100864006,0.0064676914359327,,8561.873061902648,11079.41924856223,150,11,2025-09-16,2025-09-26 14:33:19.621,HH,C,2063877188,AMBUSH51,1,1,48,2,1,1,225,2,1,0,0,9,1,225,2,1,-148024.57200591714,-4791476.970561245,4196956.188764024,1.96911,2.7,-0.382273,-105.927,52.402,48.776,-0.124323,-9.21722,8.25422,0.0443468,0.0400442,-0.0439099,4,0,41.39300283841338,-91.76949335229808,8392.387033316098,-58.328917794344726,-1.7904902781953038,-23.69503683549589,205.779,8561.873061902648,11079.41924856223,150,False,21.21626801905126,False,157.2435705954756,178.91350417020948,False,23.503112261237927,True,False
11,1970-07-23 11:25:32.005252752,2025-09-16,2025-09-26 14:33:20.525,HH,C,2029846308,JASSM,3,105,76,2,2,1,225,9,2,0,1,26,0,0,0,0,-186729.36950858065,-4786325.135713424,4202000.122526646,-2.30145,-0.15311,0.128375,86.0,-13.125,-11.125,0.0,0.0,0.0,0.0,0.0,0.0,2,0,41.4496501675089,-92.23415281960249,9999.997021018838,99.82938753830898,-0.0056649579655629,0.0064671776552663,,8561.873061902648,11079.41924856223,150,11,2025-09-16,2025-09-26 14:33:20.488,HH,C,2064911120,AMBUSH51,1,1,48,2,1,1,225,2,1,0,0,9,1,225,2,1,-148116.62560357366,-4791433.604431232,4196997.054746531,1.97554,2.7413,-0.370861,-108.501,48.6443,47.523,-0.303763,-10.0076,8.93764,-0.00743292,0.0364843,-0.0410845,4,0,41.39351980467326,-91.77060908053248,8381.354755649429,-60.3683092193054,-0.7331293468062858,-22.411612800428788,206.207,8561.873061902648,11079.41924856223,150,False,21.11689887307332,False,159.19330364865124,178.86795395380085,False,21.587049959600385,True,False
11,1970-07-23 11:25:32.014818277,2025-09-16,2025-09-26 14:33:21.481,HH,C,2030979702,JASSM,3,105,76,2,2,1,225,9,2,0,1,26,0,0,0,0,-186647.6214617056,-4786337.760713424,4201989.448698521,-2.30145,-0.15311,0.128375,86.0,-13.125,-11.125,0.0,0.0,0.0,0.0,0.0,0.0,2,0,41.44952199255172,-92.23316983824792,10000.003445571216,99.83003823347396,-0.004917109874684,0.006466668216776,,8561.873061902648,11079.41924856223,150,11,2025-09-16,2025-09-26 14:33:21.489,HH,C,2066104118,AMBUSH51,1,1,48,2,1,1,225,2,1,0,0,9,1,225,2,1,-148226.7937501748,-4791387.442764334,4197043.265983679,1.94448,2.78612,-0.361712,-111.298,43.5922,45.9976,-0.11397,-9.88646,8.90783,-0.0351839,0.0168185,-0.0266992,4,0,41.39408614738459,-91.77194226875794,8376.426032748735,-62.43813769957546,0.5876035584239139,-23.268550522027457,206.244,8561.873061902648,11079.41924856223,150,False,21.00747761832911,False,161.55173786191605,178.8197197582594,False,19.24318789700734,True,False
11,1970-07-23 11:25:32.026033616,2025-09-16,2025-09-26 14:33:22.603,HH,C,2032291862,JASSM,3,105,76,2,2,1,225,9,2,0,1,26,0,0,0,0,-186552.97888358065,-4786352.373994674,4201977.087370396,-2.30145,-0.15311,0.128375,86.0,-13.125,-11.125,0.0,0.0,0.0,0.0,0.0,0.0,2,0,41.44937358195256,-92.23203181258188,9999.99927876116,99.83079155983538,-0.0040512997168702,0.0064660708392317,,8561.873061902648,11079.41924856223,150,11,2025-09-16,2025-09-26 14:33:22.455,HH,C,2067257350,AMBUSH51,1,1,48,2,1,1,225,2,1,0,0,9,1,225,2,1,-148336.09828023324,-4791347.09565201,4197086.267989676,1.92441,2.82306,-0.343348,-113.547,39.4595,43.8427,-0.0610531,-9.6093,8.38819,0.00674217,0.0425263,-0.0306524,4,0,41.39459637720777,-91.7732630127717,8378.781687105009,-64.57979916620341,1.2744512403218704,-23.7225947460659,205.999,8561.873061902648,11079.41924856223,150,False,20.892096443035108,False,163.6942509342909,178.77731853515013,False,17.117194139577638,True,False
11,1970-07-23 11:25:32.036451589,2025-09-16,2025-09-26 14:33:23.645,HH,C,2033603332,JASSM,3,105,76,2,2,1,225,9,2,0,1,26,0,0,0,0,-186458.38513358065,-4786366.979463424,4201964.733854771,-2.30145,-0.15311,0.128375,86.0,-13.125,-11.125,0.0,0.0,0.0,0.0,0.0,0.0,2,0,41.44922524797525,-92.23089437935774,10000.002342763642,99.831544491807,-0.0031859382509985,0.0064654848509089,,8561.873061902648,11079.41924856223,150,11,2025-09-16,2025-09-26 14:33:23.588,HH,C,2068609416,AMBUSH51,1,1,48,2,1,1,225,2,1,0,0,9,1,225,2,1,-148466.84126349795,-4791304.955996467,4197134.147492044,1.89534,2.86381,-0.319164,-115.785,34.3871,41.1413,-0.0725351,-8.73534,7.88667,-0.00686284,0.013993,-0.0315096,4,0,41.395146235381695,-91.77484056183374,8388.95117033892,-67.10827542844811,1.9176997983001651,-24.699223167580183,205.388,8561.873061902648,11079.41924856223,150,False,20.764985334789735,False,166.1718704044825,178.73432412028083,False,14.629242909670602,True,False
11,1970-07-23 11:25:32.047491936,2025-09-16,2025-09-26 14:33:24.749,HH,C,2034916256,JASSM,3,105,76,2,2,1,225,9,2,0,1,26,0,0,0,0,-186363.6878679556,-4786381.598604049,4201952.364714146,-2.30145,-0.15311,0.128375,86.0,-13.125,-11.125,0.0,0.0,0.0,0.0,0.0,0.0,2,0,41.44907673995472,-92.22975570768668,9999.999946584858,99.83229824135762,-0.0023196305001075,0.006464897596546,,8561.873061902648,11079.41924856223,150,11,2025-09-16,2025-09-26 14:33:24.855,HH,C,2070120548,AMBUSH51,1,1,48,2,1,1,225,2,1,0,0,9,1,225,2,1,-148613.80726432035,-4791263.854487859,4197182.63467536,1.89392,2.89618,-0.285213,-117.563,30.5646,37.2419,-0.10856,-7.84339,6.94917,0.0241692,0.00390216,-0.0338669,4,0,41.39569100539815,-91.77661156594232,8404.241475721357,-69.7411959803363,1.8849620870364217,-24.31570726597042,204.631,8561.873061902648,11079.41924856223,150,False,20.62929371281662,False,168.67136140592214,178.69421600907046,False,12.146657589394247,True,False
11,1970-07-23 11:25:32.058492245,2025-09-16,2025-09-26 14:33:25.849,HH,C,2036229244,JASSM,3,105,76,2,2,1,225,9,2,0,1,26,0,0,0,0,-186268.9847429556,-4786396.217744674,4201939.993620396,-2.30145,-0.15311,0.128375,86.0,-13.125,-11.125,0.0,0.0,0.0,0.0,0.0,0.0,2,0,41.4489282088423,-92.22861697117526,9999.997541010349,99.83305203160836,-0.0014532689861387,0.006464307619752,,8561.873061902648,11079.41924856223,150,11,2025-09-16,2025-09-26 14:33:25.856,HH,C,2071313546,AMBUSH51,1,1,48,2,1,1,225,2,1,0,0,9,1,225,2,1,-148731.89702691336,-4791234.131178431,4197217.31840262,1.88996,2.91896,-0.2616,-118.707,28.1327,33.923,-0.133192,-7.95905,6.95649,0.0058808,0.00836295,-0.0237843,4,0,41.3960801976198,-91.77803339363392,8415.382991598759,-71.58935798811201,1.89248102394222,-24.251286307428188,204.154,8561.873061902648,11079.41924856223,150,False,20.510575969794957,False,170.57231486951457,178.6657110766583,False,10.267563559117253,True,False
11,1970-07-23 11:25:32.069249170,2025-09-16,2025-09-26 14:33:26.924,HH,C,2037482180,JASSM,3,105,76,2,2,1,225,9,2,0,1,26,0,0,0,0,-186178.6136492056,-4786410.168916549,4201928.188932896,-2.30145,-0.153015,0.128375,86.0,-13.125,-11.125,0.0,0.0,0.0,0.0,0.0,0.0,2,0,41.448786460452965,-92.22753032869404,10000.002690738522,99.8301351564632,-0.0046834644012625,0.0057606603521739,,8561.873061902648,11079.41924856223,150,11,2025-09-16,2025-09-26 14:33:26.989,HH,C,2072665612,AMBUSH51,1,1,48,2,1,1,225,2,1,0,0,9,1,225,2,1,-148867.1889711781,-4791203.40313791,4197252.713842331,1.89831,2.93966,-0.232454,-119.899,25.5822,30.0191,-0.106556,-7.59949,6.70241,0.0154973,0.00272038,-0.0350591,4,0,41.39647697461915,-91.77966112422529,8426.91995488224,-73.60010091242428,1.6163988617747818,-23.54390148820263,203.69,8561.873061902648,11079.41924856223,150,False,20.38502310870394,False,172.73210912398093,178.63863323737132,False,8.129994109786354,True,False
11,1970-07-23 11:25:32.079472615,2025-09-16,2025-09-26 14:33:27.947,HH,C,2038792760,JASSM,3,105,76,2,2,1,225,9,2,0,1,26,0,0,0,0,-186084.08435233065,-4786424.758760299,4201915.839323521,-2.30145,-0.153015,0.128375,86.0,-13.125,-11.125,0.0,0.0,0.0,0.0,0.0,0.0,2,0,41.44863818640101,-92.2263936936138,10000.000926322182,99.8308875513784,-0.0038186950353461,0.005760022667217,,8561.873061902648,11079.41924856223,150,11,2025-09-16,2025-09-26 14:33:27.888,HH,C,2073739310,AMBUSH51,1,1,48,2,1,1,225,2,1,0,0,9,1,225,2,1,-148975.60283960414,-4791180.995100377,4197277.910670704,1.9085,2.95628,-0.210728,-120.744,23.6553,27.1143,-0.125747,-7.61411,6.81342,0.0308895,0.00837335,-0.0181917,4,0,41.39676034908184,-91.78096466813028,8434.75187957808,-75.1475562567081,1.468735304324157,-22.79269298425564,203.286,8561.873061902648,11079.41924856223,150,False,20.272649386658465,False,174.33931476771383,178.61955714759878,False,6.527774946591383,True,False
11,1970-07-23 11:25:32.090489732,2025-09-16,2025-09-26 14:33:29.048,HH,C,2040046726,JASSM,3,105,76,2,2,1,225,9,2,0,1,26,0,0,0,0,-185993.63903983065,-4786438.717744674,4201904.020964146,-2.30145,-0.153015,0.128375,86.0,-13.125,-11.125,0.0,0.0,0.0,0.0,0.0,0.0,2,0,41.448496295440535,-92.22530617009282,9999.997425361957,99.83160743485378,-0.0029912846769791,0.0057594003106515,,8561.873061902648,11079.41924856223,150,11,2025-09-16,2025-09-26 14:33:28.922,HH,C,2074972076,AMBUSH51,1,1,48,2,1,1,225,2,1,0,0,9,1,225,2,1,-149100.628818147,-4791157.548152288,4197303.702198698,1.92244,2.98181,-0.188853,-121.507,21.3089,23.8409,-0.127943,-8.07333,7.29455,0.0288381,0.0192736,-0.0248205,4,0,41.39705082883248,-91.78246707483896,8442.596636194428,-77.04006936289314,1.696035765423491,-21.756011245231072,202.7,8561.873061902648,11079.41924856223,150,False,20.153615035485096,False,176.14009098012426,178.60226849117657,False,4.690489434348306,True,False
11,1970-07-23 11:25:32.101250793,2025-09-16,2025-09-26 14:33:30.125,HH,C,2041299424,JASSM,3,105,76,2,2,1,225,9,2,0,1,26,0,0,0,0,-185903.2855242056,-4786452.663057174,4201892.214323521,-2.30145,-0.153015,0.128471,86.0,-13.125,-11.125,0.0,0.0,0.0,0.0,0.0,0.0,2,0,41.44835453340884,-92.22421975484832,9999.998911463172,99.83641719297096,-0.0058310368693945,0.0057584884057746,,8561.873061902648,11079.41924856223,150,11,2025-09-16,2025-09-26 14:33:30.089,HH,C,2076363908,AMBUSH51,1,1,48,2,1,1,225,2,1,0,0,9,1,225,2,1,-149242.73593844558,-4791134.650107805,4197329.383589695,1.93753,3.01138,-0.165056,-122.152,16.8707,22.7751,-0.159501,-8.11761,7.23314,0.0307065,0.0193235,-0.0374788,4,0,41.39733411474515,-91.78417335994492,8452.870117705826,-79.17024487276775,2.032319838481109,-20.662426699908536,202.052,8561.873061902648,11079.41924856223,150,False,20.02563820805187,False,176.72291866258323,178.58934802707395,False,3.474816991381304,True,False
11,1970-07-23 11:25:32.110288344,2025-09-16,2025-09-26 14:33:31.028,HH,C,2042432144,JASSM,3,105,76,2,2,1,225,9,2,0,1,26,0,0,0,0,-185821.58435233065,-4786465.270479049,4201881.538542271,-2.30145,-0.153015,0.128471,86.0,-13.125,-11.125,0.0,0.0,0.0,0.0,0.0,0.0,2,0,41.44822635418308,-92.2232373810432,9999.998462533898,99.83706746931152,-0.0050836221905213,0.0057579912268483,,8561.873061902648,11079.41924856223,150,11,2025-09-16,2025-09-26 14:33:30.888,HH,C,2077318306,AMBUSH51,1,1,48,2,1,1,225,2,1,0,0,9,1,225,2,1,-149340.8737896292,-4791120.955059122,4197344.526998938,1.94014,3.03313,-0.151944,-122.717,15.3808,18.843,-0.197662,-8.5574,7.77467,0.00899961,0.0119624,-0.0391162,4,0,41.39749963452866,-91.78535092340664,8459.558357832566,-80.55082873704995,2.454588044460171,-20.370281415392387,201.685,8561.873061902648,11079.41924856223,150,False,19.926985506934074,False,177.95124370692113,178.58338310161255,False,1.6348865396095862,True,False
11,1970-07-23 11:25:32.120022273,2025-09-16,2025-09-26 14:33:32.002,HH,C,2043565498,JASSM,3,105,76,2,2,1,225,9,2,0,1,26,0,0,0,0,-185739.83825858065,-4786477.885713424,4201870.856901646,-2.30145,-0.153015,0.128471,86.0,-13.125,-11.125,0.0,0.0,0.0,0.0,0.0,0.0,2,0,41.4480980909111,-92.22225447056016,10000.003770321086,99.83771809924798,-0.0043357953578321,0.0057574886999702,,8561.873061902648,11079.41924856223,150,11,2025-09-16,2025-09-26 14:33:31.955,HH,C,2078590838,AMBUSH51,1,1,48,2,1,1,225,2,1,0,0,9,1,225,2,1,-149471.81117755244,-4791106.0037217615,4197362.634129622,1.94664,3.05154,-0.132175,-123.011,12.3697,16.2542,-0.136884,-7.63797,6.94903,0.0134542,0.0131941,-0.0316302,4,0,41.3976865386051,-91.78692082134582,8472.1082525381,-82.09340944531921,2.487457488814911,-19.91489812544483,201.062,8561.873061902648,11079.41924856223,150,False,19.81067449433603,False,177.08225907056217,178.58208394694952,False,1.5860087393588376,True,False
11,1970-07-23 11:25:32.128588654,2025-09-16,2025-09-26 14:33:32.858,HH,C,2044640062,JASSM,3,105,76,2,2,1,225,9,2,0,1,26,0,0,0,0,-185662.3323992056,-4786489.844697799,4201860.726042271,-2.30145,-0.153015,0.128471,86.0,-13.125,-11.125,0.0,0.0,0.0,0.0,0.0,0.0,2,0,41.4479764620836,-92.22132254887087,10000.000330364324,99.83833497602105,-0.0036267576594195,0.0057570013439527,,8561.873061902648,11079.41924856223,150,11,2025-09-16,2025-09-26 14:33:32.821,HH,C,2079624770,AMBUSH51,1,1,48,2,1,1,225,2,1,0,0,9,1,225,2,1,-149579.07067920058,-4791095.738119336,4197375.192802271,1.95741,3.0661,-0.114578,-123.086,10.5678,13.7393,-0.10977,-7.51231,6.65946,0.0357061,0.00254353,-0.0274815,4,0,41.39781248370306,-91.78820609492196,8482.337257696592,-83.39939473990113,2.442260023709345,-19.25104405393344,200.769,8561.873061902648,11079.41924856223,150,False,19.709897026843112,False,176.14005122120602,178.58421948311596,False,2.4482973296251838,True,False
11,1970-07-23 11:25:32.138248779,2025-09-16,2025-09-26 14:33:33.824,HH,C,2045773022,JASSM,3,105,76,2,2,1,225,9,2,0,1,26,0,0,0,0,-185580.61560233065,-4786502.452119674,4201850.046354771,-2.30145,-0.153015,0.128471,86.0,-13.125,-11.125,0.0,0.0,0.0,0.0,0.0,0.0,2,0,41.44784823536548,-92.2203399997178,10000.000430557891,99.83898536355288,-0.0028792011206406,0.0057565055809081,,8561.873061902648,11079.41924856223,150,11,2025-09-16,2025-09-26 14:33:33.889,HH,C,2080897302,AMBUSH51,1,1,48,2,1,1,225,2,1,0,0,9,1,225,2,1,-149709.47247206562,-4791085.377151411,4197387.721045806,1.9836,3.08338,-0.0938967,-123.139,8.54832,10.9867,-0.251125,-7.58229,6.82577,0.0360369,0.00501527,-0.025428,4,0,41.39793447465356,-91.78976789262764,8494.050386780073,-84.94197385416507,2.399102226943904,-17.71255436026583,199.987,8561.873061902648,11079.41924856223,150,False,19.59455650519796,False,174.8296196576367,178.59140040957027,False,3.824328301807813,True,False
11,1970-07-23 11:25:32.148288324,2025-09-16,2025-09-26 14:33:34.828,HH,C,2046906524,JASSM,3,105,76,2,2,1,225,9,2,0,1,26,0,0,0,0,-185498.85778983065,-4786515.065400924,4201839.358854771,-2.30145,-0.153015,0.128471,86.0,-13.125,-11.125,0.0,0.0,0.0,0.0,0.0,0.0,2,0,41.447719922134524,-92.21935696148908,9999.997625510763,99.83963607316744,-0.0021312671588954,0.0057559959594484,,8561.873061902648,11079.41924856223,150,11,2025-09-16,2025-09-26 14:33:34.888,HH,C,2082090302,AMBUSH51,1,1,48,2,1,1,225,2,1,0,0,9,1,225,2,1,-149832.6582496398,-4791077.378347308,4197397.180956393,2.00474,3.09557,-0.0729655,-123.171,6.87789,8.64327,-0.191687,-7.44871,6.74009,0.0141741,0.00412686,-0.0134001,4,0,41.39802301877836,-91.7912426008864,8504.37087883796,-86.3041034052879,2.130171370715935,-16.496934672075653,199.62,8561.873061902648,11079.41924856223,150,False,19.483371054352123,False,173.636029545245,178.60147559658583,False,5.080122078336432,True,False
11,1970-07-23 11:25:32.157428868,2025-09-16,2025-09-26 14:33:35.742,HH,C,2048039276,JASSM,3,105,76,2,2,1,225,9,2,0,1,26,0,0,0,0,-185417.15466483065,-4786527.670869674,4201828.679167271,-2.30145,-0.152919,0.128471,86.0,-13.125,-11.125,0.0,0.0,0.0,0.0,0.0,0.0,2,0,41.44759168709701,-92.21837458439164,10000.001366989329,99.83665025916468,-0.0054407553002542,0.0050519299346483,,8561.873061902648,11079.41924856223,150,11,2025-09-16,2025-09-26 14:33:35.621,HH,C,2082965168,AMBUSH51,1,1,48,2,1,1,225,2,1,0,0,9,1,225,2,1,-149923.54424011972,-4791072.638539178,4197402.577634256,2.02438,3.10641,-0.0658104,-123.038,5.61937,6.99519,-0.125274,-7.61806,6.74835,0.0349946,0.0031365,-0.0119645,4,0,41.39807073715922,-91.79233020227548,8511.413889050218,-87.02215845268243,2.324901782871967,-15.35640317619005,199.4,8561.873061902648,11079.41924856223,150,False,19.389795459291502,False,172.73900907207627,178.61028671052773,False,6.015063122032706,True,False
11,1970-07-23 11:25:32.167467795,2025-09-16,2025-09-26 14:33:36.746,HH,C,2049233222,JASSM,3,105,76,2,2,1,225,9,2,0,1,26,0,0,0,0,-185331.0394304556,-4786540.954072799,4201817.421354771,-2.30145,-0.152919,0.128471,86.0,-13.125,-11.125,0.0,0.0,0.0,0.0,0.0,0.0,2,0,41.44745652635029,-92.2173391628088,9999.998794947012,99.83733563977822,-0.0046529612713597,0.0050513519048928,,8561.873061902648,11079.41924856223,150,11,2025-09-16,2025-09-26 14:33:36.888,HH,C,2084476300,AMBUSH51,1,1,48,2,1,1,225,2,1,0,0,9,1,225,2,1,-150078.64561554935,-4791066.542070821,4197409.583746446,2.10606,3.1272,-0.0419349,-122.936,3.59717,4.95766,-0.2678,-8.0006,7.34702,0.0651507,0.014301,-0.0189449,4,0,41.398125418071984,-91.79418550349564,8523.562777453713,-88.83790180248398,2.3158599106206204,-10.686137732504216,199.168,8561.873061902648,11079.41924856223,150,False,19.259620121478527,False,171.43059972318107,178.63136273197344,False,7.364904158008893,True,False
11,1970-07-23 11:25:32.177248172,2025-09-16,2025-09-26 14:33:37.724,HH,C,2050365762,JASSM,3,105,76,2,2,1,225,9,2,0,1,26,0,0,0,0,-185249.3519304556,-4786553.553682174,4201806.741667271,-2.30145,-0.152919,0.128471,86.0,-13.125,-11.125,0.0,0.0,0.0,0.0,0.0,0.0,2,0,41.44732830535593,-92.2163569831232,9999.99695167686,99.83798577607736,-0.0039056727713951,0.0050508024324467,,8561.873061902648,11079.41924856223,150,11,2025-09-16,2025-09-26 14:33:37.821,HH,C,2085589764,AMBUSH51,1,1,48,2,1,1,225,2,1,0,0,9,1,225,2,1,-150193.91016775602,-4791063.888098071,4197413.687410484,2.16377,3.13965,-0.0425749,-122.616,1.59547,4.51426,-0.234404,-7.64271,6.92931,0.063403,-0.0236845,-0.00652995,4,0,41.39814742445424,-91.79556357990133,8534.822641203014,-89.28231816655548,2.8758416863775915,-7.369236255511939,198.875,8561.873061902648,11079.41924856223,150,True,19.153384648297568,False,170.5516576424845,178.64958259524647,False,8.236425247394935,True,False
11,1970-07-23 11:25:32.186309153,2025-09-16,2025-09-26 14:33:38.630,HH,C,2051499948,JASSM,3,105,76,2,2,1,225,9,2,0,1,26,0,0,0,0,-185167.54528983065,-4786566.172822799,4201796.046354771,-2.30145,-0.152919,0.128471,86.0,-13.125,-11.125,0.0,0.0,0.0,0.0,0.0,0.0,2,0,41.44719988174253,-92.21537337427772,10000.001411651869,99.8386368567254,-0.0031572927146845,0.0050502450976687,,8561.873061902648,11079.41924856223,150,11,2025-09-16,2025-09-26 14:33:38.521,HH,C,2086424864,AMBUSH51,1,1,48,2,1,1,225,2,1,0,0,9,1,225,2,1,-150279.58462098415,-4791062.586188584,4197416.377509869,2.21785,3.13054,-0.0343697,-122.365,1.55311,3.73196,-0.0897238,-6.61971,5.77478,0.0881933,-0.00215029,-0.00154276,4,0,41.39815734940631,-91.79658763219228,8544.065050154679,-89.29134888072063,2.174561266740333,-4.291202602692349,198.581,8561.873061902648,11079.41924856223,150,True,19.062929181040495,False,170.33248197472005,178.66344741041894,False,8.492013438911712,True,False
11,1970-07-23 11:25:32.195456393,2025-09-16,2025-09-26 14:33:39.545,HH,C,2052573688,JASSM,3,105,76,2,2,1,225,9,2,0,1,26,0,0,0,0,-185090.0980242056,-4786578.116182174,4201785.919401646,-2.30145,-0.152919,0.128471,86.0,-13.125,-11.125,0.0,0.0,0.0,0.0,0.0,0.0,2,0,41.44707830302988,-92.21444218584564,9999.997331762204,99.83925323717554,-0.0024487955854236,0.0050497262188981,,8561.873061902648,11079.41924856223,150,11,2025-09-16,2025-09-26 14:33:39.488,HH,C,2087578096,AMBUSH51,1,1,48,2,1,1,225,2,1,0,0,9,1,225,2,1,-150396.83929114137,-4791060.704575771,4197419.225406866,2.27431,3.13935,-0.0296822,-122.065,1.51013,3.24733,-0.14491,-7.30738,6.64496,0.0415297,-0.0062241,0.00621786,4,0,41.39816588244687,-91.79798919396345,8554.665889269889,-89.82780242225813,2.3768906852509644,-1.0614805249927517,198.203,8561.873061902648,11079.41924856223,150,True,18.958105106104917,False,170.18739445198554,178.68395078494441,False,8.674442657055529,True,False
11,1970-07-23 11:25:32.205489742,2025-09-16,2025-09-26 14:33:40.548,HH,C,2053826530,JASSM,3,105,76,2,2,1,225,9,2,0,1,26,0,0,0,0,-184999.73278983065,-4786592.051729049,4201774.104948521,-2.30145,-0.152919,0.128567,86.0,-13.125,-11.125,0.0,0.0,0.0,0.0,0.0,0.0,2,0,41.44693644649795,-92.2133556823722,10000.000371549684,99.844063078938,-0.0052883981916085,0.0050488845856635,,8561.873061902648,11079.41924856223,150,11,2025-09-16,2025-09-26 14:33:40.588,HH,C,2088890394,AMBUSH51,1,1,48,2,1,1,225,2,1,0,0,9,1,225,2,1,-150531.21930857087,-4791058.976918659,4197422.096415419,2.17156,3.13404,-0.0322559,-121.89,1.05217,2.79144,0.053486,-7.2023,6.55405,-0.0628974,-0.00856893,0.0146651,4,0,41.39817043788848,-91.7995952952094,8567.026121193412,-89.51684110836952,2.2471889041179383,-6.945257228663074,197.836,8561.873061902648,11079.41924856223,150,True,18.837150528839786,False,169.88931201782177,178.70819572351215,False,9.005470583633118,True,False
11,1970-07-23 11:25:32.218008717,2025-09-16,2025-09-26 14:33:41.800,HH,C,2055198344,JASSM,3,105,76,2,2,1,225,9,2,0,1,26,0,0,0,0,-184900.78747733065,-4786607.311494674,4201761.165495396,-2.30145,-0.152919,0.128567,86.0,-13.125,-11.125,0.0,0.0,0.0,0.0,0.0,0.0,2,0,41.446781081004005,-92.21216602154958,10000.004279324943,99.84485054536636,-0.0043832310037616,0.00504827013829,,8561.873061902648,11079.41924856223,150,11,2025-09-16,2025-09-26 14:33:41.721,HH,C,2090242460,AMBUSH51,1,1,48,2,1,1,225,2,1,0,0,9,1,225,2,1,-150670.0596426755,-4791057.894415791,4197424.447298082,2.16925,-3.13989,-0.00883408,-121.632,0.667115,1.59348,-0.208084,-6.90266,6.19372,-0.019929,-0.00563321,-0.0280142,4,0,41.39816678695907,-91.80125444017732,8580.199184389716,-90.8759702435048,1.7588250344379006,-7.114355957116132,197.751,8561.873061902648,11079.41924856223,150,True,18.70921593043747,False,169.405168930821,178.73429093871042,False,9.54553388760092,True,False
11,1970-07-23 11:25:32.228248506,2025-09-16,2025-09-26 14:33:42.824,HH,C,2056509772,JASSM,3,105,76,2,2,1,225,9,2,0,1,26,0,0,0,0,-184806.1956804556,-4786621.895479049,4201748.794401646,-2.30145,-0.152919,0.128567,86.0,-13.125,-11.125,0.0,0.0,0.0,0.0,0.0,0.0,2,0,41.44663255941913,-92.2110287121852,10000.000085455202,99.84560335677632,-0.0035178952490834,0.0050477015935151,,8561.873061902648,11079.41924856223,150,11,2025-09-16,2025-09-26 14:33:42.688,HH,C,2091395692,AMBUSH51,1,1,48,2,1,1,225,2,1,0,0,9,1,225,2,1,-150786.7885133493,-4791057.285855806,4197425.003618864,2.16513,-3.13607,-0.00187761,-121.472,0.131815,0.475209,-0.14745,-7.19985,6.5757,0.0295184,0.00221063,0.00768676,4,0,41.3981523169845,-91.80264923754288,8588.942579476172,-91.32100446613106,1.6606344633500436,-7.362776363666701,197.115,8561.873061902648,11079.41924856223,150,True,18.595518989642674,False,168.87810673567532,178.75648014384382,False,10.118933065437094,True,False
11,1970-07-23 11:25:32.239267836,2025-09-16,2025-09-26 14:33:43.926,HH,C,2057821852,JASSM,3,105,76,2,2,1,225,9,2,0,1,26,0,0,0,0,-184711.5589617056,-4786636.487275924,4201736.415495396,-2.30145,-0.152919,0.128567,86.0,-13.125,-11.125,0.0,0.0,0.0,0.0,0.0,0.0,2,0,41.44648393769892,-92.20989086749177,9999.998646017895,99.84635652031376,-0.0026521450823533,0.005047114711436,,8561.873061902648,11079.41924856223,150,11,2025-09-16,2025-09-26 14:33:43.821,HH,C,2092747756,AMBUSH51,1,1,48,2,1,1,225,2,1,0,0,9,1,225,2,1,-150925.19181781122,-4791057.435387611,4197424.678956546,2.20553,-3.13292,0.0059654,-121.29,-0.560954,-0.446489,-0.212002,-7.16221,6.59075,0.0246498,-0.000252792,-0.0116773,4,0,41.39812331103047,-91.80430269333267,8599.325796050358,-91.7785701096789,1.4998250537143631,-5.060754323496216,197.152,8561.873061902648,11079.41924856223,150,True,18.470450310908657,False,168.34798795960089,178.78490940993888,False,10.695117433566864,True,False
11,1970-07-23 11:25:32.254007549,2025-09-16,2025-09-26 14:33:45.400,HH,C,2059134920,JASSM,3,105,76,2,2,1,225,9,2,0,1,26,0,0,0,0,-184616.84997733065,-4786651.088838424,4201724.026823521,-2.30145,-0.152823,0.128567,86.0,-13.125,-11.125,0.0,0.0,0.0,0.0,0.0,0.0,2,0,41.446335197303455,-92.20875215976174,9999.997934365816,99.8434742638194,-0.0058426519613644,0.0043424789427539,,8561.873061902648,11079.41924856223,150,11,2025-09-16,2025-09-26 14:33:45.288,HH,C,2094497488,AMBUSH51,1,1,48,2,1,1,225,2,1,0,0,9,1,225,2,1,-151102.78324464173,-4791058.341379499,4197422.75892111,2.22417,-3.12625,0.0106415,-121.014,-1.22366,-1.33648,-0.0886662,-7.30967,6.62111,0.0370211,0.00568106,-0.00215238,4,0,41.39807165885912,-91.8064240422617,8611.15814547902,-92.23377989286789,1.6104769351514243,-4.008168536030524,196.626,8561.873061902648,11079.41924856223,150,True,18.324785531684785,False,167.83499279171428,178.82334497017368,False,11.268741762510794,True,False
11,1970-07-23 11:25:32.261314839,2025-09-16,2025-09-26 14:33:46.131,HH,C,2060446552,JASSM,3,105,76,2,2,1,225,9,2,0,1,26,0,0,0,0,-184522.24450858065,-4786665.672822799,4201711.651823521,-2.30145,-0.152823,0.128567,86.0,-13.125,-11.125,0.0,0.0,0.0,0.0,0.0,0.0,2,0,41.44618661874426,-92.20761470256254,9999.99831626614,99.84422716646895,-0.0049771915253948,0.0043418534239693,,8561.873061902648,11079.41924856223,150,11,2025-09-16,2025-09-26 14:33:46.121,HH,C,2095491654,AMBUSH51,1,1,48,2,1,1,225,2,1,0,0,9,1,225,2,1,-151203.52523913558,-4791059.195392782,4197421.309465251,2.24889,-3.12281,0.0136731,-120.856,-1.3424,-1.75183,-0.0817362,-7.2614,6.47233,0.0112903,0.00385014,-0.0142843,4,0,41.39803788542287,-91.80762728557424,8617.93232953151,-92.4953881051593,1.6441793650879744,-2.6016540675379285,196.48,8561.873061902648,11079.41924856223,150,True,18.219791106721384,False,167.6621693713098,178.8439034238555,False,11.479202987876358,True,False
11,1970-07-23 11:25:32.271448020,2025-09-16,2025-09-26 14:33:47.144,HH,C,2061700270,JASSM,3,105,76,2,2,1,225,9,2,0,1,26,0,0,0,0,-184431.81482108065,-4786679.612275924,4201699.821745396,-2.30145,-0.152823,0.128567,86.0,-13.125,-11.125,0.0,0.0,0.0,0.0,0.0,0.0,2,0,41.44604458383648,-92.20652745669676,9999.99834484442,99.84494683129066,-0.0041499311438442,0.0043412515581322,,8561.873061902648,11079.41924856223,150,11,2025-09-16,2025-09-26 14:33:47.322,HH,C,2096923252,AMBUSH51,1,1,48,2,1,1,225,2,1,0,0,9,1,225,2,1,-151347.58769910305,-4791060.452325634,4197419.130499666,2.25595,-3.12125,0.0180864,-120.652,-1.3977,-2.09745,-0.150945,-7.24481,6.46867,0.00676297,-0.00660069,0.00558536,4,0,41.39798863768922,-91.80934792334313,8627.485872181387,-92.74524247061206,1.5449743492823127,-2.2055464225148707,196.064,8561.873061902648,11079.41924856223,150,True,18.094266743741912,False,167.5319813848476,178.87459210425334,False,11.661981160315023,True,False
11,1970-07-23 11:25:32.283467207,2025-09-16,2025-09-26 14:33:48.346,HH,C,2063071930,JASSM,3,105,76,2,2,1,225,9,2,0,1,26,0,0,0,0,-184332.88122733065,-4786694.862275924,4201686.878386021,-2.30145,-0.152823,0.128567,86.0,-13.125,-11.125,0.0,0.0,0.0,0.0,0.0,0.0,2,0,41.44588917680266,-92.2053379730231,10000.000911823738,99.8457341665715,-0.0032448755982467,0.0043405895340202,,8561.873061902648,11079.41924856223,150,11,2025-09-16,2025-09-26 14:33:48.355,HH,C,2098156018,AMBUSH51,1,1,48,2,1,1,225,2,1,0,0,9,1,225,2,1,-151472.41106746453,-4791061.9427602645,4197416.633158058,2.27422,-3.12064,0.0212991,-120.607,-1.77158,-2.1161,-0.250526,-7.29175,6.60112,0.0226379,-0.00146578,-0.0217724,4,0,41.397939444337936,-91.8108386203438,8635.437398942457,-92.90764513110516,1.4507161654766134,-1.1635917036161658,195.991,8561.873061902648,11079.41924856223,150,True,17.974297607919564,False,167.3927759191942,178.90054060939292,False,11.834660139161446,True,False
11,1970-07-23 11:25:32.294269008,2025-09-16,2025-09-26 14:33:49.426,HH,C,2064383606,JASSM,3,105,76,2,2,1,225,9,2,0,1,26,0,0,0,0,-184238.27185233065,-4786709.444307174,4201674.499479771,-2.30145,-0.152823,0.128567,86.0,-13.125,-11.125,0.0,0.0,0.0,0.0,0.0,0.0,2,0,41.44574055064536,-92.20420048561576,10000.0019991826,99.84648708255062,-0.0023793789140001,0.0043399561288308,,8561.873061902648,11079.41924856223,150,11,2025-09-16,2025-09-26 14:33:49.455,HH,C,2099468316,AMBUSH51,1,1,48,2,1,1,225,2,1,0,0,9,1,225,2,1,-151604.92583879607,-4791063.8255137885,4197413.832158262,2.28066,-3.12095,0.0261743,-120.436,-1.88464,-2.28039,-0.153545,-6.64492,6.05259,0.00590785,-0.0161569,0.00360255,4,0,41.39788439998775,-91.81242105425764,8644.301826960715,-93.10603077515168,1.2533308944119803,-0.7988165516941974,195.526,8561.873061902648,11079.41924856223,150,True,17.85269328676651,False,167.29898184180908,178.92827519419762,False,11.974673350323808,True,False
11,1970-07-23 11:25:32.305268866,2025-09-16,2025-09-26 14:33:50.526,HH,C,2065695952,JASSM,3,105,76,2,2,1,225,9,2,0,1,26,0,0,0,0,-184143.61462576807,-4786724.032197799,4201662.112761021,-2.30145,-0.152823,0.128663,86.0,-13.125,-11.125,0.0,0.0,0.0,0.0,0.0,0.0,2,0,41.44559183661402,-92.2030624287826,10000.000779834423,99.8513310743276,-0.0051796671722958,0.0043390819179781,,8561.873061902648,11079.41924856223,150,11,2025-09-16,2025-09-26 14:33:50.487,HH,C,2100701082,AMBUSH51,1,1,48,2,1,1,225,2,1,0,0,9,1,225,2,1,-151730.60033852365,-4791065.316491346,4197410.624612367,2.27355,-3.12771,0.0257781,-120.363,-1.35218,-2.99965,-0.164478,-7.09182,6.22981,0.00974655,-0.00266212,-0.00056072,4,0,41.39783020842624,-91.81392191236976,8650.796654473084,-92.833630384,0.9793806451451508,-1.190979589690773,195.416,8561.873061902648,11079.41924856223,150,True,17.734685872560604,False,167.25502431024498,178.9530175981328,False,12.089640173202831,True,False
11,1970-07-23 11:25:32.316826385,2025-09-16,2025-09-26 14:33:51.682,HH,C,2066950540,JASSM,3,105,76,2,2,1,225,9,2,0,1,26,0,0,0,0,-184053.12341483065,-4786737.977510299,4201650.270964146,-2.30145,-0.152823,0.128663,86.0,-13.125,-11.125,0.0,0.0,0.0,0.0,0.0,0.0,2,0,41.44544965881876,-92.20197446475544,10000.002244265888,99.85205120604203,-0.004351844528043,0.0043385352289202,,8561.873061902648,11079.41924856223,150,11,2025-09-16,2025-09-26 14:33:51.688,HH,C,2102132680,AMBUSH51,1,1,48,2,1,1,225,2,1,0,0,9,1,225,2,1,-151874.70174598866,-4791066.521745769,4197406.53963845,2.28711,-3.12508,0.0296786,-120.193,-0.996801,-3.39739,-0.110204,-6.9432,6.37972,0.00917438,-0.00934915,0.00602436,4,0,41.39776829851439,-91.81564301920294,8656.129894694814,-93.10201022250584,0.9455807339429134,-0.4223755463743373,195.343,8561.873061902648,11079.41924856223,150,True,17.609274292654046,False,167.24390518898878,178.97985017234924,False,12.168674961676764,True,False
11,1970-07-23 11:25:32.326314393,2025-09-16,2025-09-26 14:33:52.631,HH,C,2068261120,JASSM,3,105,76,2,2,1,225,9,2,0,1,26,0,0,0,0,-183958.59314139312,-4786752.543916549,4201637.899870396,-2.30145,-0.152823,0.128663,86.0,-13.125,-11.125,0.0,0.0,0.0,0.0,0.0,0.0,2,0,41.44530112701,-92.2008379453015,10000.003515139302,99.85280347479514,-0.00348707309803,0.0043379670355129,,8561.873061902648,11079.41924856223,150,11,2025-09-16,2025-09-26 14:33:52.655,HH,C,2103285912,AMBUSH51,1,1,48,2,1,1,225,2,1,0,0,9,1,225,2,1,-151990.24622606527,-4791067.329212211,4197402.942946604,2.29281,-3.1271,0.0291466,-120.228,-0.857686,-3.56042,-0.138257,-7.30723,6.63514,0.0108389,0.00870625,0.00549589,4,0,41.3977174154737,-91.81702310734184,8659.32600892253,-93.0037259827554,0.8803955916442298,-0.0911972265557651,195.258,8561.873061902648,11079.41924856223,150,True,17.496684815978146,False,167.2369699561568,178.99914711764447,False,12.223648569634268,True,False
11,1970-07-23 11:25:32.337426654,2025-09-16,2025-09-26 14:33:53.742,HH,C,2069514772,JASSM,3,105,76,2,2,1,225,9,2,0,1,26,0,0,0,0,-183868.16931326807,-4786766.475557174,4201626.063932896,-2.30145,-0.152823,0.128663,86.0,-13.125,-11.125,0.0,0.0,0.0,0.0,0.0,0.0,2,0,41.445159033673406,-92.19975080262296,9999.999414080992,99.85352305870244,-0.0026598678857371,0.0043374200976961,,8561.873061902648,11079.41924856223,150,11,2025-09-16,2025-09-26 14:33:53.787,HH,C,2104637978,AMBUSH51,1,1,48,2,1,1,225,2,1,0,0,9,1,225,2,1,-152127.35008820365,-4791068.340851979,4197398.737891073,2.3078,-3.12624,0.0276496,-120.237,-0.999031,-3.3047,-0.296176,-7.49179,6.79647,0.01221,0.00450137,0.00303039,4,0,41.39765712202632,-91.81866068174266,8663.395128337594,-92.97303582567898,0.9752138207121764,0.767019818657588,195.221,8561.873061902648,11079.41924856223,150,True,17.375025133261964,False,167.27451784512067,179.02140086821956,False,12.226997417973568,True,False
11,1970-07-23 11:25:32.348467780,2025-09-16,2025-09-26 14:33:54.846,HH,C,2070826058,JASSM,3,105,76,2,2,1,225,9,2,0,1,26,0,0,0,0,-183773.58825858065,-4786781.047822799,4201613.685026646,-2.30145,-0.152727,0.128663,86.0,-13.125,-11.125,0.0,0.0,0.0,0.0,0.0,0.0,2,0,41.44501040391344,-92.19861368368812,10000.002671473469,99.85063982619548,-0.0058515445868482,0.0036322791174861,,8561.873061902648,11079.41924856223,150,11,2025-09-16,2025-09-26 14:33:54.821,HH,C,2105870744,AMBUSH51,1,1,48,2,1,1,225,2,1,0,0,9,1,225,2,1,-152250.89357404775,-4791069.256303603,4197395.2441778295,2.31468,-3.12802,0.0251032,-120.26,-1.11107,-2.92606,-0.098086,-7.33541,6.68262,0.0110178,0.00195472,0.00737675,4,0,41.397604743631305,-91.82013628582138,8667.720547400344,-92.79704303275352,0.9963953204353044,1.1666245394247827,195.221,8561.873061902648,11079.41924856223,150,True,17.258205123447752,False,167.36128416073097,179.0396237769609,False,12.174001389286406,True,False
11,1970-07-23 11:25:32.358488697,2025-09-16,2025-09-26 14:33:55.848,HH,C,2072078758,JASSM,3,105,76,2,2,1,225,9,2,0,1,26,0,0,0,0,-183683.23278983065,-4786794.967744674,4201601.856901646,-2.30145,-0.152727,0.128663,86.0,-13.125,-11.125,0.0,0.0,0.0,0.0,0.0,0.0,2,0,41.44486839639581,-92.19752737311784,10000.002124009774,99.8513588552236,-0.0050249650268006,0.0036316794024866,,8561.873061902648,11079.41924856223,150,11,2025-09-16,2025-09-26 14:33:55.787,HH,C,2107023976,AMBUSH51,1,1,48,2,1,1,225,2,1,0,0,9,1,225,2,1,-152367.70745396678,-4791070.017273384,4197392.3070108,2.32216,-3.13134,0.0207179,-120.143,-0.865856,-2.70698,-0.0711913,-7.37526,6.50254,0.00391464,-0.0072207,0.0092472,4,0,41.39755829595291,-91.82153154845692,8672.354802254167,-92.48393762023892,1.021492821935091,1.6051781837895314,195.184,8561.873061902648,11079.41924856223,150,True,17.147217696757533,False,167.5166330787691,179.05539691659516,False,12.061823673093334,True,False
11,1970-07-23 11:25:32.370247060,2025-09-16,2025-09-26 14:33:57.024,HH,C,2073450760,JASSM,3,105,76,2,2,1,225,9,2,0,1,26,0,0,0,0,-183584.27282889312,-4786810.211885299,4201588.901823521,-2.30145,-0.152727,0.128663,86.0,-13.125,-11.125,0.0,0.0,0.0,0.0,0.0,0.0,2,0,41.44471285811954,-92.1963376199643,10000.001938322746,99.85214635057751,-0.0041196720104818,0.003631026685869,,8561.873061902648,11079.41924856223,150,11,2025-09-16,2025-09-26 14:33:56.921,HH,C,2108376040,AMBUSH51,1,1,48,2,1,1,225,2,1,0,0,9,1,225,2,1,-152502.90609011686,-4791070.688297883,4197389.150599347,2.29818,-3.13289,0.0173052,-120.049,-0.774023,-2.40307,-0.0953108,-7.27659,6.51973,-0.00992132,-0.00327174,0.00800301,4,0,41.39750740526111,-91.8231464810428,8677.738563803056,-92.27957349184804,1.0854997576432566,0.2367666627131568,195.001,8561.873061902648,11079.41924856223,150,True,17.021822369156244,False,167.64709930297505,179.07174666221914,False,11.975761373928874,True,False
11,1970-07-23 11:25:32.381270545,2025-09-16,2025-09-26 14:33:58.127,HH,C,2074764242,JASSM,3,105,76,2,2,1,225,9,2,0,1,26,0,0,0,0,-183489.53357108065,-4786824.803682174,4201576.497526646,-2.30145,-0.152727,0.128663,86.0,-13.125,-11.125,0.0,0.0,0.0,0.0,0.0,0.0,2,0,41.44456394316331,-92.19519861683298,9999.99750332967,99.85290025230988,-0.0032529911889731,0.00363040266974,,8561.873061902648,11079.41924856223,150,11,2025-09-16,2025-09-26 14:33:58.054,HH,C,2109728106,AMBUSH51,1,1,48,2,1,1,225,2,1,0,0,9,1,225,2,1,-152639.8399092398,-4791071.183851573,4197386.029892717,2.30095,-3.134,0.0201668,-120.037,-0.50767,-2.45083,-0.24273,-7.03356,6.49972,0.00143249,-0.0040686,-0.00310737,4,0,41.39745744795746,-91.82478220684482,8682.913530087004,-92.36125912078072,0.9302772269455136,0.3953901955758654,194.842,8561.873061902648,11079.41924856223,150,True,16.897823075339684,False,167.72362219441564,179.08599491806154,False,11.957225730713931,True,False
11,1970-07-23 11:25:32.392305751,2025-09-16,2025-09-26 14:33:59.230,HH,C,2076017646,JASSM,3,105,76,2,2,1,225,9,2,0,1,26,0,0,0,0,-183399.12732108065,-4786838.729463424,4201564.661589146,-2.30145,-0.152727,0.128663,86.0,-13.125,-11.125,0.0,0.0,0.0,0.0,0.0,0.0,2,0,41.44442182738771,-92.1941117115416,10000.003325275378,99.85361966860717,-0.0024259483339568,0.0036298061534079,,8561.873061902648,11079.41924856223,150,11,2025-09-16,2025-09-26 14:33:59.054,HH,C,2110921104,AMBUSH51,1,1,48,2,1,1,225,2,1,0,0,9,1,225,2,1,-152758.82618492012,-4791071.275521474,4197383.221226523,2.29922,-3.13679,0.016528,-119.941,-0.175964,-2.59608,-0.139261,-7.07051,6.49706,0.0100233,-0.00222312,0.00251856,4,0,41.39741538098463,-91.8262036689246,8686.373919114973,-92.10017189380255,0.9495879353569304,0.3034998624072161,194.622,8561.873061902648,11079.41924856223,150,True,16.785633249162032,False,167.78848706552006,179.0955026657814,False,11.948129450094644,True,False
11,1970-07-23 11:25:32.403621495,2025-09-16,2025-09-26 14:34:00.362,HH,C,2077389458,JASSM,3,105,76,2,2,1,225,9,2,0,1,26,0,0,0,0,-183300.1800554556,-4786853.967744674,4201551.704557896,-2.30145,-0.152727,0.128663,86.0,-13.125,-11.125,0.0,0.0,0.0,0.0,0.0,0.0,2,0,41.44426627258386,-92.19292212911922,10000.000718928735,99.85440704397467,-0.0015207725085762,0.0036291520218894,,8561.873061902648,11079.41924856223,150,11,2025-09-16,2025-09-26 14:34:00.221,HH,C,2112312936,AMBUSH51,1,1,48,2,1,1,225,2,1,0,0,9,1,225,2,1,-152898.5786427137,-4791071.116311729,4197380.171541324,2.31451,-3.13775,0.0146637,-119.877,-0.0578593,-2.33015,-0.151814,-7.32905,6.52841,0.0106911,0.000431723,-0.00444935,4,0,41.39736921963184,-91.82787331170468,8690.331620532472,-91.98471110165804,0.9802141305562988,1.1821042045555494,194.769,8561.873061902648,11079.41924856223,150,True,16.657808148184255,False,167.91711304991492,179.10414141103408,False,11.868119834431527,True,False
11,1970-07-23 11:25:32.414473805,2025-09-16,2025-09-26 14:34:01.447,HH,C,2078700164,JASSM,3,105,76,2,2,1,225,9,2,0,1,26,0,0,0,0,-183205.6409929556,-4786868.526338424,4201539.323698521,-2.30145,-0.152727,0.128759,86.0,-13.125,-11.125,0.0,0.0,0.0,0.0,0.0,0.0,2,0,41.44411763394488,-92.19178554950231,9999.998795717003,99.85925008151376,-0.0043220947320159,0.0036283468018541,,8561.873061902648,11079.41924856223,150,11,2025-09-16,2025-09-26 14:34:01.354,HH,C,2113665002,AMBUSH51,1,1,48,2,1,1,225,2,1,0,0,9,1,225,2,1,-153034.99588884183,-4791070.8646615725,4197377.186742378,2.31343,-3.13954,0.00921102,-119.794,0.0903359,-2.14614,-0.0230849,-7.26353,6.70066,-0.00118698,0.00325509,0.00924928,4,0,41.39732465577031,-91.82950314206651,8693.950682821122,-91.68378508159236,1.1114244879848076,1.1269344827055567,194.964,8561.873061902648,11079.41924856223,150,True,16.534162711236334,False,168.02869085147802,179.1096785286171,False,11.807296142996686,True,False
11,1970-07-23 11:25:32.425485427,2025-09-16,2025-09-26 14:34:02.548,HH,C,2080013324,JASSM,3,105,76,2,2,1,225,9,2,0,1,26,0,0,0,0,-183110.92517264312,-4786883.112275924,4201526.919401646,-2.30145,-0.152727,0.128759,86.0,-13.125,-11.125,0.0,0.0,0.0,0.0,0.0,0.0,2,0,41.443968703446565,-92.1906468499906,10000.001335034696,99.86000377341252,-0.0034556276945711,0.0036277772948287,,8561.873061902648,11079.41924856223,150,11,2025-09-16,2025-09-26 14:34:02.520,HH,C,2115056834,AMBUSH51,1,1,48,2,1,1,225,2,1,0,0,9,1,225,2,1,-153174.13755679893,-4791070.320494581,4197374.757917291,2.3122,-3.14131,0.00695156,-119.844,0.13501,-1.65406,-0.262798,-7.6056,6.9239,-0.0154619,0.0015386,-0.000213261,4,0,41.397285044425416,-91.83116562909552,8698.280222140016,-91.52064822660188,1.1222324675453106,1.0608552879997546,194.732,8561.873061902648,11079.41924856223,150,True,16.408935459701993,False,168.20704116999627,179.1125952972268,False,11.66986784721727,True,False
11,1970-07-23 11:25:32.436825297,2025-09-16,2025-09-26 14:34:03.682,HH,C,2081324866,JASSM,3,105,76,2,2,1,225,9,2,0,1,26,0,0,0,0,-183016.3245867056,-4786897.676729049,4201514.530729771,-2.30145,-0.152631,0.128759,86.0,-13.125,-11.125,0.0,0.0,0.0,0.0,0.0,0.0,2,0,41.44381996874116,-92.18950954276497,10000.000627623678,99.85712074320476,-0.0066471266060528,0.0029221858167696,,8561.873061902648,11079.41924856223,150,11,2025-09-16,2025-09-26 14:34:03.654,HH,C,2116408898,AMBUSH51,1,1,48,2,1,1,225,2,1,0,0,9,1,225,2,1,-153310.58615617733,-4791069.964155294,4197372.706771842,2.30979,-3.14045,0.0024307,-119.744,0.021502,-1.2433,-0.191353,-7.57322,6.77326,0.00290347,0.00768676,0.00623034,4,0,41.39724735429324,-91.8327958685022,8703.689139647438,-91.359838055167,1.3315355663746826,0.925951367770692,194.573,8561.873061902648,11079.41924856223,150,True,16.285194161989907,False,168.30076317318878,179.1130695100789,False,11.614273283046371,True,False
11,1970-07-23 11:25:32.447268373,2025-09-16,2025-09-26 14:34:04.726,HH,C,2082637582,JASSM,3,105,76,2,2,1,225,9,2,0,1,26,0,0,0,0,-182921.64001639312,-4786912.254854049,4201502.128386021,-2.30145,-0.152631,0.128759,86.0,-13.125,-11.125,0.0,0.0,0.0,0.0,0.0,0.0,2,0,41.443671068278704,-92.18837123072488,10000.000726261986,99.85787417423654,-0.005780947037835,0.0029215646444259,,8561.873061902648,11079.41924856223,150,11,2025-09-16,2025-09-26 14:34:04.721,HH,C,2117681430,AMBUSH51,1,1,48,2,1,1,225,2,1,0,0,9,1,225,2,1,-153437.54485177225,-4791069.630307352,4197371.3446528455,2.30912,-3.13988,-0.000239805,-119.7,0.00227067,-0.83865,-0.0787633,-7.58601,6.76815,-0.0134646,-0.000375547,0.020033,4,0,41.397215967203,-91.83431272433737,8709.91019144817,-91.2678156296261,1.4585473627559906,0.8898817045966351,194.39,8561.873061902648,11079.41924856223,150,True,16.166377505718835,False,168.42376196747873,179.11126752483628,False,11.527978328849063,True,False
11,1970-07-23 11:25:32.458307038,2025-09-16,2025-09-26 14:34:05.830,HH,C,2083891040,JASSM,3,105,76,2,2,1,225,9,2,0,1,26,0,0,0,0,-182831.22986014312,-4786926.174775924,4201490.284636021,-2.30145,-0.152631,0.128759,86.0,-13.125,-11.125,0.0,0.0,0.0,0.0,0.0,0.0,2,0,41.44352887104036,-92.1872843112286,10000.002254874657,99.85859358726526,-0.0049538686500023,0.0029209634074666,,8561.873061902648,11079.41924856223,150,11,2025-09-16,2025-09-26 14:34:05.754,HH,C,2118914196,AMBUSH51,1,1,48,2,1,1,225,2,1,0,0,9,1,225,2,1,-153561.83343018795,-4791069.255291732,4197370.41924296,2.30623,3.13632,-0.000266462,-119.57,0.1752,-0.629513,-0.129441,-6.94469,6.26585,0.00380437,-0.0114714,0.00941781,4,0,41.39718826255462,-91.83579769475897,8716.77518998697,-91.00269325491834,1.1603202536064627,0.7300026781950272,194.194,8561.873061902648,11079.41924856223,150,True,16.05129052580621,False,168.5520173728894,179.107496373229,False,11.445476526415614,True,False
11,1970-07-23 11:25:32.468806329,2025-09-16,2025-09-26 14:34:06.880,HH,C,2085203126,JASSM,3,105,76,2,2,1,225,9,2,0,1,26,0,0,0,0,-182736.59118826807,-4786940.743135299,4201477.886198521,-2.30145,-0.152631,0.128759,86.0,-13.125,-11.125,0.0,0.0,0.0,0.0,0.0,0.0,2,0,41.44338002260446,-92.1861465623871,10000.000508519495,99.85934664117347,-0.0040881101475113,0.0029203441248746,,8561.873061902648,11079.41924856223,150,11,2025-09-16,2025-09-26 14:34:06.788,HH,C,2120146962,AMBUSH51,1,1,48,2,1,1,225,2,1,0,0,9,1,225,2,1,-153684.63375218175,-4791068.514213566,4197369.484376996,2.30769,3.13888,0.00143749,-119.547,0.74873,-0.783487,-0.146266,-7.20242,6.58032,-0.00697311,-0.00815697,0.00422257,4,0,41.39716293645234,-91.83726502365278,8722.609717197722,-91.17418831691678,1.20713809530033,0.8102456011901285,194.268,8561.873061902648,11079.41924856223,150,True,15.93465140902725,False,168.70569666464095,179.10060647315683,False,11.357768573277086,True,False
11,1970-07-23 11:25:32.480047322,2025-09-16,2025-09-26 14:34:08.004,HH,C,2086514620,JASSM,3,105,76,2,2,1,225,9,2,0,1,26,0,0,0,0,-182641.99450858065,-4786955.303682174,4201465.493620396,-2.30145,-0.152631,0.128759,86.0,-13.125,-11.125,0.0,0.0,0.0,0.0,0.0,0.0,2,0,41.44323123940742,-92.18500932418846,10000.00101013816,99.8600993548729,-0.003222738011012,0.0029197352822797,,8561.873061902648,11079.41924856223,150,11,2025-09-16,2025-09-26 14:34:07.853,HH,C,2121419494,AMBUSH51,1,1,48,2,1,1,225,2,1,0,0,9,1,225,2,1,-153812.62409867207,-4791067.609319501,4197368.497550738,2.30712,3.13611,-0.00313439,-119.4,0.71908,-0.516475,-0.205978,-7.13759,6.4286,-0.00258098,0.00909324,0.0133439,4,0,41.39713722417567,-91.83879441636915,8728.346148733266,-90.87380859580746,1.2626416100752575,0.783936038493721,194.158,8561.873061902648,11079.41924856223,150,True,15.815301420585474,False,168.782003167937,179.0907073511017,False,11.322549236043974,True,False
11,1970-07-23 11:25:32.490464493,2025-09-16,2025-09-26 14:34:09.046,HH,C,2087828408,JASSM,3,105,76,2,2,1,225,9,2,0,1,26,0,0,0,0,-182547.23278983065,-4786969.889619674,4201453.077604771,-2.30145,-0.152631,0.128759,86.0,-13.125,-11.125,0.0,0.0,0.0,0.0,0.0,0.0,2,0,41.4430821731785,-92.1838701071108,10000.00233163238,99.86085337612184,-0.0023558539901367,0.0029191133327772,,8561.873061902648,11079.41924856223,150,11,2025-09-16,2025-09-26 14:34:09.220,HH,C,2123049926,AMBUSH51,1,1,48,2,1,1,225,2,1,0,0,9,1,225,2,1,-153974.86694936536,-4791066.203683542,4197367.392153114,2.30659,3.13453,-0.00094306,-119.298,1.00317,-0.439538,-0.0622316,-7.03238,6.47656,-0.00737675,-0.00183612,0.00358799,4,0,41.39710712227645,-91.84073319824977,8735.309497530174,-90.90920822919092,1.1129423879838454,0.7523425934695538,193.999,8561.873061902648,11079.41924856223,150,True,15.677792405263041,False,168.90759769964006,179.07496004372797,False,11.265381091473492,True,False
