Subject_cm,Timestamp,SampleDate_cm,SampleTime_cm,Configuration_cm,Scenario_cm,DisTime_cm,MarkingTxt_cm,Application_cm,EntId_cm,Site_cm,ExerciseId_cm,ForceId_cm,Category_cm,Country_cm,Domain_cm,Kind_cm,Extra_cm,Specific_cm,Subcategory_cm,AltCategory_cm,AltCountry_cm,AltDomain_cm,AltKind_cm,ECEF_X_cm,ECEF_Y_cm,ECEF_Z_cm,OriPhi_cm,OriPsi_cm,OriTheta_cm,LinVelX_cm,LinVelY_cm,LinVelZ_cm,LinAccX_cm,LinAccY_cm,LinAccZ_cm,AngVelX_cm,AngVelY_cm,AngVelZ_cm,DrAlg_cm,Appearance_cm,Latitude_cm,Longitude_cm,Altitude_cm,Heading_cm,Pitch_cm,Roll_cm,CalibratedAirspeed_cm,CM_Altitude_Lead_cm,CM_Altitude_Wing_cm,CM_Airspeed_cm,Subject_ac,SampleDate_ac,SampleTime_ac,Configuration_ac,Scenario_ac,DisTime_ac,MarkingTxt_ac,Application_ac,EntId_ac,Site_ac,ExerciseId_ac,ForceId_ac,Category_ac,Country_ac,Domain_ac,Kind_ac,Extra_ac,Specific_ac,Subcategory_ac,AltCategory_ac,AltCountry_ac,AltDomain_ac,AltKind_ac,ECEF_X_ac,ECEF_Y_ac,ECEF_Z_ac,OriPhi_ac,OriPsi_ac,OriTheta_ac,LinVelX_ac,LinVelY_ac,LinVelZ_ac,LinAccX_ac,LinAccY_ac,LinAccZ_ac,AngVelX_ac,AngVelY_ac,AngVelZ_ac,DrAlg_ac,Appearance_ac,Latitude_ac,Longitude_ac,Altitude_ac,Heading_ac,Pitch_ac,Roll_ac,CalibratedAirspeed_ac,CM_Altitude_Lead_ac,CM_Altitude_Wing_ac,CM_Airspeed_ac,Bank_Angle_Condition,distance_nm,Distance_Condition,angle_between_vel,angle_between_pos,Cone_Condition,angle_between_pos_nose,Nose_Cone_Condition,Intercept_Criteria
11,1970-07-23 11:25:31.869312828,2025-09-16,2025-09-26 14:33:06.931,HH,C,2013740718,JASSM,3,101,76,2,2,1,225,9,2,0,1,26,0,0,0,0,-155550.64001639312,-4777463.202119674,4213263.823698521,-2.71083,-1.01118,0.751842,33.625,-53.5,-59.0,0.0,0.0,0.0,0.0,0.0,0.0,2,0,41.58503200548432,-91.8648490715412,10000.000988581463,155.93983564279822,4.216375579467912e-05,0.0048422415511269,,8561.873061902648,11079.41924856223,150,11,2025-09-16,2025-09-26 14:33:06.815,HH,C,1364658630,HAWK11,1,1,73,2,1,1,225,2,1,0,0,12,1,225,2,1,-143496.99646170562,-4792944.255830611,4196687.263151646,2.55571,2.30979,-0.726532,-71.0,68.375,76.875,-0.0625,-6.75,6.85938,-0.0136719,0.0,0.0078125,4,0,41.38327932471036,-91.7148784973895,11080.204523352742,-31.33971445200221,2.068810918848753,-2.097227860407906,198.227,8561.873061902648,11079.41924856223,150,True,13.850397573268168,False,168.2693235999075,174.84496910164214,False,6.7277779145915355,True,False
11,1970-07-23 11:25:31.880034423,2025-09-16,2025-09-26 14:33:08.003,HH,C,2014933688,JASSM,3,101,76,2,2,1,225,9,2,0,1,26,0,0,0,0,-155517.05700858062,-4777516.821260299,4213204.663542271,-2.71083,-1.01118,0.751842,33.625,-53.5,-59.0,0.0,0.0,0.0,0.0,0.0,0.0,2,0,41.58432020036967,-91.86442582898272,10000.004565575256,155.94011655995985,0.0008211920329717,0.0048411139695526,,8561.873061902648,11079.41924856223,150,11,2025-09-16,2025-09-26 14:33:08.110,HH,C,1366289060,HAWK11,1,1,73,2,1,1,225,2,1,0,0,12,1,225,2,1,-143593.71130545562,-4792851.096650924,4196791.979948521,2.57114,2.3119,-0.725861,-71.375,68.625,77.0,-0.0625,-6.79688,6.89062,-0.00390625,0.00390625,0.00195312,4,0,41.38452315374189,-91.71606694397636,11085.240574913669,-31.4376964117003,2.0847809837345967,-1.1359863479368388,199.021,8561.873061902648,11079.41924856223,150,True,13.712734126961143,False,168.1977038574583,174.869767697951,False,6.819765357416212,True,False
11,1970-07-23 11:25:31.890471797,2025-09-16,2025-09-26 14:33:09.047,HH,C,2016126756,JASSM,3,101,76,2,2,1,225,9,2,0,1,26,0,0,0,0,-155483.47204764312,-4777570.442354049,4213145.495573521,-2.71083,-1.01118,0.751938,33.625,-53.5,-59.0,0.0,0.0,0.0,0.0,0.0,0.0,2,0,41.58360832973918,-91.86400257156104,9999.99962907046,155.94269009387213,-0.0033897240565964,0.0048399410349457,,8561.873061902648,11079.41924856223,150,11,2025-09-16,2025-09-26 14:33:09.017,HH,C,1367482060,HAWK11,1,1,73,2,1,1,225,2,1,0,0,12,1,225,2,1,-143665.01794608062,-4792782.334932174,4196869.194792271,2.57153,2.30797,-0.726628,-71.5,68.875,77.125,-0.015625,-6.84375,6.95312,0.00976562,0.0078125,0.0,4,0,41.38544071768587,-91.71694322680702,11088.792976799974,-31.27160684926808,2.0354606732609044,-1.25750525514707,199.351,8561.873061902648,11079.41924856223,150,True,13.59898379316323,False,168.2199176453861,174.88362187729305,False,6.807935630120853,True,False
11,1970-07-23 11:25:31.900253388,2025-09-16,2025-09-26 14:33:10.025,HH,C,2017318940,JASSM,3,101,76,2,2,1,225,9,2,0,1,26,0,0,0,0,-155449.91150076812,-4777624.024385299,4213086.370573521,-2.71083,-1.01109,0.751938,33.625,-53.5,-59.0,0.0,0.0,0.0,0.0,0.0,0.0,2,0,41.58289697515945,-91.8635796311394,9999.998259234852,155.9393263221561,-0.0042857615235711,0.0010880742090507,,8561.873061902648,11079.41924856223,150,11,2025-09-16,2025-09-26 14:33:10.111,HH,C,1368675058,HAWK11,1,1,73,2,1,1,225,2,1,0,0,12,1,225,2,1,-143736.65075858062,-4792713.496064986,4196946.550261021,2.5837,2.30663,-0.72634,-71.75,69.0,77.375,-0.15625,-6.85938,6.96875,0.0117188,-0.00195312,-0.00585938,4,0,41.38635962460636,-91.71782345741887,11092.492773963271,-31.231659995137225,1.992585547451528,-0.6094433149503511,199.84,8561.873061902648,11079.41924856223,150,True,13.485111268319852,False,168.19501453230257,174.8981731554553,False,6.85428381508107,True,False
11,1970-07-23 11:25:31.910549912,2025-09-16,2025-09-26 14:33:11.054,HH,C,2018452334,JASSM,3,101,76,2,2,1,225,9,2,0,1,26,0,0,0,0,-155418.00622733062,-4777674.963838424,4213030.163542271,-2.71083,-1.01109,0.751938,33.625,-53.5,-59.0,0.0,0.0,0.0,0.0,0.0,0.0,2,0,41.58222071547683,-91.86317755951896,10000.004944383394,155.9395931765815,-0.0035456424069193,0.0010869810495673,,8561.873061902648,11079.41924856223,150,11,2025-09-16,2025-09-26 14:33:11.017,HH,C,1369868058,HAWK11,1,1,73,2,1,1,225,2,1,0,0,12,1,225,2,1,-143808.26989920562,-4792644.175752486,4197024.290495396,2.59933,2.30135,-0.726723,-71.75,69.25,77.625,-0.015625,-6.84375,7.01562,0.015625,0.00390625,0.00976562,4,0,41.38728398782224,-91.71870372175536,11095.849787080477,-31.027668522730696,1.8953158789051936,0.092269508728204,200.329,8561.873061902648,11079.41924856223,150,True,13.373246073083502,False,168.2863679117982,174.91319202143785,False,6.7807187074126665,True,False
11,1970-07-23 11:25:31.918450804,2025-09-16,2025-09-26 14:33:11.845,HH,C,2019585728,JASSM,3,101,76,2,2,1,225,9,2,0,1,26,0,0,0,0,-155386.09997733062,-4777725.901338424,4212973.952604771,-2.71083,-1.01109,0.751938,33.625,-53.5,-59.0,0.0,0.0,0.0,0.0,0.0,0.0,2,0,41.58154443986242,-91.86277548535077,10000.001742909995,155.93986002913377,-0.0028055066765224,0.0010858894580149,,8561.873061902648,11079.41924856223,150,11,2025-09-16,2025-09-26 14:33:11.842,HH,C,1370385024,HAWK11,1,1,73,2,1,1,225,2,1,0,0,12,1,225,2,1,-143839.88513358062,-4792613.780244674,4197058.405729771,2.6046,2.29944,-0.727586,-71.875,69.375,77.75,-0.1875,-6.96875,6.92188,0.00976562,-0.00976562,-0.00390625,4,0,41.38768944918336,-91.71909223609792,11097.400225425126,-30.932061497261405,1.895707900884433,0.3245812008438003,200.806,8561.873061902648,11079.41924856223,150,True,13.299310417110508,False,168.28531778789096,174.91059671507043,False,6.7802512692964365,True,False
11,1970-07-23 11:25:31.928834181,2025-09-16,2025-09-26 14:33:12.883,HH,C,2020718106,JASSM,3,101,76,2,2,1,225,9,2,0,1,26,0,0,0,0,-155354.22302420562,-4777776.791963424,4212917.792448521,-2.71083,-1.01109,0.751938,33.625,-53.5,-59.0,0.0,0.0,0.0,0.0,0.0,0.0,2,0,41.58086877874396,-91.86237378879252,9999.999960973302,155.94012662751123,-0.0020660459217237,0.0010847967945696,,8561.873061902648,11079.41924856223,150,11,2025-09-16,2025-09-26 14:33:12.813,HH,C,1371816622,HAWK11,1,1,73,2,1,1,225,2,1,0,0,12,1,225,2,1,-143926.05700858062,-4792530.479463424,4197151.835417271,2.62138,2.29388,-0.728353,-71.75,69.75,78.0,-0.015625,-6.70312,6.78125,0.00976562,0.00195312,0.00585938,4,0,41.38880027789536,-91.7201513747721,11101.481085059944,-30.70611831532049,1.8122800178235867,1.0813518985548745,201.062,8561.873061902648,11079.41924856223,150,True,13.173807734806084,False,168.44530269211756,174.93272967033224,False,6.640750908762812,True,False
11,1970-07-23 11:25:31.938820977,2025-09-16,2025-09-26 14:33:13.882,HH,C,2021852006,JASSM,3,101,76,2,2,1,225,9,2,0,1,26,0,0,0,0,-155322.30310233062,-4777827.750947799,4212861.558073521,-2.71083,-1.01109,0.751938,33.625,-53.5,-59.0,0.0,0.0,0.0,0.0,0.0,0.0,2,0,41.5801922167855,-91.86197155924889,10000.004307282956,155.94039357605627,-0.001325598763729,0.0010837072324354,,8561.873061902648,11079.41924856223,150,11,2025-09-16,2025-09-26 14:33:13.813,HH,C,1373208454,HAWK11,1,1,73,2,1,1,225,2,1,0,0,12,1,225,2,1,-144009.04333670562,-4792449.527314986,4197242.522917271,2.66625,2.28563,-0.731229,-71.5,70.125,78.375,0.0,-6.6875,6.73438,0.126953,-0.0078125,0.0195312,4,0,41.38987918338268,-91.72117165587008,11105.168164988636,-30.319736546831383,1.775293109400318,3.3494122348056785,201.551,8561.873061902648,11079.41924856223,150,True,13.050768058205898,False,168.67341780315954,174.95265357200316,False,6.43723415794165,True,False
11,1970-07-23 11:25:31.947312047,2025-09-16,2025-09-26 14:33:14.731,HH,C,2022985202,JASSM,3,101,76,2,2,1,225,9,2,0,1,26,0,0,0,0,-155290.40271170562,-4777878.676729049,4212805.354948521,-2.71083,-1.01109,0.751938,33.625,-53.5,-59.0,0.0,0.0,0.0,0.0,0.0,0.0,2,0,41.57951605812481,-91.86156958499868,10000.000300215506,155.94066035160665,-0.0005855964308687,0.0010826140380304,,8561.873061902648,11079.41924856223,150,11,2025-09-16,2025-09-26 14:33:14.813,HH,C,1374282152,HAWK11,1,1,73,2,1,1,225,2,1,0,0,12,1,225,2,1,-144073.32068045562,-4792385.654268111,4197313.602995396,2.85627,2.27911,-0.731996,-70.5,70.875,78.625,-0.296875,-6.40625,6.46875,0.207031,0.00976562,0.015625,4,0,41.39072746900822,-91.72196236161872,11106.967365357528,-30.058285900296458,1.673288411697217,13.99528110998966,201.844,8561.873061902648,11079.41924856223,150,False,12.944851646145082,False,169.22391709030705,174.9629456418153,False,5.8813685591628655,True,False
11,1970-07-23 11:25:31.956470157,2025-09-16,2025-09-26 14:33:15.647,HH,C,2024060350,JASSM,3,101,76,2,2,1,225,9,2,0,1,26,0,0,0,0,-155260.13708670562,-4777926.995088424,4212752.030729771,-2.71083,-1.01109,0.751938,33.625,-53.5,-59.0,0.0,0.0,0.0,0.0,0.0,0.0,2,0,41.57887452605436,-91.86118821714808,10000.002628891734,155.9409134481528,0.0001165046173284,0.0010815683272134,,8561.873061902648,11079.41924856223,150,11,2025-09-16,2025-09-26 14:33:15.703,HH,C,1375475152,HAWK11,1,1,73,2,1,1,225,2,1,0,0,12,1,225,2,1,-144142.43005545562,-4792314.240205611,4197391.946745396,2.98196,2.24623,-0.745515,-68.125,72.5,79.5,-0.03125,-7.01562,7.14062,0.0644531,0.0175781,0.0390625,4,0,41.39166877484308,-91.72281351543016,11106.33561698699,-28.464508299786992,1.6560980983677762,19.97441673638365,202.138,8561.873061902648,11079.41924856223,150,False,12.835002157373697,False,170.5472059446873,174.9730597350268,False,4.54303842722057,True,False
11,1970-07-23 11:25:31.965251138,2025-09-16,2025-09-26 14:33:16.525,HH,C,2025134154,JASSM,3,101,76,2,2,1,225,9,2,0,1,26,0,0,0,0,-155229.90857108062,-4777975.250947799,4212698.772917271,-2.71083,-1.01109,0.751938,33.625,-53.5,-59.0,0.0,0.0,0.0,0.0,0.0,0.0,2,0,41.57823380557641,-91.8608073257029,10000.002331256552,155.94116622532934,0.0008177204530711,0.0010805337551266,,8561.873061902648,11079.41924856223,150,11,2025-09-16,2025-09-26 14:33:16.516,HH,C,1376350016,HAWK11,1,1,73,2,1,1,225,2,1,0,0,12,1,225,2,1,-144192.00232108062,-4792260.539033736,4197450.661589146,3.03939,2.21593,-0.750404,-66.0,73.875,80.375,-0.1875,-7.26562,7.26562,0.046875,0.0136719,0.0332031,4,0,41.39237570073439,-91.72342495438974,11105.26076422272,-27.21284580505306,1.2949114535848156,22.116464139877998,202.834,8561.873061902648,11079.41924856223,150,False,12.742718250008034,False,171.72577691925824,174.9717774401149,False,3.343660783837056,True,False
11,1970-07-23 11:25:31.974311751,2025-09-16,2025-09-26 14:33:17.431,HH,C,2026266090,JASSM,3,101,76,2,2,1,225,9,2,0,1,26,0,0,0,0,-155198.04431326812,-4778026.118135299,4212642.632292271,-2.71083,-1.01109,0.752034,33.625,-53.5,-59.0,0.0,0.0,0.0,0.0,0.0,0.0,2,0,41.57755840612046,-91.86040583136878,10000.00365243911,155.94372703637168,-0.0034360759044309,0.0010794029278533,,8561.873061902648,11079.41924856223,150,11,2025-09-16,2025-09-26 14:33:17.517,HH,C,1377383950,HAWK11,1,1,73,2,1,1,225,2,1,0,0,12,1,225,2,1,-144248.59411795562,-4792195.319307174,4197521.825651646,3.05243,2.20069,-0.752897,-63.25,75.0,82.0,-0.234375,-7.48438,7.39062,-0.0117188,0.015625,0.0253906,4,0,41.39323392307196,-91.72412439804026,11103.379877218196,-26.581765164523464,1.125968729722875,22.28054176562454,203.274,8561.873061902648,11079.41924856223,150,False,12.638311624622524,False,173.23793583766292,174.9653752937823,False,1.8953594868312906,True,False
11,1970-07-23 11:25:31.984451821,2025-09-16,2025-09-26 14:33:18.445,HH,C,2027400492,JASSM,3,101,76,2,2,1,225,9,2,0,1,26,0,0,0,0,-155166.10974295562,-4778077.094697799,4212586.366667271,-2.71083,-1.01109,0.752034,33.625,-53.5,-59.0,0.0,0.0,0.0,0.0,0.0,0.0,2,0,41.57688152442389,-91.86000346059676,9999.998991355862,155.9439940612795,-0.0026952873592222,0.0010783401156548,,8561.873061902648,11079.41924856223,150,11,2025-09-16,2025-09-26 14:33:18.406,HH,C,1378616714,HAWK11,1,1,73,2,1,1,225,2,1,0,0,12,1,225,2,1,-144312.25427420562,-4792116.711885299,4197607.827604771,3.05051,2.17058,-0.761813,-59.625,76.375,84.0,-0.171875,-7.85938,7.64062,-0.0292969,0.0117188,0.0292969,4,0,41.39427067505945,-91.72491311048358,11101.283462011856,-25.23302246056819,1.0177721452073083,21.01095415438248,203.567,8561.873061902648,11079.41924856223,150,False,12.52249532312501,False,175.18040663031948,174.95115765928722,False,0.7845162851945658,True,False
11,1970-07-23 11:25:31.994469503,2025-09-16,2025-09-26 14:33:19.446,HH,C,2028532560,JASSM,3,101,76,2,2,1,225,9,2,0,1,26,0,0,0,0,-155134.24157889312,-4778127.967744674,4212530.218229771,-2.71083,-1.01109,0.752034,33.625,-53.5,-59.0,0.0,0.0,0.0,0.0,0.0,0.0,2,0,41.57620603518887,-91.85960193394192,10000.00432989686,155.94426052244836,-0.001956026448294,0.0010772746197881,,8561.873061902648,11079.41924856223,150,11,2025-09-16,2025-09-26 14:33:19.516,HH,C,1379929014,HAWK11,1,1,73,2,1,1,225,2,1,0,0,12,1,225,2,1,-144375.95544608062,-4792031.676729049,4197701.724089146,3.05233,2.14681,-0.767853,-56.0,77.625,86.0,-0.046875,-7.67188,7.45312,-0.00390625,0.0175781,0.0214844,4,0,41.39539894204149,-91.72570465145586,11100.513448176647,-24.19781238311824,0.903419801647222,20.189461920095564,204.264,8561.873061902648,11079.41924856223,150,False,12.401905723349332,False,177.0884423221299,174.924839086183,False,2.30586607643252,True,False
11,1970-07-23 11:25:32.003275813,2025-09-16,2025-09-26 14:33:20.327,HH,C,2029667438,JASSM,3,101,76,2,2,1,225,9,2,0,1,26,0,0,0,0,-155102.29333670562,-4778178.963838424,4212473.927214146,-2.71083,-1.01109,0.752034,33.625,-53.5,-59.0,0.0,0.0,0.0,0.0,0.0,0.0,2,0,41.57552886565048,-91.85919940859353,9999.998191576464,155.94452764280197,-0.0012149253454642,0.0010762127228954,,8561.873061902648,11079.41924856223,150,11,2025-09-16,2025-09-26 14:33:20.203,HH,C,1380764112,HAWK11,1,1,73,2,1,1,225,2,1,0,0,12,1,225,2,1,-144414.40271170562,-4791977.114229049,4197762.288542271,3.07084,2.12111,-0.771113,-53.75,78.375,86.875,-0.203125,-7.26562,7.01562,-0.0078125,0.00585938,0.0351562,4,0,41.39612545649961,-91.7261835705912,11100.53074588682,-23.15981086785908,0.6302549822023612,20.239267647702917,204.227,8561.873061902648,11079.41924856223,150,False,12.309094157493051,False,178.21052994659368,174.89530690344677,False,3.3943961058683914,True,False
11,1970-07-23 11:25:32.013290392,2025-09-16,2025-09-26 14:33:21.329,HH,C,2030800596,JASSM,3,101,76,2,2,1,225,9,2,0,1,26,0,0,0,0,-155070.39489920562,-4778229.883760299,4212417.722136021,-2.71083,-1.01109,0.752034,33.625,-53.5,-59.0,0.0,0.0,0.0,0.0,0.0,0.0,2,0,41.57485271819731,-91.85879751784454,9999.999759684788,155.94479433846408,-0.0004749497819175,0.0010751402752182,,8561.873061902648,11079.41924856223,150,11,2025-09-16,2025-09-26 14:33:21.703,HH,C,1382593376,HAWK11,1,1,73,2,1,1,225,2,1,0,0,12,1,225,2,1,-144492.67419608062,-4791855.088838424,4197896.688932896,3.0299,2.06426,-0.768812,-49.25,80.5,88.5,-0.046875,-6.48438,6.23438,-0.121094,-0.0292969,0.0234375,4,0,41.39774455911301,-91.72716253691218,11097.738775225838,-21.06230646979019,-0.4090348625549212,15.629950108570604,204.472,8561.873061902648,11079.41924856223,150,False,12.158637476106003,False,179.48006497163064,174.83551545331844,False,5.659433087453527,True,False
11,1970-07-23 11:25:32.022452343,2025-09-16,2025-09-26 14:33:22.245,HH,C,2031993748,JASSM,3,101,76,2,2,1,225,9,2,0,1,26,0,0,0,0,-155036.80603201812,-4778283.497041549,4212358.540495396,-2.71083,-1.01099,0.752034,33.625,-53.5,-59.0,0.0,0.0,0.0,0.0,0.0,0.0,2,0,41.574140781028255,-91.85837434028984,9999.996977835168,155.9414265803203,-0.0013725377365514,-0.0026819701154735,,8561.873061902648,11079.41924856223,150,11,2025-09-16,2025-09-26 14:33:22.313,HH,C,1383150110,HAWK11,1,1,73,2,1,1,225,2,1,0,0,12,1,225,2,1,-144515.76794608062,-4791816.638643111,4197938.495573521,2.9812,2.04834,-0.762964,-48.25,81.5,88.375,-0.015625,-5.98438,5.75,-0.123047,-0.015625,0.0117188,4,0,41.39825135311225,-91.7274522687212,11095.568845043064,-20.575801479560077,-0.9629147577019675,12.201529233370486,204.802,8561.873061902648,11079.41924856223,150,False,12.07921206070166,False,178.88651367506478,174.79926853357478,False,6.162083769914416,True,False
11,1970-07-23 11:25:32.032497270,2025-09-16,2025-09-26 14:33:23.249,HH,C,2033067490,JASSM,3,101,76,2,2,1,225,9,2,0,1,26,0,0,0,0,-155006.57946951812,-4778331.745088424,4212305.282682896,-2.71074,-1.01099,0.752034,33.625,-53.5,-59.0,0.0,0.0,0.0,0.0,0.0,0.0,2,0,41.5735000969557,-91.8579935308952,10000.000799545587,155.94167927953546,-0.0006713716445385,0.0028084515452105,,8561.873061902648,11079.41924856223,150,11,2025-09-16,2025-09-26 14:33:23.246,HH,C,1384064742,HAWK11,1,1,73,2,1,1,225,2,1,0,0,12,1,225,2,1,-144552.61755545562,-4791752.914033736,4198006.489714146,2.92185,2.02802,-0.750308,-47.25,83.25,88.0,-0.140625,-5.75,5.34375,-0.0722656,-0.015625,0.0117188,4,0,41.39908280165552,-91.7279154441996,11089.065368806994,-20.044966456987694,-1.9422596242960444,7.98835106672327,205.425,8561.873061902648,11079.41924856223,150,True,11.983643863795574,False,178.06208785283644,174.75221222588664,False,6.755673856045712,True,False
11,1970-07-23 11:25:32.041269003,2025-09-16,2025-09-26 14:33:24.126,HH,C,2034141232,JASSM,3,101,76,2,2,1,225,9,2,0,1,26,0,0,0,0,-154976.35290701812,-4778379.993135299,4212252.020964146,-2.71074,-1.01099,0.752034,33.625,-53.5,-59.0,0.0,0.0,0.0,0.0,0.0,0.0,2,0,41.57285938525154,-91.85761272902656,9999.99924718236,155.94193197055813,2.9818540091407644e-05,0.0028073903803001,,8561.873061902648,11079.41924856223,150,11,2025-09-16,2025-09-26 14:33:24.120,HH,C,1384979374,HAWK11,1,1,73,2,1,1,225,2,1,0,0,12,1,225,2,1,-144588.10974295562,-4791688.927705611,4198073.204557896,2.86433,2.02035,-0.747528,-46.625,84.5,88.0,0.0,-6.57812,6.34375,-0.0839844,0.00390625,0.0136719,4,0,41.39990741343326,-91.72836250974876,11079.04687692865,-19.79906296425256,-2.2029821356833468,4.3843849192481095,206.28,8561.873061902648,11079.41924856223,150,True,11.888793287333135,False,177.5099496068899,174.70271105674075,False,7.219875033265855,True,False
11,1970-07-23 11:25:32.050310446,2025-09-16,2025-09-26 14:33:25.031,HH,C,2035275158,JASSM,3,101,76,2,2,1,225,9,2,0,1,26,0,0,0,0,-154944.43200858062,-4778430.944307174,4212195.776823521,-2.71074,-1.01099,0.75213,33.625,-53.5,-59.0,0.0,0.0,0.0,0.0,0.0,0.0,2,0,41.57218278677477,-91.85721059019876,10000.004413324788,155.94449208300412,-0.0042194223753497,0.0028062123373262,,8561.873061902648,11079.41924856223,150,11,2025-09-16,2025-09-26 14:33:25.017,HH,C,1386570040,HAWK11,1,1,73,2,1,1,225,2,1,0,0,12,1,225,2,1,-144649.11364920562,-4791575.121064986,4198190.819792271,2.89817,2.01249,-0.749445,-45.625,86.0,88.375,-0.171875,-6.65625,6.35938,0.0117188,0.00390625,0.0,4,0,41.40136740393273,-91.72913233282284,11058.816747362573,-19.451620103271413,-2.2117289153859447,6.003576236241801,206.928,8561.873061902648,11079.41924856223,150,True,11.751268357774899,False,176.8058062334509,174.62317817027892,False,7.94424048517892,True,False
11,1970-07-23 11:25:32.060471934,2025-09-16,2025-09-26 14:33:26.047,HH,C,2036468156,JASSM,3,101,76,2,2,1,225,9,2,0,1,26,0,0,0,0,-154910.84802420562,-4778484.547822799,4212136.599089146,-2.71074,-1.01099,0.75213,33.625,-53.5,-59.0,0.0,0.0,0.0,0.0,0.0,0.0,2,0,41.57147092707575,-91.85678750977162,10000.001061645067,155.94477282166412,-0.0034403679309055,0.0028050725768033,,8561.873061902648,11079.41924856223,150,11,2025-09-16,2025-09-26 14:33:25.907,HH,C,1387603972,HAWK11,1,1,73,2,1,1,225,2,1,0,0,12,1,225,2,1,-144688.47302420562,-4791499.916963424,4198267.843229771,2.90411,1.99868,-0.746857,-44.875,87.0,88.625,-0.15625,-6.64062,6.125,0.0,0.0,0.0078125,4,0,41.4023276362778,-91.72962967835142,11043.873227966518,-18.955516848366788,-2.545521427196943,5.785471734475463,207.759,8561.873061902648,11079.41924856223,150,True,11.64359440680371,False,176.3128250195984,174.5599982781247,False,8.471631465474447,True,False
11,1970-07-23 11:25:32.070256748,2025-09-16,2025-09-26 14:33:27.025,HH,C,2037601470,JASSM,3,101,76,2,2,1,225,9,2,0,1,26,0,0,0,0,-154878.94372733062,-4778535.469697799,4212080.382292271,-2.71074,-1.01099,0.75213,33.625,-53.5,-59.0,0.0,0.0,0.0,0.0,0.0,0.0,2,0,41.570794681293634,-91.8563855983872,10000.002366459204,155.94503950976664,-0.0027002885814933,0.0028039945601967,,8561.873061902648,11079.41924856223,150,11,2025-09-16,2025-09-26 14:33:26.921,HH,C,1388280004,HAWK11,1,1,73,2,1,1,225,2,1,0,0,12,1,225,2,1,-144713.79528983062,-4791450.082979049,4198318.526823521,2.92348,1.99245,-0.75702,-44.25,87.5,88.75,-0.109375,-7.42188,7.04688,0.00585938,0.0332031,0.00976562,4,0,41.402961667098886,-91.72995018234896,11033.145840363046,-18.51711177473095,-2.0811889433092463,6.63351773236807,209.103,8561.873061902648,11079.41924856223,150,True,11.559209272566768,False,175.98274075424098,174.5096905234751,False,8.854756490933237,True,False
11,1970-07-23 11:25:32.079471417,2025-09-16,2025-09-26 14:33:27.947,HH,C,2038733108,JASSM,3,101,76,2,2,1,225,9,2,0,1,26,0,0,0,0,-154847.08728201812,-4778586.313447799,4212024.247526646,-2.71074,-1.01099,0.75213,33.625,-53.5,-59.0,0.0,0.0,0.0,0.0,0.0,0.0,2,0,41.5701194433532,-91.85598429885172,9999.997880432826,155.94530578832246,-0.0019613148448454,0.0028029156688059,,8561.873061902648,11079.41924856223,150,11,2025-09-16,2025-09-26 14:33:27.906,HH,C,1389989970,HAWK11,1,1,73,2,1,1,225,2,1,0,0,12,1,225,2,1,-144776.09607108062,-4791325.650361861,4198447.593229771,2.8742,1.982,-0.781467,-43.0,85.125,92.375,-0.234375,-8.125,7.59375,-0.0839844,0.00976562,0.0117188,4,0,41.40456192963574,-91.7307394103808,11011.75547200524,-17.656421987414472,-0.8937470035137259,3.3712270416554992,210.093,8561.873061902648,11079.41924856223,150,True,11.4140775679969,False,175.98477427959972,174.40862308618208,False,9.525638620272595,True,False
11,1970-07-23 11:25:32.088237143,2025-09-16,2025-09-26 14:33:28.823,HH,C,2039806850,JASSM,3,101,76,2,2,1,225,9,2,0,1,26,0,0,0,0,-154816.86071951812,-4778634.557588424,4211970.983854771,-2.71074,-1.01099,0.75213,33.625,-53.5,-59.0,0.0,0.0,0.0,0.0,0.0,0.0,2,0,41.56947873478188,-91.85560353820571,9999.99901004648,155.94555843520615,-0.001260133949001,0.002801885614134,,8561.873061902648,11079.41924856223,150,11,2025-09-16,2025-09-26 14:33:28.906,HH,C,1391182968,HAWK11,1,1,73,2,1,1,225,2,1,0,0,12,1,225,2,1,-144818.19958670562,-4791240.060518111,4198538.423307896,2.83863,1.98766,-0.792205,-42.25,86.125,92.125,-0.078125,-7.53125,7.0625,-0.0566406,0.0,-0.0078125,4,0,41.40567664588419,-91.73127334232476,11001.451982744811,-17.675064402355535,-0.2364065937112927,1.5629871468231544,209.959,8561.873061902648,11079.41924856223,150,True,11.302229676178623,False,175.55749180491506,174.32737600961553,False,9.971313515825333,True,False
11,1970-07-23 11:25:32.097294875,2025-09-16,2025-09-26 14:33:29.729,HH,C,2040882090,JASSM,3,101,76,2,2,1,225,9,2,0,1,26,0,0,0,0,-154786.59118826812,-4778682.868135299,4211917.645964146,-2.71074,-1.01099,0.75213,33.625,-53.5,-59.0,0.0,0.0,0.0,0.0,0.0,0.0,2,0,41.56883713714578,-91.85522224467132,10000.001203216492,155.94581143247336,-0.0005579775340262,0.002800862911548,,8561.873061902648,11079.41924856223,150,11,2025-09-16,2025-09-26 14:33:29.705,HH,C,1392137366,HAWK11,1,1,73,2,1,1,225,2,1,0,0,12,1,225,2,1,-144851.75622733062,-4791171.272432174,4198612.378386021,2.79558,1.98382,-0.793356,-42.125,86.125,92.5,-0.09375,-7.10938,6.67188,-0.0253906,-0.00585938,0.015625,4,0,41.4065790357323,-91.73169910815557,10995.229907353929,-17.50810060218548,-0.2228731267590422,-1.060600890071128,210.203,8561.873061902648,11079.41924856223,150,True,11.20381973379421,False,175.488752619104,174.2547167109316,False,10.134271681517003,True,False
11,1970-07-23 11:25:32.106430463,2025-09-16,2025-09-26 14:33:30.643,HH,C,2041956050,JASSM,3,101,76,2,2,1,225,9,2,0,1,26,0,0,0,0,-154756.35876639312,-4778731.120088424,4211864.370573521,-2.71074,-1.01099,0.75213,33.625,-53.5,-59.0,0.0,0.0,0.0,0.0,0.0,0.0,2,0,41.56819630151172,-91.8548414258748,10000.001788550304,155.94606411153978,0.0001433394374302,0.0027998321460915,,8561.873061902648,11079.41924856223,150,11,2025-09-16,2025-09-26 14:33:30.406,HH,C,1392932700,HAWK11,1,1,73,2,1,1,225,2,1,0,0,12,1,225,2,1,-144879.74646170562,-4791113.961885299,4198674.122526646,2.79223,1.98181,-0.801984,-42.125,85.875,92.875,-0.15625,-7.875,7.26562,0.00195312,0.015625,-0.00585938,4,0,41.40733172072699,-91.73205423259284,10990.332235928296,-17.273343613321686,0.220289683447042,-1.3353971007393988,210.313,8561.873061902648,11079.41924856223,150,True,11.114850663858672,False,175.4999222724237,174.18941925079554,False,10.219408525305871,True,False
11,1970-07-23 11:25:32.115491570,2025-09-16,2025-09-26 14:33:31.549,HH,C,2043089556,JASSM,3,101,76,2,2,1,225,9,2,0,1,26,0,0,0,0,-154724.44861014312,-4778782.045869674,4211808.140104771,-2.71074,-1.01099,0.75213,33.625,-53.5,-59.0,0.0,0.0,0.0,0.0,0.0,0.0,2,0,41.56751993430822,-91.85443948338772,9999.999335908558,155.94633080302603,0.0008835453857149,0.0027987564858647,,8561.873061902648,11079.41924856223,150,11,2025-09-16,2025-09-26 14:33:31.907,HH,C,1394761964,HAWK11,1,1,73,2,1,1,225,2,1,0,0,12,1,225,2,1,-144944.67028983062,-4790983.423799361,4198817.356901646,2.75235,1.99552,-0.810709,-42.625,84.875,93.75,-0.09375,-7.67188,7.17188,0.00390625,0.00976562,0.00585938,4,0,41.4090634555354,-91.73287711637676,10984.916064502497,-17.625641764769107,0.8715471357462816,-3.056873012707489,211.01,8561.873061902648,11079.41924856223,150,True,10.962170725276248,False,175.73756239336328,174.06451930821484,False,10.173903965519163,True,False
11,1970-07-23 11:25:32.125250109,2025-09-16,2025-09-26 14:33:32.525,HH,C,2044222478,JASSM,3,101,76,2,2,1,225,9,2,0,1,26,0,0,0,0,-154692.55603201812,-4778832.944307174,4211751.938932896,-2.71074,-1.01099,0.752226,33.625,-53.5,-59.0,0.0,0.0,0.0,0.0,0.0,0.0,2,0,41.56684392267216,-91.85403777041796,9999.998456908685,155.94889203177271,-0.0033694537687469,0.0027976402957756,,8561.873061902648,11079.41924856223,150,11,2025-09-16,2025-09-26 14:33:32.313,HH,C,1395159630,HAWK11,1,1,73,2,1,1,225,2,1,0,0,12,1,225,2,1,-144959.25622733062,-4790954.630830611,4198849.278776646,2.75388,1.99657,-0.814352,-42.875,84.625,94.0,-0.15625,-7.84375,7.29688,0.015625,0.00585938,-0.0136719,4,0,41.40944759513919,-91.73306180036629,10984.45686961635,-17.59610480631836,1.0827157166229633,-2.9245889158463343,211.327,8561.873061902648,11079.41924856223,150,True,10.893931119626908,False,175.83251452118793,174.01758569981453,False,10.13704170293284,True,False
11,1970-07-23 11:25:32.135288275,2025-09-16,2025-09-26 14:33:33.528,HH,C,2045354516,JASSM,3,101,76,2,2,1,225,9,2,0,1,26,0,0,0,0,-154660.68786795562,-4778883.803682174,4211695.780729771,-2.71074,-1.01099,0.752226,33.625,-53.5,-59.0,0.0,0.0,0.0,0.0,0.0,0.0,2,0,41.566168427278335,-91.85363637336675,10000.000698649248,155.94915835433707,-0.0026302076414278,0.002796589560241,,8561.873061902648,11079.41924856223,150,11,2025-09-16,2025-09-26 14:33:33.514,HH,C,1396710528,HAWK11,1,1,73,2,1,1,225,2,1,0,0,12,1,225,2,1,-145014.58435233062,-4790845.529268111,4198971.688932896,2.75551,2.01143,-0.817228,-43.125,83.875,94.25,-0.265625,-7.23438,6.75,0.0117188,0.0078125,-0.015625,4,0,41.41091295758503,-91.73376233052517,10985.883338023312,-18.091118143916525,1.4351999924800802,-2.221936181641884,211.01,8561.873061902648,11079.41924856223,150,True,10.757967954274376,False,175.95108567413436,173.90423972533324,False,10.144008702714215,True,False
11,1970-07-23 11:25:32.143449024,2025-09-16,2025-09-26 14:33:34.344,HH,C,2046428258,JASSM,3,101,76,2,2,1,225,9,2,0,1,26,0,0,0,0,-154630.46130545562,-4778932.041963424,4211642.513151646,-2.71074,-1.01089,0.752226,33.625,-53.5,-59.0,0.0,0.0,0.0,0.0,0.0,0.0,2,0,41.56552771915889,-91.85325566138624,9999.998252784648,155.94576766954182,-0.0036036285516648,-0.0009563692285468,,8561.873061902648,11079.41924856223,150,11,2025-09-16,2025-09-26 14:33:33.907,HH,C,1397147962,HAWK11,1,1,73,2,1,1,225,2,1,0,0,12,1,225,2,1,-145030.15857108062,-4790815.385713424,4199005.663542271,2.75282,2.01306,-0.818954,-43.125,83.75,94.25,0.0,-7.53125,7.04688,-0.0078125,0.0,0.0,4,0,41.41131880798845,-91.7339593220318,10986.635876848724,-18.1175625355038,1.5503456050939324,-2.308255168949765,211.193,8561.873061902648,11079.41924856223,150,True,10.690652809224286,False,175.95745856518877,173.85566359603237,False,10.186665999641017,True,False
11,1970-07-23 11:25:32.154008402,2025-09-16,2025-09-26 14:33:35.400,HH,C,2047502000,JASSM,3,101,76,2,2,1,225,9,2,0,1,26,0,0,0,0,-154600.23376639312,-4778980.280244674,4211589.245573521,-2.71074,-1.01089,0.752226,33.625,-53.5,-59.0,0.0,0.0,0.0,0.0,0.0,0.0,2,0,41.564887009895806,-91.85287494523182,9999.998859574323,155.94602026410635,-0.0029024523318744,-0.0009574058227329,,8561.873061902648,11079.41924856223,150,11,2025-09-16,2025-09-26 14:33:35.514,HH,C,1399056760,HAWK11,1,1,73,2,1,1,225,2,1,0,0,12,1,225,2,1,-145099.79919608062,-4790681.432588424,4199157.300261021,2.76011,2.01488,-0.823268,-43.625,83.125,94.5,-0.296875,-7.35938,6.78125,0.0214844,0.0,0.0,4,0,41.41312670726053,-91.73483990367126,10991.456707000403,-18.100394149546734,1.8088776297734583,-1.8138088257285276,210.729,8561.873061902648,11079.41924856223,150,True,10.5351902754908,False,176.14309608683527,173.7208330753364,False,10.13104460345623,True,False
11,1970-07-23 11:25:32.163270250,2025-09-16,2025-09-26 14:33:36.327,HH,C,2048756076,JASSM,3,101,76,2,2,1,225,9,2,0,1,26,0,0,0,0,-154564.93005545562,-4779036.620088424,4211527.030729771,-2.71074,-1.01089,0.752226,33.625,-53.5,-59.0,0.0,0.0,0.0,0.0,0.0,0.0,2,0,41.564138685488935,-91.8524303038513,10000.001310679145,155.94631526722952,-0.0020835096715755,-0.0009586235714255,,8561.873061902648,11079.41924856223,150,11,2025-09-16,2025-09-26 14:33:36.204,HH,C,1399891858,HAWK11,1,1,73,2,1,1,225,2,1,0,0,12,1,225,2,1,-145130.41833670562,-4790623.252900924,4199223.427214146,2.78983,2.01709,-0.825953,-43.625,82.875,94.625,-0.140625,-7.42188,6.85938,0.046875,0.0078125,-0.0078125,4,0,41.413913660629504,-91.73522682827956,10994.164575835526,-18.128382921528683,1.98362690987162,-0.0190332650846888,210.802,8561.873061902648,11079.41924856223,150,True,10.436837326954507,False,176.12713450800945,173.64268274846734,False,10.219406051339334,True,False
11,1970-07-23 11:25:32.174009487,2025-09-16,2025-09-26 14:33:37.400,HH,C,2049949254,JASSM,3,101,76,2,2,1,225,9,2,0,1,26,0,0,0,0,-154531.34118826812,-4779090.221650924,4211467.835417271,-2.71074,-1.01089,0.752226,33.625,-53.5,-59.0,0.0,0.0,0.0,0.0,0.0,0.0,2,0,41.56342670144634,-91.85200727065272,9999.99818277351,155.9465959300729,-0.0013043399843225,-0.0009597855030066,,8561.873061902648,11079.41924856223,150,11,2025-09-16,2025-09-26 14:33:37.407,HH,C,1401283690,HAWK11,1,1,73,2,1,1,225,2,1,0,0,12,1,225,2,1,-145181.00622733062,-4790526.652314986,4199333.710417271,2.83969,2.00865,-0.828541,-43.25,83.0,94.375,-0.1875,-7.01562,6.59375,0.0351562,0.0,0.015625,4,0,41.415223634161606,-91.73586628518645,10999.7089932042,-17.770395914613022,2.0127021823878914,2.494138153031703,209.959,8561.873061902648,11079.41924856223,150,True,10.308066680907878,False,176.01696298892284,173.53043921587025,False,10.44834315217157,True,False
11,1970-07-23 11:25:32.183449510,2025-09-16,2025-09-26 14:33:38.344,HH,C,2051200444,JASSM,3,101,76,2,2,1,225,9,2,0,1,26,0,0,0,0,-154496.11853201812,-4779146.428682174,4211405.763151646,-2.71074,-1.01089,0.752226,33.625,-53.5,-59.0,0.0,0.0,0.0,0.0,0.0,0.0,2,0,41.56268011048384,-91.85156367143964,9999.999875107069,155.94689023326814,-0.0004872949991542,-0.0009609937062875,,8561.873061902648,11079.41924856223,150,11,2025-09-16,2025-09-26 14:33:38.406,HH,C,1402516456,HAWK11,1,1,73,2,1,1,225,2,1,0,0,12,1,225,2,1,-145225.12341483062,-4790441.239229049,4199430.675261021,2.85531,1.99187,-0.82231,-42.625,83.375,94.125,-0.25,-7.0625,6.0625,-0.0117188,0.0,0.0078125,4,0,41.41637831726364,-91.73642439314804,11003.390433082312,-17.274606975892066,1.4601842590433542,2.698197323613051,209.531,8561.873061902648,11079.41924856223,150,True,10.186960884042357,False,175.79080848432696,173.42299891634286,False,10.786191515011087,True,False
11,1970-07-23 11:25:32.194470413,2025-09-16,2025-09-26 14:33:39.447,HH,C,2052454260,JASSM,3,101,76,2,2,1,225,9,2,0,1,26,0,0,0,0,-154460.82165701812,-4779202.752900924,4211343.558073521,-2.71074,-1.01089,0.752226,33.625,-53.5,-59.0,0.0,0.0,0.0,0.0,0.0,0.0,2,0,41.5619319384008,-91.85111914823236,9999.998379787352,155.9471851451258,0.0003314771742903,-0.0009622073046793,,8561.873061902648,11079.41924856223,150,11,2025-09-16,2025-09-26 14:33:39.514,HH,C,1403828754,HAWK11,1,1,73,2,1,1,225,2,1,0,0,12,1,225,2,1,-145271.82458670562,-4790348.850557174,4199534.606901646,2.8534,1.97816,-0.819529,-41.875,83.625,93.75,-0.0625,-6.75,5.75,-0.00976562,0.00195312,0.00195312,4,0,41.41762105603077,-91.73701592626982,11005.240661191136,-16.819516922814238,1.1380206033704554,2.023900390623123,208.932,8561.873061902648,11079.41924856223,150,True,10.060476653066651,False,175.5242612001691,173.30515215978937,False,11.167192830803932,True,False
11,1970-07-23 11:25:32.205488711,2025-09-16,2025-09-26 14:33:40.548,HH,C,2053707308,JASSM,3,101,76,2,2,1,225,9,2,0,1,26,0,0,0,0,-154425.54724295562,-4779259.041963424,4211281.390104771,-2.71074,-1.01089,0.752322,33.625,-53.5,-59.0,0.0,0.0,0.0,0.0,0.0,0.0,2,0,41.56118421984625,-91.85067491787416,9999.997445235062,155.9497734528265,-0.003839810640523,-0.0009634822660933,,8561.873061902648,11079.41924856223,150,11,2025-09-16,2025-09-26 14:33:40.312,HH,C,1404703620,HAWK11,1,1,73,2,1,1,225,2,1,0,0,12,1,225,2,1,-145302.50232108062,-4790287.367158736,4199603.087370396,2.84534,1.97519,-0.816557,-41.5,84.0,93.125,0.078125,-6.82812,5.82812,-0.0175781,-0.00390625,-0.00390625,4,0,41.41844353201778,-91.7374048009624,11004.962245244067,-16.76330648079853,0.9404898950208518,1.4392525904224227,208.651,8561.873061902648,11079.41924856223,150,True,9.960390763835377,False,175.41874129548015,173.21372793449152,False,11.3483509613663,True,False
11,1970-07-23 11:25:32.215253337,2025-09-16,2025-09-26 14:33:41.525,HH,C,2054959832,JASSM,3,101,76,2,2,1,225,9,2,0,1,26,0,0,0,0,-154390.28650076812,-4779315.307588424,4211219.249479771,-2.71064,-1.01089,0.752322,33.625,-53.5,-59.0,0.0,0.0,0.0,0.0,0.0,0.0,2,0,41.56043682082897,-91.85023087055596,10000.00386514916,155.9500680403595,-0.0030218863427238,0.0045268143354232,,8561.873061902648,11079.41924856223,150,11,2025-09-16,2025-09-26 14:33:41.702,HH,C,1406413586,HAWK11,1,1,73,2,1,1,225,2,1,0,0,12,1,225,2,1,-145361.51599295562,-4790166.832002486,4199736.325651646,2.83269,1.96838,-0.815598,-41.0,84.25,92.5,0.0,-7.3125,6.23438,-0.00390625,-0.00976562,0.0078125,4,0,41.4200493103979,-91.73815371324768,11002.144753361536,-16.52727601404894,0.8062504616656739,0.4337286896938404,208.003,8561.873061902648,11079.41924856223,150,True,9.811708633668085,False,175.25320748098392,173.06129823794305,False,11.64278846595119,True,False
11,1970-07-23 11:25:32.226274929,2025-09-16,2025-09-26 14:33:42.627,HH,C,2056272054,JASSM,3,101,76,2,2,1,225,9,2,0,1,26,0,0,0,0,-154353.34607108062,-4779374.250947799,4211154.144011021,-2.71064,-1.01089,0.752322,33.625,-53.5,-59.0,0.0,0.0,0.0,0.0,0.0,0.0,2,0,41.55965380015984,-91.84976568247448,9999.998681269431,155.95037664831992,-0.0021649843961874,0.0045255754483129,,8561.873061902648,11079.41924856223,150,11,2025-09-16,2025-09-26 14:33:43.001,HH,C,1407964484,HAWK11,1,1,73,2,1,1,225,2,1,0,0,12,1,225,2,1,-145414.20739920562,-4790058.428682174,4199856.493620396,2.81927,1.96455,-0.818475,-40.75,81.875,94.375,-0.140625,-7.9375,6.78125,-0.0195312,0.00390625,0.00585938,4,0,41.42149582747725,-91.73882270771168,11000.33621032055,-16.33364913538849,0.9178569085286016,-0.4925257511214775,207.429,8561.873061902648,11079.41924856223,150,True,9.670816514507672,False,175.03339186044812,172.9132821787926,False,12.039903916603405,True,False
11,1970-07-23 11:25:32.237286894,2025-09-16,2025-09-26 14:33:43.728,HH,C,2057584200,JASSM,3,101,76,2,2,1,225,9,2,0,1,26,0,0,0,0,-154316.40759451812,-4779433.192354049,4211089.042448521,-2.71064,-1.01089,0.752322,33.625,-53.5,-59.0,0.0,0.0,0.0,0.0,0.0,0.0,2,0,41.558870815084646,-91.84930052976794,10000.002036585223,155.95068522803734,-0.0013081240156627,0.0045243353609161,,8561.873061902648,11079.41924856223,150,11,2025-09-16,2025-09-26 14:33:43.906,HH,C,1408998416,HAWK11,1,1,73,2,1,1,225,2,1,0,0,12,1,225,2,1,-145449.52380545562,-4789985.499971236,4199937.522917271,2.8393,1.96484,-0.821543,-40.375,83.25,92.75,-0.1875,-7.65625,6.625,0.0371094,0.00195312,0.00195312,4,0,41.42247025278118,-91.73927121631095,10999.521522788598,-16.29036611332198,1.0895532300815998,0.6683962090644422,206.965,8561.873061902648,11079.41924856223,150,True,9.559356358082836,False,175.05351412476523,172.79785897157277,False,12.136372004683855,True,False
11,1970-07-23 11:25:32.248333669,2025-09-16,2025-09-26 14:33:44.833,HH,C,2058897354,JASSM,3,101,76,2,2,1,225,9,2,0,1,26,0,0,0,0,-154279.44079764312,-4779492.176729049,4211023.888151646,-2.71064,-1.01089,0.752322,33.625,-53.5,-59.0,0.0,0.0,0.0,0.0,0.0,0.0,2,0,41.5580872219636,-91.84883503253438,9999.998483415324,155.95099403153174,-0.0004506015844913,0.0045230913754689,,8561.873061902648,11079.41924856223,150,11,2025-09-16,2025-09-26 14:33:45.002,HH,C,1410390248,HAWK11,1,1,73,2,1,1,225,2,1,0,0,12,1,225,2,1,-145495.93200858062,-4789889.262666549,4200045.204557896,2.87391,1.95755,-0.825953,-39.75,83.0,92.625,-0.203125,-7.48438,6.5,0.0273438,0.0117188,0.00976562,4,0,41.42376123761972,-91.7398607547377,11000.08049157923,-15.943244854597436,1.2445541033252716,2.3522700239583334,206.354,8561.873061902648,11079.41924856223,150,True,9.428373099876085,False,174.82555667108403,172.65254559638703,False,12.511006940976708,True,False
11,1970-07-23 11:25:32.258452028,2025-09-16,2025-09-26 14:33:45.845,HH,C,2060148298,JASSM,3,101,76,2,2,1,225,9,2,0,1,26,0,0,0,0,-154244.22497733062,-4779548.366182174,4210961.821745396,-2.71064,-1.01089,0.752322,33.625,-53.5,-59.0,0.0,0.0,0.0,0.0,0.0,0.0,2,0,41.55734076110211,-91.84839159500136,10000.000733524956,155.95128819652226,0.0003662865564593,0.0045219134694401,,8561.873061902648,11079.41924856223,150,11,2025-09-16,2025-09-26 14:33:45.812,HH,C,1411344646,HAWK11,1,1,73,2,1,1,225,2,1,0,0,12,1,225,2,1,-145527.62927420562,-4789823.120088424,4200119.331511021,2.89261,1.94653,-0.825473,-39.25,82.875,92.375,-0.171875,-7.17188,6.20312,-0.00195312,-0.00976562,0.00195312,4,0,41.42464934961377,-91.7402635781982,11000.714677494188,-15.543086340846134,1.0907677347419336,2.967315307199939,205.706,8561.873061902648,11079.41924856223,150,True,9.324868220986898,False,174.6541381690351,172.53858383628028,False,12.793951806539404,True,False
11,1970-07-23 11:25:32.269490518,2025-09-16,2025-09-26 14:33:46.949,HH,C,2061341344,JASSM,3,101,76,2,2,1,225,9,2,0,1,26,0,0,0,0,-154210.63903983062,-4779601.954072799,4210902.626432896,-2.71064,-1.0108,0.752322,33.625,-53.5,-59.0,0.0,0.0,0.0,0.0,0.0,0.0,2,0,41.55662884237751,-91.84796869082864,10000.001194844366,155.94792589327426,-0.0005293120871445,0.00076824951786,,8561.873061902648,11079.41924856223,150,11,2025-09-16,2025-09-26 14:33:46.906,HH,C,1412617178,HAWK11,1,1,73,2,1,1,225,2,1,0,0,12,1,225,2,1,-145569.34607108062,-4789734.192354049,4200218.464323521,2.89539,1.9355,-0.825282,-38.5,83.0,92.0,-0.265625,-7.48438,6.32812,-0.00585938,-0.00390625,0.00976562,4,0,41.42583998855476,-91.74079443309346,11000.358854818573,-15.136837318011189,0.9562062754206908,2.669763789672222,205.669,8561.873061902648,11079.41924856223,150,True,9.20516764141552,False,174.37031393120202,172.3955412830168,False,13.210189658111302,True,False
11,1970-07-23 11:25:32.278278447,2025-09-16,2025-09-26 14:33:47.827,HH,C,2062415424,JASSM,3,101,76,2,2,1,225,9,2,0,1,26,0,0,0,0,-154180.40173514312,-4779650.198213424,4210849.331511021,-2.71064,-1.0108,0.752418,33.625,-53.5,-59.0,0.0,0.0,0.0,0.0,0.0,0.0,2,0,41.5559878974039,-91.84758795991748,9999.9993718537,155.95047380188996,-0.0048204105040342,0.0007670960657782,,8561.873061902648,11079.41924856223,150,11,2025-09-16,2025-09-26 14:33:47.702,HH,C,1413611344,HAWK11,1,1,73,2,1,1,225,2,1,0,0,12,1,225,2,1,-145600.87146170562,-4789665.605439986,4200294.931120396,2.91485,1.92543,-0.824323,-37.875,82.875,92.125,-0.359375,-7.46875,6.25,0.0234375,0.00195312,-0.00585938,4,0,41.426758464341866,-91.74119611600288,11000.062395599083,-14.777512266403196,0.7928987154602779,3.3668182242716846,205.278,8561.873061902648,11079.41924856223,150,True,9.107085352214753,False,174.1029879057891,172.27561623037397,False,13.601505314625483,True,False
11,1970-07-23 11:25:32.286426846,2025-09-16,2025-09-26 14:33:48.642,HH,C,2063489592,JASSM,3,101,76,2,2,1,225,9,2,0,1,26,0,0,0,0,-154150.16247733062,-4779698.444307174,4210796.034636021,-2.71064,-1.0108,0.752418,33.625,-53.5,-59.0,0.0,0.0,0.0,0.0,0.0,0.0,2,0,41.55534692666718,-91.84720721238624,10000.001068605545,155.95072636985694,-0.0041189687186695,0.000766070352371,,8561.873061902648,11079.41924856223,150,11,2025-09-16,2025-09-26 14:33:48.906,HH,C,1415042942,HAWK11,1,1,73,2,1,1,225,2,1,0,0,12,1,225,2,1,-145645.70349295562,-4789566.173799361,4200405.472136021,2.94438,1.91518,-0.826912,-36.875,83.0,91.875,-0.171875,-7.34375,6.29688,0.0117188,-0.00390625,0.00390625,4,0,41.428088029304966,-91.7417680544908,10998.89591246346,-14.353759333682945,0.825930086609973,4.632793155774522,204.765,8561.873061902648,11079.41924856223,150,True,8.984047979708237,False,173.69512679240674,172.11182183131538,False,14.163893271049753,True,False
11,1970-07-23 11:25:32.295487784,2025-09-16,2025-09-26 14:33:49.548,HH,C,2064564206,JASSM,3,101,76,2,2,1,225,9,2,0,1,26,0,0,0,0,-154119.91052420562,-4779746.709932174,4210742.712370396,-2.71064,-1.0108,0.752418,33.625,-53.5,-59.0,0.0,0.0,0.0,0.0,0.0,0.0,2,0,41.55470566951347,-91.84682631281366,9999.997562716764,155.9509790354787,-0.0034172178564086,0.0007650374909981,,8561.873061902648,11079.41924856223,150,11,2025-09-16,2025-09-26 14:33:49.312,HH,C,1415520142,HAWK11,1,1,73,2,1,1,225,2,1,0,0,12,1,225,2,1,-145660.66247733062,-4789532.449189986,4200442.845182896,2.9533,1.90894,-0.827774,-36.5,82.75,92.0,-0.015625,-7.23438,6.28125,0.00585938,0.00195312,0.0195312,4,0,41.42853822013203,-91.74195909589872,10998.225056995105,-14.107864401770074,0.8081583851342735,4.884359041705451,204.765,8561.873061902648,11079.41924856223,150,True,8.914892722888503,False,173.5420929241998,172.02975700930034,False,14.406374657154556,True,False
11,1970-07-23 11:25:32.305268300,2025-09-16,2025-09-26 14:33:50.526,HH,C,2065695952,JASSM,3,101,76,2,2,1,225,9,2,0,1,26,0,0,0,0,-154088.05017264312,-4779797.541963424,4210686.556120396,-2.71064,-1.0108,0.752418,33.625,-53.5,-59.0,0.0,0.0,0.0,0.0,0.0,0.0,2,0,41.554030322338,-91.84642517007616,10000.00009527259,155.95124512572275,-0.0026781616086647,0.0007639518091285,,8561.873061902648,11079.41924856223,150,11,2025-09-16,2025-09-26 14:33:50.407,HH,C,1416792674,HAWK11,1,1,73,2,1,1,225,2,1,0,0,12,1,225,2,1,-145698.64685233062,-4789444.539033736,4200540.419401646,2.98982,1.89159,-0.827199,-35.375,83.0,91.875,-0.359375,-7.35938,6.1875,0.0253906,0.00195312,0.0,4,0,41.42971295346138,-91.74244503414184,10996.74109826988,-13.46787902558026,0.5999275582753838,6.253175518092918,204.264,8561.873061902648,11079.41924856223,150,True,8.799658046285137,False,173.05552401717569,171.86770216313897,False,15.045415797086521,True,False
11,1970-07-23 11:25:32.314329190,2025-09-16,2025-09-26 14:33:51.432,HH,C,2066771590,JASSM,3,101,76,2,2,1,225,9,2,0,1,26,0,0,0,0,-154057.76892264312,-4779845.852510299,4210633.183073521,-2.71064,-1.0108,0.752418,33.625,-53.5,-59.0,0.0,0.0,0.0,0.0,0.0,0.0,2,0,41.55338845806544,-91.84604391780891,10000.000431379827,155.95149801871693,-0.0019757463936432,0.0007629242219305,,8561.873061902648,11079.41924856223,150,11,2025-09-16,2025-09-26 14:33:51.312,HH,C,1417786840,HAWK11,1,1,73,2,1,1,225,2,1,0,0,12,1,225,2,1,-145728.07068045562,-4789374.519502486,4200617.847136021,3.01044,1.87759,-0.829596,-34.25,83.125,91.75,-0.140625,-7.59375,6.65625,-0.0214844,0.00585938,0.015625,4,0,41.43064681450289,-91.7428221673311,10994.876232149963,-12.90879769377721,0.5965710249042097,6.849154915738712,203.934,8561.873061902648,11079.41924856223,150,True,8.701502594695837,False,172.57480503390696,171.72703387448118,False,15.659671417154804,True,False
11,1970-07-23 11:25:32.323446556,2025-09-16,2025-09-26 14:33:52.344,HH,C,2067903094,JASSM,3,101,76,2,2,1,225,9,2,0,1,26,0,0,0,0,-154025.91540701812,-4779896.670869674,4210577.036589146,-2.71064,-1.0108,0.752418,33.625,-53.5,-59.0,0.0,0.0,0.0,0.0,0.0,0.0,2,0,41.55271325403132,-91.84564287849064,9999.997989401849,155.95176403343348,-0.0012368498985594,0.0007618384757393,,8561.873061902648,11079.41924856223,150,11,2025-09-16,2025-09-26 14:33:52.202,HH,C,1418860538,HAWK11,1,1,73,2,1,1,225,2,1,0,0,12,1,225,2,1,-145758.48278983062,-4789299.442354049,4200700.614714146,3.00948,1.85612,-0.827391,-33.25,83.375,91.625,-0.234375,-7.32812,6.40625,0.0136719,0.0,0.0117188,4,0,41.43164662816115,-91.7432129632765,10992.249308464292,-12.132041898156864,0.2749727215729076,5.893423471566091,203.384,8561.873061902648,11079.41924856223,150,True,8.597564437475498,False,172.13475319008734,171.57045552771288,False,16.245968769232366,True,False
11,1970-07-23 11:25:32.333488104,2025-09-16,2025-09-26 14:33:53.348,HH,C,2068977920,JASSM,3,101,76,2,2,1,225,9,2,0,1,26,0,0,0,0,-153995.65759451812,-4779944.944307174,4210523.702604771,-2.71064,-1.0108,0.752418,33.625,-53.5,-59.0,0.0,0.0,0.0,0.0,0.0,0.0,2,0,41.552071866993856,-91.84526193666404,10000.000566580493,155.95201671392803,-0.0005349627890481,0.0007608048777666,,8561.873061902648,11079.41924856223,150,11,2025-09-16,2025-09-26 14:33:53.202,HH,C,1420172838,HAWK11,1,1,73,2,1,1,225,2,1,0,0,12,1,225,2,1,-145794.37146170562,-4789207.646455611,4200801.433073521,3.02568,1.84691,-0.824994,-31.875,83.625,91.5,-0.15625,-7.17188,6.15625,-0.00976562,-0.0175781,0.00585938,4,0,41.43286675358713,-91.74367531264228,10988.123639449292,-11.81603801930178,0.060548981430096,6.4349929790429705,203.091,8561.873061902648,11079.41924856223,150,True,8.48301259186412,False,171.52933067768504,171.38282134967392,False,17.02818379657346,True,False
11,1970-07-23 11:25:32.342267519,2025-09-16,2025-09-26 14:33:54.226,HH,C,2070111118,JASSM,3,101,76,2,2,1,225,9,2,0,1,26,0,0,0,0,-153963.75622733062,-4779995.838838424,4210467.470182896,-2.71064,-1.0108,0.752418,33.625,-53.5,-59.0,0.0,0.0,0.0,0.0,0.0,0.0,2,0,41.55139563604313,-91.84486031125996,10000.001031315973,155.95228311046657,0.0002050527234219,0.0007597134727974,,8561.873061902648,11079.41924856223,150,11,2025-09-16,2025-09-26 14:33:54.500,HH,C,1421723736,HAWK11,1,1,73,2,1,1,225,2,1,0,0,12,1,225,2,1,-145834.12341483062,-4789099.327119674,4200919.739714146,3.06556,1.81892,-0.822981,-30.125,84.0,91.5,-0.234375,-7.23438,6.29688,0.0429688,-0.00195312,0.00976562,4,0,41.434302524885965,-91.74418987011256,10981.64285695096,-10.777510780352038,-0.286178394488875,7.541058000004462,202.761,8561.873061902648,11079.41924856223,150,True,8.354143287263794,False,170.73789391394345,171.15349319014828,False,18.037902289806095,True,False
11,1970-07-23 11:25:32.351310036,2025-09-16,2025-09-26 14:33:55.131,HH,C,2071185210,JASSM,3,101,76,2,2,1,225,9,2,0,1,26,0,0,0,0,-153933.51892264312,-4780044.077119674,4210414.171354771,-2.71064,-1.0108,0.752418,33.625,-53.5,-59.0,0.0,0.0,0.0,0.0,0.0,0.0,2,0,41.55075468884626,-91.84447964402209,10000.001903468425,155.95253560224907,0.0009064568068551,0.0007586831137479,,8561.873061902648,11079.41924856223,150,11,2025-09-16,2025-09-26 14:33:55.109,HH,C,1422240702,HAWK11,1,1,73,2,1,1,225,2,1,0,0,12,1,225,2,1,-145847.20153983062,-4789062.655244674,4200959.722136021,3.0811,1.81364,-0.823172,-29.625,84.0,91.5,-0.3125,-7.375,6.28125,0.0136719,-0.0136719,0.00976562,4,0,41.43478820165145,-91.74435953803484,10979.270023735087,-10.574275559710353,-0.3168832033419108,8.208387645638256,202.504,8561.873061902648,11079.41924856223,150,True,8.28396445552692,False,170.51999870606184,171.04390490764888,False,18.36527882565658,True,False
11,1970-07-23 11:25:32.360466709,2025-09-16,2025-09-26 14:33:56.046,HH,C,2072317910,JASSM,3,101,76,2,2,1,225,9,2,0,1,26,0,0,0,0,-153901.63122733062,-4780094.946260299,4210357.964323521,-2.71064,-1.0108,0.752513,33.625,-53.375,-59.0,0.0,0.0,0.0,0.0,0.0,0.0,2,0,41.55007877486874,-91.84407820841756,10000.00318273841,155.95509578878682,-0.00334327968008,0.0007575694785368,,8561.873061902648,11079.41924856223,150,11,2025-09-16,2025-09-26 14:33:56.110,HH,C,1423592768,HAWK11,1,1,73,2,1,1,225,2,1,0,0,12,1,225,2,1,-145880.01989920562,-4788966.660127486,4201063.901823521,3.08944,1.79543,-0.823844,-27.875,84.25,91.5,-0.15625,-7.39062,6.34375,-0.0136719,-0.00585938,0.015625,4,0,41.43605655470835,-91.74478676114428,10971.91511192652,-9.87138969996416,-0.4167389941707421,7.916278934247893,202.358,8561.873061902648,11079.41924856223,150,True,8.165876782498966,False,169.71026057649294,170.83210369138558,False,19.368423828581744,True,False
11,1970-07-23 11:25:32.370246425,2025-09-16,2025-09-26 14:33:57.024,HH,C,2073450760,JASSM,3,101,76,2,2,1,225,9,2,0,1,26,0,0,0,0,-153869.73962576812,-4780145.821260299,4210301.747526646,-2.71064,-1.0108,0.752513,33.625,-53.375,-59.0,0.0,0.0,0.0,0.0,0.0,0.0,2,0,41.54940275943179,-91.84367673214486,10000.000765332925,155.95536207600784,-0.0026035026219135,0.0007565121920534,,8561.873061902648,11079.41924856223,150,11,2025-09-16,2025-09-26 14:33:56.906,HH,C,1424547166,HAWK11,1,1,73,2,1,1,225,2,1,0,0,12,1,225,2,1,-145902.01208670562,-4788899.014619674,4201137.185026646,3.07371,1.77808,-0.823364,-26.875,84.375,91.5,0.0,-7.51562,6.46875,-0.0175781,0.0,0.0195312,4,0,41.43694966290398,-91.74507426881569,10966.372088101236,-9.212298937299629,-0.5663892477424826,6.280403784778759,202.541,8561.873061902648,11079.41924856223,150,True,8.070174949933376,False,169.26141158361807,170.65128079399403,False,19.994839511052252,True,False
11,1970-07-23 11:25:32.380288870,2025-09-16,2025-09-26 14:33:58.028,HH,C,2074585234,JASSM,3,101,76,2,2,1,225,9,2,0,1,26,0,0,0,0,-153837.80212576812,-4780196.768525924,4210245.448698521,-2.71064,-1.0108,0.752513,33.625,-53.375,-59.0,0.0,0.0,0.0,0.0,0.0,0.0,2,0,41.54872576770782,-91.84327468681718,9999.99704995156,155.95562873709983,-0.0018626591832396,0.000755452353631,,8561.873061902648,11079.41924856223,150,11,2025-09-16,2025-09-26 14:33:57.906,HH,C,1425581098,HAWK11,1,1,73,2,1,1,225,2,1,0,0,12,1,225,2,1,-145924.49060233062,-4788826.168916549,4201216.030729771,3.07093,1.76245,-0.82346,-25.75,84.5,91.625,-0.03125,-7.54688,6.40625,-0.00585938,0.00585938,0.00585938,4,0,41.43791116652374,-91.74536949190276,10960.1643842434,-8.611858097071698,-0.6639815178185137,5.457983487716661,202.174,8561.873061902648,11079.41924856223,150,True,7.9708780622367845,False,168.74997563431913,170.45194806738874,False,20.705959050723425,True,False
11,1970-07-23 11:25:32.388806531,2025-09-16,2025-09-26 14:33:58.880,HH,C,2075659884,JASSM,3,101,76,2,2,1,225,9,2,0,1,26,0,0,0,0,-153807.54919608062,-4780245.030244674,4210192.120573521,-2.71054,-1.0107,0.752513,33.625,-53.375,-59.0,0.0,0.0,0.0,0.0,0.0,0.0,2,0,41.54808448082069,-91.84289385478634,10000.00350343666,155.95223924595814,-0.0028355116429164,0.0024927593990382,,8561.873061902648,11079.41924856223,150,11,2025-09-16,2025-09-26 14:33:58.906,HH,C,1426933164,HAWK11,1,1,73,2,1,1,225,2,1,0,0,12,1,225,2,1,-145953.10974295562,-4788729.776338424,4201320.702604771,3.0486,1.75257,-0.827295,-24.625,84.375,92.0,-0.25,-7.625,6.54688,-0.0214844,0.0,0.00976562,4,0,41.43918596593538,-91.74574670488802,10952.613185926346,-8.19786777295246,-0.5078340904239618,3.758182983302197,201.588,8561.873061902648,11079.41924856223,150,True,7.856308441342349,False,168.2426915676965,170.1970233293742,False,21.481770640520605,True,False
11,1970-07-23 11:25:32.398804538,2025-09-16,2025-09-26 14:33:59.880,HH,C,2076733626,JASSM,3,101,76,2,2,1,225,9,2,0,1,26,0,0,0,0,-153777.32068045562,-4780293.248994674,4210138.835417271,-2.71054,-1.0107,0.752513,33.625,-53.375,-59.0,0.0,0.0,0.0,0.0,0.0,0.0,2,0,41.5474437336611,-91.84251333915306,10000.003068104452,155.95249162078167,-0.0021343305251004,0.0024917197273284,,8561.873061902648,11079.41924856223,150,11,2025-09-16,2025-09-26 14:33:59.702,HH,C,1427927330,HAWK11,1,1,73,2,1,1,225,2,1,0,0,12,1,225,2,1,-145973.55700858062,-4788659.680635299,4201397.247526646,3.04505,1.74021,-0.832376,-24.125,84.25,92.0,0.140625,-7.95312,6.9375,-0.0195312,0.015625,0.0078125,4,0,41.44011594427396,-91.7460166652249,10948.032197216393,-7.680724483638572,-0.2925647593683731,3.028550860981953,201.698,8561.873061902648,11079.41924856223,150,True,7.761784325876438,False,168.03014344407302,169.9900752851727,False,21.90475506212662,True,False
11,1970-07-23 11:25:32.408267701,2025-09-16,2025-09-26 14:34:00.826,HH,C,2077924684,JASSM,3,101,76,2,2,1,225,9,2,0,1,26,0,0,0,0,-153743.79040701812,-4780346.735322799,4210079.727995396,-2.71054,-1.0107,0.752513,33.625,-53.375,-59.125,0.0,0.0,0.0,0.0,0.0,0.0,2,0,41.5467329792849,-91.84209126957154,10000.00364051647,155.9527715522842,-0.001356544216921,0.002490558940313,,8561.873061902648,11079.41924856223,150,11,2025-09-16,2025-09-26 14:34:00.906,HH,C,1429398694,HAWK11,1,1,73,2,1,1,225,2,1,0,0,12,1,225,2,1,-146002.83239920562,-4788557.209932174,4201510.503386021,3.01418,1.73503,-0.847141,-23.5,83.0,92.875,-0.203125,-8.26562,7.29688,-0.0292969,0.00195312,0.00195312,4,0,41.44148471758657,-91.74640396425454,10944.246787522969,-7.360774810786008,0.5164900023299607,1.0396391159132163,201.441,8561.873061902648,11079.41924856223,150,True,7.638104907929017,False,167.79448825714968,169.66234723704198,False,22.505253241599203,True,False
11,1970-07-23 11:25:32.417326906,2025-09-16,2025-09-26 14:34:01.732,HH,C,2079059116,JASSM,3,101,76,2,2,1,225,9,2,0,1,26,0,0,0,0,-153711.85388358062,-4780397.676729049,4210023.429167271,-2.71054,-1.0107,0.752513,33.625,-53.375,-59.125,0.0,0.0,0.0,0.0,0.0,0.0,2,0,41.54605601647072,-91.84168927127104,9999.999402570847,155.95303816814376,-0.0006157365065292,0.0024894565913948,,8561.873061902648,11079.41924856223,150,11,2025-09-16,2025-09-26 14:34:01.812,HH,C,1430353094,HAWK11,1,1,73,2,1,1,225,2,1,0,0,12,1,225,2,1,-146021.41833670562,-4788491.190400924,4201584.770964146,3.00229,1.7334,-0.850976,-23.25,82.375,93.125,0.046875,-7.73438,7.07812,0.00585938,0.00195312,-0.00195312,4,0,41.44237540224679,-91.74665020715268,10944.615535807456,-7.268141869601066,0.7259073431865246,0.2894690301899658,200.891,8561.873061902648,11079.41924856223,150,True,7.544045612533449,False,167.69303804575733,169.4426234509735,False,22.840260395155425,True,False
11,1970-07-23 11:25:32.427468326,2025-09-16,2025-09-26 14:34:02.746,HH,C,2080251386,JASSM,3,101,76,2,2,1,225,9,2,0,1,26,0,0,0,0,-153678.28943045562,-4780451.215791549,4209964.259245396,-2.71054,-1.0107,0.752513,33.625,-53.375,-59.125,0.0,0.0,0.0,0.0,0.0,0.0,2,0,41.54534452989955,-91.8412667902063,9999.998226430786,155.95331836486545,0.0001628467164835,0.002488292299316,,8561.873061902648,11079.41924856223,150,11,2025-09-16,2025-09-26 14:34:02.406,HH,C,1431188192,HAWK11,1,1,73,2,1,1,225,2,1,0,0,12,1,225,2,1,-146037.73474295562,-4788433.618135299,4201649.841276646,2.99634,1.73369,-0.848963,-23.125,82.125,93.125,-0.375,-7.42188,6.5,-0.015625,0.00390625,0.0,4,0,41.44315416246887,-91.7468662462544,10945.61260116812,-7.295657004406301,0.6141128523496873,-0.0389879657569319,200.708,8561.873061902648,11079.41924856223,150,True,7.454168490777277,False,167.6471634058356,169.2347694389946,False,23.097511710945575,True,False
11,1970-07-23 11:25:32.437227052,2025-09-16,2025-09-26 14:34:03.722,HH,C,2081444926,JASSM,3,101,76,2,2,1,225,9,2,0,1,26,0,0,0,0,-153644.68982108062,-4780504.811494674,4209905.026823521,-2.71054,-1.0107,0.752609,33.625,-53.375,-59.125,0.0,0.0,0.0,0.0,0.0,0.0,2,0,41.5446322895722,-91.84084387568524,10000.001155003436,155.9558945223058,-0.0040501074093205,0.0024870618545384,,8561.873061902648,11079.41924856223,150,11,2025-09-16,2025-09-26 14:34:03.702,HH,C,1432619792,HAWK11,1,1,73,2,1,1,225,2,1,0,0,12,1,225,2,1,-146065.43005545562,-4788334.895479049,4201761.327604771,2.99347,1.72736,-0.853948,-23.0,82.0,92.625,-0.078125,-7.46875,6.54688,0.00390625,0.00585938,-0.0117188,4,0,41.44448896799921,-91.74723332542877,10947.107008156592,-7.018922448144889,0.8643698930561621,-0.472816064723156,199.852,8561.873061902648,11079.41924856223,150,True,7.333105416928712,False,167.6343162026632,168.91620480522388,False,23.424599375940087,True,False
11,1970-07-23 11:25:32.447267530,2025-09-16,2025-09-26 14:34:04.726,HH,C,2082637582,JASSM,3,101,76,2,2,1,225,9,2,0,1,26,0,0,0,0,-153611.11364920562,-4780558.366182174,4209845.835417271,-2.71054,-1.0107,0.752609,33.625,-53.375,-59.125,0.0,0.0,0.0,0.0,0.0,0.0,2,0,41.54392056404628,-91.8404212668382,9999.998379252636,155.9561747959823,-0.0032712641044036,0.002485932716877,,8561.873061902648,11079.41924856223,150,11,2025-09-16,2025-09-26 14:34:04.419,HH,C,1433454890,HAWK11,1,1,73,2,1,1,225,2,1,0,0,12,1,225,2,1,-146081.23278983062,-4788277.873994674,4201825.769011021,3.00267,1.72947,-0.853181,-22.75,81.75,92.625,-0.046875,-7.3125,6.375,0.00390625,0.00195312,0.0,4,0,41.44526029826052,-91.74744303677876,10948.064638027394,-7.103878602111567,0.8327792146581818,0.1444075902394819,199.474,8561.873061902648,11079.41924856223,150,True,7.243996294021456,False,167.53228751587514,168.69596441221222,False,23.7503409940631,True,False
11,1970-07-23 11:25:32.457306516,2025-09-16,2025-09-26 14:34:05.730,HH,C,2083830310,JASSM,3,101,76,2,2,1,225,9,2,0,1,26,0,0,0,0,-153577.53650076812,-4780611.922822799,4209786.642057896,-2.71054,-1.0107,0.752609,33.625,-53.375,-59.125,0.0,0.0,0.0,0.0,0.0,0.0,2,0,41.54320881225951,-91.83999865481609,9999.999932480576,155.95645506782003,-0.0024923944249216,0.0024848020392419,,8561.873061902648,11079.41924856223,150,11,2025-09-16,2025-09-26 14:34:05.906,HH,C,1435323922,HAWK11,1,1,73,2,1,1,225,2,1,0,0,12,1,225,2,1,-146117.22107108062,-4788149.405244674,4201970.462370396,3.01542,1.72419,-0.855194,-22.625,81.75,91.875,-0.1875,-7.17188,5.96875,0.0195312,-0.00976562,0.00390625,4,0,41.44699470308592,-91.74792013369138,10949.196179350552,-6.891610163924239,0.9211919804385948,0.6505741912053142,198.691,8561.873061902648,11079.41924856223,150,True,7.100985883580901,False,167.53147363047597,168.27901770214663,False,24.158109482060635,True,False
