Subject_cm,Timestamp,SampleDate_cm,SampleTime_cm,Configuration_cm,Scenario_cm,DisTime_cm,MarkingTxt_cm,Application_cm,EntId_cm,Site_cm,ExerciseId_cm,ForceId_cm,Category_cm,Country_cm,Domain_cm,Kind_cm,Extra_cm,Specific_cm,Subcategory_cm,AltCategory_cm,AltCountry_cm,AltDomain_cm,AltKind_cm,ECEF_X_cm,ECEF_Y_cm,ECEF_Z_cm,OriPhi_cm,OriPsi_cm,OriTheta_cm,LinVelX_cm,LinVelY_cm,LinVelZ_cm,LinAccX_cm,LinAccY_cm,LinAccZ_cm,AngVelX_cm,AngVelY_cm,AngVelZ_cm,DrAlg_cm,Appearance_cm,Latitude_cm,Longitude_cm,Altitude_cm,Heading_cm,Pitch_cm,Roll_cm,CalibratedAirspeed_cm,CM_Altitude_Lead_cm,CM_Altitude_Wing_cm,CM_Airspeed_cm,Subject_ac,SampleDate_ac,SampleTime_ac,Configuration_ac,Scenario_ac,DisTime_ac,MarkingTxt_ac,Application_ac,EntId_ac,Site_ac,ExerciseId_ac,ForceId_ac,Category_ac,Country_ac,Domain_ac,Kind_ac,Extra_ac,Specific_ac,Subcategory_ac,AltCategory_ac,AltCountry_ac,AltDomain_ac,AltKind_ac,ECEF_X_ac,ECEF_Y_ac,ECEF_Z_ac,OriPhi_ac,OriPsi_ac,OriTheta_ac,LinVelX_ac,LinVelY_ac,LinVelZ_ac,LinAccX_ac,LinAccY_ac,LinAccZ_ac,AngVelX_ac,AngVelY_ac,AngVelZ_ac,DrAlg_ac,Appearance_ac,Latitude_ac,Longitude_ac,Altitude_ac,Heading_ac,Pitch_ac,Roll_ac,CalibratedAirspeed_ac,CM_Altitude_Lead_ac,CM_Altitude_Wing_ac,CM_Airspeed_ac,Bank_Angle_Condition,distance_nm,Distance_Condition,angle_between_vel,angle_between_pos,Cone_Condition,angle_between_pos_nose,Nose_Cone_Condition,Intercept_Criteria
11,1970-07-23 11:25:55.632421963,2025-09-16,2025-09-26 15:12:43.242,AA,C,553690406,JASSM,3,136,76,2,2,1,225,9,2,0,1,26,0,0,0,0,-163170.74011404935,-4785360.094697799,4204065.688932896,-2.36559,-0.397301,0.382249,76.125,-31.875,-33.0,0.0,0.0,0.0,0.0,0.0,0.0,2,0,41.474455883705005,-91.9529092551951,10000.000854407455,119.85411751614842,-0.0030925113334156,0.0050442625005272,,8749.224682894945,11121.848502006404,150,11,2025-09-16,2025-09-26 15:12:43.207,AA,C,588721502,AMBUSH51,1,1,48,2,1,1,225,2,1,0,0,9,1,225,2,1,-146243.38444037334,-4792354.596398972,4196187.40447797,2.25224,2.80506,-0.332576,-100.075,39.4778,41.6068,-0.0982541,-7.06832,6.31224,0.011875,-0.00811536,-0.0119353,4,0,41.382916965588485,-91.74789428513571,8749.445072347151,-64.32834339005254,0.1244633718738321,-5.275934788914424,185.347,8749.224682894945,11121.848502006404,150,True,10.728881523809472,False,178.71437576008094,178.49913622607036,False,2.2952904931631655,True,False
11,1970-07-23 11:25:55.643441914,2025-09-16,2025-09-26 15:12:44.344,AA,C,555002048,JASSM,3,136,76,2,2,1,225,9,2,0,1,26,0,0,0,0,-163087.04528983062,-4785395.221650924,4204029.198698521,-2.36559,-0.397301,0.382249,76.125,-31.875,-33.0,0.0,0.0,0.0,0.0,0.0,0.0,2,0,41.47401758180396,-91.95189401181273,10000.002203984965,119.85478989486332,-0.0022145976322431,0.0050427891633605,,8749.224682894945,11121.848502006404,150,11,2025-09-16,2025-09-26 15:12:44.274,AA,C,589994034,AMBUSH51,1,1,48,2,1,1,225,2,1,0,0,9,1,225,2,1,-146349.34601842373,-4792312.8455188405,4196230.901132307,2.26742,2.81259,-0.326932,-100.346,39.1302,40.9451,-0.0876244,-7.38813,6.71823,0.0604382,0.0104706,-0.00558744,4,0,41.38343976051722,-91.74917517595637,8749.0180525059,-64.84562561494702,0.1922317225480102,-4.268242864258999,185.42,8749.224682894945,11121.848502006404,150,True,10.610742829749785,False,178.35632227698403,178.4786290244537,False,2.70115479064874,True,False
11,1970-07-23 11:25:55.654448532,2025-09-16,2025-09-26 15:12:45.444,AA,C,556313216,JASSM,3,136,76,2,2,1,225,9,2,0,1,26,0,0,0,0,-163003.38025076812,-4785430.334932174,4203992.720182896,-2.36559,-0.397301,0.382249,76.125,-31.875,-33.0,0.0,0.0,0.0,0.0,0.0,0.0,2,0,41.4735794253256,-91.9508791438814,10000.002837855716,119.85546201908484,-0.001336995822743,0.0050413147714996,,8749.224682894945,11121.848502006404,150,11,2025-09-16,2025-09-26 15:12:45.408,AA,C,591346098,AMBUSH51,1,1,48,2,1,1,225,2,1,0,0,9,1,225,2,1,-146463.98207373233,-4792268.457325977,4196277.040207136,2.33461,2.81738,-0.321882,-100.583,38.7029,40.7524,-0.187892,-7.28694,6.49479,0.0749316,-0.0074142,0.0114214,4,0,41.3839944933172,-91.75056066428893,8748.493300798029,-65.23511623348011,0.178410470120502,-0.3321697338195627,185.261,8749.224682894945,11121.848502006404,150,True,10.487603053438898,False,178.10191462808987,178.45470486660844,False,2.919832179792292,True,False
11,1970-07-23 11:25:55.665325911,2025-09-16,2025-09-26 15:12:46.532,AA,C,557625566,JASSM,3,136,76,2,2,1,225,9,2,0,1,26,0,0,0,0,-162919.64001639312,-4785465.479463424,4203956.206511021,-2.36559,-0.397205,0.382249,76.125,-31.875,-33.0,0.0,0.0,0.0,0.0,0.0,0.0,2,0,41.47314085190117,-91.9498633776337,10000.002484228124,119.85249685069228,-0.0040282535996316,0.0029909694307749,,8749.224682894945,11121.848502006404,150,11,2025-09-16,2025-09-26 15:12:46.508,AA,C,592658398,AMBUSH51,1,1,48,2,1,1,225,2,1,0,0,9,1,225,2,1,-146573.94600113318,-4792225.832183278,4196321.492274073,2.40341,2.81114,-0.325918,-100.465,39.0258,40.9204,-0.250756,-7.35315,6.54906,0.0476612,-0.00048998,0.0172346,4,0,41.38452818175532,-91.75188972442272,8748.304555182394,-64.83405367330018,0.0975027971048944,3.496448521581729,185.225,8749.224682894945,11121.848502006404,150,True,10.367241523134243,False,178.28569152283927,178.43133133904828,False,2.8022877659576904,True,False
11,1970-07-23 11:25:55.676342439,2025-09-16,2025-09-26 15:12:47.634,AA,C,558878266,JASSM,3,136,76,2,2,1,225,9,2,0,1,26,0,0,0,0,-162839.70642264312,-4785499.024385299,4203921.352995396,-2.36559,-0.397205,0.382249,76.125,-31.75,-33.0,0.0,0.0,0.0,0.0,0.0,0.0,2,0,41.47272222086493,-91.94889379940508,10000.00249142082,119.85313896961748,-0.0031897936103488,0.0029895077703863,,8749.224682894945,11121.848502006404,150,11,2025-09-16,2025-09-26 15:12:47.642,AA,C,594010462,AMBUSH51,1,1,48,2,1,1,225,2,1,0,0,9,1,225,2,1,-146688.2587383304,-4792181.210650427,4196368.015116095,2.44109,2.80456,-0.331385,-100.063,39.4909,41.4784,-0.251678,-7.31434,6.71647,0.0272735,-0.00414975,-0.0072103,4,0,41.38508691992831,-91.7532714823549,8748.031102695923,-64.36163164816169,0.0618004504534503,5.5344447037701485,185.261,8749.224682894945,11121.848502006404,150,True,10.246469512204916,False,178.7460859180343,178.4278890454876,False,2.444744501782662,True,False
11,1970-07-23 11:25:55.686387188,2025-09-16,2025-09-26 15:12:48.638,AA,C,560132504,JASSM,3,136,76,2,2,1,225,9,2,0,1,26,0,0,0,0,-162759.67419608062,-4785532.608369674,4203886.454557896,-2.36559,-0.397205,0.382345,76.125,-31.75,-33.0,0.0,0.0,0.0,0.0,0.0,0.0,2,0,41.47230306601209,-91.94792303822742,9999.997108253943,119.85762926083062,-0.0062710883032095,0.0029877552921304,,8749.224682894945,11121.848502006404,150,11,2025-09-16,2025-09-26 15:12:48.774,AA,C,595362528,AMBUSH51,1,1,48,2,1,1,225,2,1,0,0,9,1,225,2,1,-146800.68281064284,-4792136.308755668,4196415.125803383,2.44442,2.79609,-0.341079,-99.5613,39.9284,42.4946,-0.260798,-7.43062,6.74998,-0.0300323,0.00882276,0.00737259,4,0,41.38565162255984,-91.75463080647089,8748.209412832608,-63.6451962352477,0.1244536982276105,5.566212216964445,185.261,8749.224682894945,11121.848502006404,150,True,10.126317787670262,False,179.2432551876461,178.4064741372944,False,1.873353894612749,True,False
11,1970-07-23 11:25:55.697405628,2025-09-16,2025-09-26 15:12:49.740,AA,C,561443316,JASSM,3,136,76,2,2,1,225,9,2,0,1,26,0,0,0,0,-162676.03210623687,-4785567.707979049,4203849.981901646,-2.36559,-0.397205,0.382345,76.125,-31.75,-33.0,0.0,0.0,0.0,0.0,0.0,0.0,2,0,41.47186499067205,-91.94690850378296,9999.998029236667,119.85830114154932,-0.0053937260811209,0.0029862803695451,,8749.224682894945,11121.848502006404,150,11,2025-09-16,2025-09-26 15:12:49.674,AA,C,596436226,AMBUSH51,1,1,48,2,1,1,225,2,1,0,0,9,1,225,2,1,-146890.65393132786,-4792099.925967293,4196453.4976176005,2.40951,2.78717,-0.346097,-99.1912,40.214,43.0299,-0.315237,-7.22478,6.47578,-0.0475738,0.00728312,0.00546676,4,0,41.386110724524166,-91.75571883218028,8748.7078511875,-63.10344785868473,-0.0155443600596245,3.394601193143351,185.188,8749.224682894945,11121.848502006404,150,True,10.017615711443025,False,179.46122402557182,178.3886383180529,False,1.5564264149568952,True,False
11,1970-07-23 11:25:55.707590458,2025-09-16,2025-09-26 15:12:50.759,AA,C,562697248,JASSM,3,136,76,2,2,1,225,9,2,0,1,26,0,0,0,0,-162596.01941092435,-4785601.284150924,4203815.091276646,-2.36559,-0.397205,0.382345,76.125,-31.75,-33.0,0.0,0.0,0.0,0.0,0.0,0.0,2,0,41.471445914266944,-91.94593800492592,10000.001253088694,119.8589438540106,-0.0045544335697583,0.0029848679543976,,8749.224682894945,11121.848502006404,150,11,2025-09-16,2025-09-26 15:12:50.840,AA,C,597828058,AMBUSH51,1,1,48,2,1,1,225,2,1,0,0,9,1,225,2,1,-147005.43364592173,-4792052.888066319,4196503.234810958,2.34246,2.78688,-0.350194,-98.9612,40.3491,43.4155,-0.359621,-7.62937,7.00839,-0.0861605,0.00178411,0.00656532,4,0,41.386705408136095,-91.75710711999456,8749.521407199156,-62.92638456027887,0.1394918916714909,-0.452912601934369,185.225,8749.224682894945,11121.848502006404,150,True,9.895434481557205,False,179.4782724472322,178.36971271028648,False,1.348913933034662,True,False
11,1970-07-23 11:25:55.718463120,2025-09-16,2025-09-26 15:12:51.846,AA,C,564009638,JASSM,3,136,76,2,2,1,225,9,2,0,1,26,0,0,0,0,-162512.27624686187,-4785636.422822799,4203778.573698521,-2.36559,-0.397205,0.382345,76.125,-31.75,-33.0,0.0,0.0,0.0,0.0,0.0,0.0,2,0,41.47100730620304,-91.9449222726354,10000.001721616076,119.85961651657472,-0.0036760189807976,0.0029834030243009,,8749.224682894945,11121.848502006404,150,11,2025-09-16,2025-09-26 15:12:51.774,AA,C,598941524,AMBUSH51,1,1,48,2,1,1,225,2,1,0,0,9,1,225,2,1,-147098.29268748936,-4792015.003878942,4196543.626923427,2.28208,2.78664,-0.348201,-99.0037,40.1379,43.2358,-0.060821,-7.25151,6.40165,-0.0333051,-0.00308448,0.00280568,4,0,41.38718653122498,-91.75823022803309,8750.939033076873,-62.999108936087936,0.0508263748971298,-3.917122238591858,185.273,8749.224682894945,11121.848502006404,150,True,9.78463663912001,False,179.42304427805013,178.3527226024304,False,1.463101996627912,True,False
11,1970-07-23 11:25:55.730321819,2025-09-16,2025-09-26 15:12:53.032,AA,C,565320716,JASSM,3,136,76,2,2,1,225,9,2,0,1,26,0,0,0,0,-162428.61706717435,-4785671.526338424,4203742.089323521,-2.36559,-0.397205,0.382345,76.125,-31.75,-33.125,0.0,0.0,0.0,0.0,0.0,0.0,2,0,41.47056910546386,-91.94390757264132,9999.99988142283,119.86028848966797,-0.0027984735184866,0.0029819191065282,,8749.224682894945,11121.848502006404,150,11,2025-09-16,2025-09-26 15:12:52.974,AA,C,600373122,AMBUSH51,1,1,48,2,1,1,225,2,1,0,0,9,1,225,2,1,-147216.55720595134,-4791967.118661542,4196594.527188736,2.25137,2.79357,-0.337271,-99.3852,39.839,42.4944,-0.269529,-7.37906,6.46431,-0.0204242,-0.00388343,-0.00711251,4,0,41.38779344077732,-91.7596604995321,8752.470794913903,-63.70887085581674,-0.1210603250781608,-5.542952908979287,185.188,8749.224682894945,11121.848502006404,150,True,9.658165782866574,False,179.22433091331922,178.40609741040464,False,1.9144140040728046,True,False
11,1970-07-23 11:25:55.740367081,2025-09-16,2025-09-26 15:12:54.036,AA,C,566574856,JASSM,3,136,76,2,2,1,225,9,2,0,1,26,0,0,0,0,-162348.59069998687,-4785705.102510299,4203707.190886021,-2.36559,-0.397205,0.382345,76.125,-31.75,-33.125,0.0,0.0,0.0,0.0,0.0,0.0,2,0,41.47014995372699,-91.94293694894462,9999.998890184526,119.86093126828986,-0.0019590497213057,0.0029805242843165,,8749.224682894945,11121.848502006404,150,11,2025-09-16,2025-09-26 15:12:54.141,AA,C,601764954,AMBUSH51,1,1,48,2,1,1,225,2,1,0,0,9,1,225,2,1,-147333.1092538915,-4791920.8334167525,4196643.506475788,2.21458,2.8009,-0.331878,-99.9697,39.2222,41.5819,-0.0276777,-7.26827,6.73385,-0.040298,0.00449721,0.00785737,4,0,41.38837815804937,-91.761069753546,8753.652173546265,-64.20783560263733,-0.0535602223125578,-7.51203251064339,185.261,8749.224682894945,11121.848502006404,150,True,9.535474914054465,False,178.6609341877705,178.38215922272835,False,2.5257502316064766,True,False
11,1970-07-23 11:25:55.751583116,2025-09-16,2025-09-26 15:12:55.158,AA,C,567885766,JASSM,3,136,76,2,2,1,225,9,2,0,1,26,0,0,0,0,-162264.94226248687,-4785740.200166549,4203670.710417271,-2.36559,-0.397205,0.382345,76.125,-31.75,-33.125,0.0,0.0,0.0,0.0,0.0,0.0,2,0,41.469711794482656,-91.94192240652436,10000.001649646349,119.8616031256122,-0.0010816185604068,0.0029790427069913,,8749.224682894945,11121.848502006404,150,11,2025-09-16,2025-09-26 15:12:55.075,AA,C,602878420,AMBUSH51,1,1,48,2,1,1,225,2,1,0,0,9,1,225,2,1,-147425.84053008255,-4791884.934810932,4196681.544141687,2.17318,2.80915,-0.321558,-100.69,38.5248,40.8729,-0.127264,-7.00983,6.71294,-0.0460363,-0.00570395,-0.0249286,4,0,41.38883155752102,-91.76219066313776,8754.859063078628,-64.94451148787435,-0.1453256033105119,-9.73124692851858,185.713,8749.224682894945,11121.848502006404,150,True,9.425676093266958,False,178.05960445412165,178.3584052499996,False,3.108463437734205,True,False
11,1970-07-23 11:25:55.762401980,2025-09-16,2025-09-26 15:12:56.240,AA,C,569198374,JASSM,3,136,76,2,2,1,225,9,2,0,1,26,0,0,0,0,-162181.18542654935,-4785775.340791549,4203634.181120396,-2.36559,-0.397109,0.382345,76.125,-31.75,-33.125,0.0,0.0,0.0,0.0,0.0,0.0,2,0,41.46927306293159,-91.94090656408548,9999.999782992298,119.85863822502186,-0.0037727019033288,0.0009282005499011,,8749.224682894945,11121.848502006404,150,11,2025-09-16,2025-09-26 15:12:56.274,AA,C,604310018,AMBUSH51,1,1,48,2,1,1,225,2,1,0,0,9,1,225,2,1,-147547.96866585867,-4791839.1964502,4196729.5770049,2.12679,2.82519,-0.301894,-101.966,37.3606,39.5498,0.0829221,-7.08719,6.77161,-0.00171337,0.000535753,-0.0215414,4,0,41.389405579020334,-91.76366637063263,8755.771999211527,-66.36320497736521,-0.3001056659008192,-12.101946991100494,186.386,8749.224682894945,11121.848502006404,150,False,9.29840993463327,False,176.9967731845344,178.3240393725546,False,4.176611617569878,True,False
11,1970-07-23 11:25:55.772442438,2025-09-16,2025-09-26 15:12:57.244,AA,C,570451982,JASSM,3,136,76,2,2,1,225,9,2,0,1,26,0,0,0,0,-162101.19323904935,-4785808.899385299,4203599.294401646,-2.36559,-0.397109,0.382345,76.125,-31.75,-33.125,0.0,0.0,0.0,0.0,0.0,0.0,2,0,41.46885406260867,-91.93993639490144,9999.997808997816,119.85928068623474,-0.0029336362845206,0.0009267505408016,,8749.224682894945,11121.848502006404,150,11,2025-09-16,2025-09-26 15:12:57.174,AA,C,605383718,AMBUSH51,1,1,48,2,1,1,225,2,1,0,0,9,1,225,2,1,-147639.36435194573,-4791806.213558289,4196764.034265625,2.18705,2.83904,-0.288224,-102.906,36.6142,38.4488,0.135434,-7.25235,6.94643,0.114773,-0.00341322,-0.00690653,4,0,41.38981767948588,-91.76477028794224,8756.297655258702,-67.45489950888884,-0.2939512337765645,-8.4131415863259,186.703,8749.224682894945,11121.848502006404,150,True,9.192844909126986,False,176.2107749060024,178.2919249099826,False,5.004864344259866,True,False
11,1970-07-23 11:25:55.783320786,2025-09-16,2025-09-26 15:12:58.332,AA,C,571705088,JASSM,3,136,76,2,2,1,225,9,2,0,1,26,0,0,0,0,-162021.23278983062,-4785842.446260299,4203564.419401646,-2.36559,-0.397109,0.382441,76.125,-31.75,-33.125,0.0,0.0,0.0,0.0,0.0,0.0,2,0,41.46843519649852,-91.93896662248812,9999.99963445734,119.86377041471832,-0.0060155409723112,0.0009250083338532,,8749.224682894945,11121.848502006404,150,11,2025-09-16,2025-09-26 15:12:58.174,AA,C,606576716,AMBUSH51,1,1,48,2,1,1,225,2,1,0,0,9,1,225,2,1,-147742.6141508324,-4791769.843444509,4196801.704436206,2.29277,2.84944,-0.27882,-103.644,36.0441,37.9817,-0.0155261,-7.38758,7.00858,0.119013,0.0063531,-0.000338097,4,0,41.39026943683687,-91.76601707308784,8756.364265694121,-68.24043305064015,-0.2507445103500091,-2.185258261263035,186.862,8749.224682894945,11121.848502006404,150,True,9.080572180433265,False,175.7219839347616,178.25251355734784,False,5.512652130705615,True,False
11,1970-07-23 11:25:55.794352348,2025-09-16,2025-09-26 15:12:59.435,AA,C,573015866,JASSM,3,136,76,2,2,1,225,9,2,0,1,26,0,0,0,0,-161937.59216483062,-4785877.534150924,4203527.938932896,-2.36559,-0.397109,0.382441,76.125,-31.75,-33.125,0.0,0.0,0.0,0.0,0.0,0.0,2,0,41.46799705869968,-91.93795223091062,9999.998273944126,119.8644421495037,-0.0051382010013801,0.0009235425616778,,8749.224682894945,11121.848502006404,150,11,2025-09-16,2025-09-26 15:12:59.574,AA,C,608246914,AMBUSH51,1,1,48,2,1,1,225,2,1,0,0,9,1,225,2,1,-147887.93406722878,-4791719.359715759,4196854.412793182,2.40776,2.84796,-0.284586,-103.996,36.0303,38.6451,-0.282494,-7.09546,6.87489,0.0152768,-0.00423297,0.0146463,4,0,41.39089894719064,-91.76777164179344,8757.531518906433,-67.94609270996258,-0.0806123733443869,4.378945580343389,187.461,8749.224682894945,11121.848502006404,150,True,8.940935302909937,False,175.83630901201303,178.19800641222804,False,5.4028953812998495,True,False
11,1970-07-23 11:25:55.805362798,2025-09-16,2025-09-26 15:13:00.536,AA,C,574269528,JASSM,3,136,76,2,2,1,225,9,2,0,1,26,0,0,0,0,-161857.59655936187,-4785911.092744674,4203493.048307896,-2.36559,-0.397109,0.382441,76.125,-31.75,-33.125,0.0,0.0,0.0,0.0,0.0,0.0,2,0,41.4675780077142,-91.93698205889896,10000.001209327533,119.86508459642933,-0.00429909576693,0.0009221417928962,,8749.224682894945,11121.848502006404,150,11,2025-09-16,2025-09-26 15:13:00.541,AA,C,609400146,AMBUSH51,1,1,48,2,1,1,225,2,1,0,0,9,1,225,2,1,-147989.2729244029,-4791683.94599497,4196891.890039464,2.37993,2.84001,-0.291647,-103.986,36.2849,39.3077,-0.144123,-7.19319,6.76633,-0.0873839,-0.00953641,0.0076285,4,0,41.39134403158249,-91.768995287429,8759.403853127538,-67.35279668612726,-0.1163492904556412,2.6538618269168324,187.779,8749.224682894945,11121.848502006404,150,True,8.829748619969521,False,176.10868828601403,178.15800386902598,False,5.139888286990169,True,False
11,1970-07-23 11:25:55.815402158,2025-09-16,2025-09-26 15:13:01.540,AA,C,575582504,JASSM,3,136,76,2,2,1,225,9,2,0,1,26,0,0,0,0,-161773.81579764312,-4785946.237275924,4203456.505339146,-2.36549,-0.397109,0.382441,76.125,-31.75,-33.125,0.0,0.0,0.0,0.0,0.0,0.0,2,0,41.46713912172702,-91.93596599539336,10000.001203772596,119.86575742693344,-0.0034202880207408,0.0064121482900216,,8749.224682894945,11121.848502006404,150,11,2025-09-16,2025-09-26 15:13:01.541,AA,C,610593146,AMBUSH51,1,1,48,2,1,1,225,2,1,0,0,9,1,225,2,1,-148093.07012419502,-4791647.215162933,4196930.743172562,2.27638,2.83482,-0.294948,-104.19,36.5003,39.4287,-0.0846772,-7.0609,6.69252,-0.16473,0.00750783,0.000604413,4,0,41.39180577534356,-91.7702488032243,8761.214200007189,-67.02008210227567,-0.1902025828338317,-3.366119148032766,188.536,8749.224682894945,11121.848502006404,150,True,8.71451993753786,False,176.16984903765922,178.1167080817819,False,5.135600102194658,True,False
11,1970-07-23 11:25:55.827422516,2025-09-16,2025-09-26 15:13:02.742,AA,C,576953244,JASSM,3,136,76,2,2,1,225,9,2,0,1,26,0,0,0,0,-161686.34900076812,-4785982.928682174,4203418.352995396,-2.36549,-0.397109,0.382441,76.125,-31.75,-33.125,0.0,0.0,0.0,0.0,0.0,0.0,2,0,41.46668090199978,-91.93490524331412,10000.004524380733,119.86645984366814,-0.0025028084545132,0.0064106054241625,,8749.224682894945,11121.848502006404,150,11,2025-09-16,2025-09-26 15:13:02.740,AA,C,612024744,AMBUSH51,1,1,48,2,1,1,225,2,1,0,0,9,1,225,2,1,-148218.30365897148,-4791603.551677061,4196977.03180832,2.14094,2.84204,-0.285309,-105.044,35.8268,38.5738,-0.00503142,-7.14939,6.74705,-0.0544856,-0.00936164,-0.0124909,4,0,41.392355002718176,-91.77176097876534,8763.737662982236,-67.6941357800445,-0.2843510268558517,-11.005328981842885,189.282,8749.224682894945,11121.848502006404,150,False,8.584313602046993,False,175.51851584787528,178.06541699116295,False,5.851836281876825,True,False
11,1970-07-23 11:25:55.838463367,2025-09-16,2025-09-26 15:13:03.846,AA,C,578207012,JASSM,3,136,76,2,2,1,225,9,2,0,1,26,0,0,0,0,-161606.34655936187,-4786016.485322799,4203383.454557896,-2.36549,-0.397109,0.382441,76.125,-31.75,-33.125,0.0,0.0,0.0,0.0,0.0,0.0,2,0,41.46626178554344,-91.9339350295895,9999.999231156156,119.86710230145086,-0.0016636306639196,0.0064092003444355,,8749.224682894945,11121.848502006404,150,11,2025-09-16,2025-09-26 15:13:03.840,AA,C,613337042,AMBUSH51,1,1,48,2,1,1,225,2,1,0,0,9,1,225,2,1,-148334.2923584612,-4791564.50970122,4197017.942534862,2.1054,2.85671,-0.262255,-106.176,34.9677,36.9183,0.00691198,-6.97359,6.65249,-0.000412998,0.00243326,-0.0131088,4,0,41.39284211122769,-91.77316102963212,8765.269906133999,-69.21019341158413,-0.6066078861454526,-12.802536319024869,189.514,8749.224682894945,11121.848502006404,150,False,8.465051797043671,False,174.50912815765238,178.0104717522477,False,6.969042896137112,True,False
11,1970-07-23 11:25:55.849320717,2025-09-16,2025-09-26 15:13:04.932,AA,C,579518424,JASSM,3,136,76,2,2,1,225,9,2,0,1,26,0,0,0,0,-161522.66540701812,-4786051.584932174,4203346.950651646,-2.36549,-0.397013,0.382441,76.125,-31.75,-33.125,0.0,0.0,0.0,0.0,0.0,0.0,2,0,41.46582338350329,-91.93292021641872,9999.996748915584,119.86413694218204,-0.0043555049132098,0.0043579127010441,,8749.224682894945,11121.848502006404,150,11,2025-09-16,2025-09-26 15:13:04.973,AA,C,614689108,AMBUSH51,1,1,48,2,1,1,225,2,1,0,0,9,1,225,2,1,-148454.14228392273,-4791525.431476397,4197057.884248165,2.16853,2.86876,-0.246492,-107.355,34.2292,35.1921,-0.0240171,-7.00782,6.67518,0.105525,-0.00995669,-0.0239861,4,0,41.39332216396132,-91.77460724184256,8764.913675589194,-70.32648233219435,-0.7394571552211072,-8.998524807727495,190.101,8749.224682894945,11121.848502006404,150,True,8.341935478988407,False,173.49230924829953,177.94410585880792,False,8.103358238535277,True,False
11,1970-07-23 11:25:55.860362800,2025-09-16,2025-09-26 15:13:06.036,AA,C,580830320,JASSM,3,136,76,2,2,1,225,9,2,0,1,26,0,0,0,0,-161438.95349295562,-4786086.696260299,4203310.435026646,-2.36549,-0.397013,0.382441,76.125,-31.75,-33.125,0.0,0.0,0.0,0.0,0.0,0.0,2,0,41.46538482983192,-91.9319050443528,9999.999969122377,119.8648091590918,-0.0034774240978146,0.0043563983783751,,8749.224682894945,11121.848502006404,150,11,2025-09-16,2025-09-26 15:13:06.174,AA,C,616120706,AMBUSH51,1,1,48,2,1,1,225,2,1,0,0,9,1,225,2,1,-148584.37427509075,-4791484.088397581,4197099.601905063,2.27288,2.88151,-0.23563,-108.197,33.6291,34.6103,-0.165389,-7.52877,7.17002,0.0205323,-0.00493413,-0.00612215,4,0,41.393825746549865,-91.77617834212988,8763.63948328633,-71.2668032914136,-0.6463154240307044,-2.834071725817973,190.687,8749.224682894945,11121.848502006404,150,True,8.213287986329677,False,172.95612593119037,177.86486370732027,False,8.715412112334663,True,False
11,1970-07-23 11:25:55.870388120,2025-09-16,2025-09-26 15:13:07.038,AA,C,582084796,JASSM,3,136,76,2,2,1,225,9,2,0,1,26,0,0,0,0,-161358.90515311187,-4786120.270479049,4203275.513151646,-2.36549,-0.397013,0.382441,76.125,-31.75,-33.125,0.0,0.0,0.0,0.0,0.0,0.0,2,0,41.46496543444059,-91.9309343133458,9999.997044091073,119.86545194298031,-0.0026377586928683,0.0043549274936819,,8749.224682894945,11121.848502006404,150,11,2025-09-16,2025-09-26 15:13:06.941,AA,C,617035338,AMBUSH51,1,1,48,2,1,1,225,2,1,0,0,9,1,225,2,1,-148667.4889776036,-4791458.641510295,4197125.32221074,2.2744,2.88218,-0.239523,-108.64,33.0276,34.597,-0.168633,-7.48383,7.01355,0.0282347,0.000887374,0.00554166,4,0,41.39413543748197,-91.7771806910388,8763.179054639118,-71.12985891995616,-0.4660563071806414,-2.739480826321489,190.724,8749.224682894945,11121.848502006404,150,True,8.114837396716474,False,172.68295515151286,177.80532845897187,False,9.014950468721176,True,False
11,1970-07-23 11:25:55.881402737,2025-09-16,2025-09-26 15:13:08.140,AA,C,583397006,JASSM,3,136,76,2,2,1,225,9,2,0,1,26,0,0,0,0,-161275.17321951812,-4786155.389619674,4203238.985807896,-2.36549,-0.397013,0.382536,76.125,-31.75,-33.125,0.0,0.0,0.0,0.0,0.0,0.0,2,0,41.46452674163607,-91.9299189255112,10000.001969345443,119.86997196786528,-0.0056799707887866,0.0043531484025464,,8749.224682894945,11121.848502006404,150,11,2025-09-16,2025-09-26 15:13:08.141,AA,C,618466938,AMBUSH51,1,1,48,2,1,1,225,2,1,0,0,9,1,225,2,1,-148797.20978623963,-4791419.303440446,4197165.986132926,2.28255,2.88771,-0.235074,-109.149,32.7675,34.4841,-0.183681,-7.27912,6.79814,-0.0123868,0.000159166,-0.00843161,4,0,41.39462003811964,-91.7787449803686,8764.529291687606,-71.52740652221581,-0.4135025510560947,-2.1953527431457536,191.665,8749.224682894945,11121.848502006404,150,True,7.987067170914943,False,172.46859258056688,177.71789246433656,False,9.316485862034826,True,False
11,1970-07-23 11:25:55.892419672,2025-09-16,2025-09-26 15:13:09.241,AA,C,584707766,JASSM,3,136,76,2,2,1,225,9,2,0,1,26,0,0,0,0,-161191.53357108062,-4786190.465791549,4203202.497526646,-2.36549,-0.397013,0.382536,76.125,-31.75,-33.125,0.0,0.0,0.0,0.0,0.0,0.0,2,0,41.46408854067366,-91.92890467216851,9999.998731816908,119.87064355925538,-0.0048026492998871,0.0043516940473229,,8749.224682894945,11121.848502006404,150,11,2025-09-16,2025-09-26 15:13:09.240,AA,C,619779236,AMBUSH51,1,1,48,2,1,1,225,2,1,0,0,9,1,225,2,1,-148917.05799362273,-4791383.298158081,4197203.166023084,2.2641,2.89058,-0.232421,-109.663,32.3848,34.4046,-0.115961,-7.33654,6.76966,-0.00401451,-0.00492997,-0.00813617,4,0,41.3950630944803,-91.78019011169356,8765.775171328023,-71.74860092842415,-0.3988845714953613,-3.2128885217312018,191.934,8749.224682894945,11121.848502006404,150,True,7.865245332809139,False,172.22628682364135,177.63123432461904,False,9.634915913897414,True,False
11,1970-07-23 11:25:55.903992861,2025-09-16,2025-09-26 15:13:10.399,AA,C,586021198,JASSM,3,136,76,2,2,1,225,9,2,0,1,26,0,0,0,0,-161107.72351248687,-4786225.614229049,4203165.933073521,-2.36549,-0.397013,0.382536,76.125,-31.75,-33.125,0.0,0.0,0.0,0.0,0.0,0.0,2,0,41.46364942079862,-91.92788836572926,9999.998406098435,119.87131650425852,-0.00392353153205,0.0043502219782197,,8749.224682894945,11121.848502006404,150,11,2025-09-16,2025-09-26 15:13:10.240,AA,C,620972234,AMBUSH51,1,1,48,2,1,1,225,2,1,0,0,9,1,225,2,1,-149026.8371179392,-4791350.920400212,4197236.724381535,2.27413,2.89345,-0.227623,-110.112,32.1259,34.1719,-0.0478833,-7.10982,6.6403,0.0128862,-0.00936996,-0.00738299,4,0,41.39546196582295,-91.78151362306023,8767.326197545624,-72.05998221712582,-0.4675579399052395,-2.598315616613041,192.435,8749.224682894945,11121.848502006404,150,True,7.749380885031983,False,171.9883813300011,177.54563099283686,False,9.963371636224224,True,False
11,1970-07-23 11:25:55.914779124,2025-09-16,2025-09-26 15:13:11.477,AA,C,587273918,JASSM,3,136,76,2,2,1,225,9,2,0,1,26,0,0,0,0,-161027.78747733062,-4786259.137666549,4203131.058073521,-2.36549,-0.397013,0.382536,76.125,-31.75,-33.125,0.0,0.0,0.0,0.0,0.0,0.0,2,0,41.46323058744929,-91.92691904978398,10000.0004299529,119.87195832915336,-0.0030850485491901,0.0043488153675873,,8749.224682894945,11121.848502006404,150,11,2025-09-16,2025-09-26 15:13:11.373,AA,C,622324300,AMBUSH51,1,1,48,2,1,1,225,2,1,0,0,9,1,225,2,1,-149152.21795678875,-4791314.30178055,4197274.563604552,2.2839,2.89821,-0.229535,-110.431,31.9108,33.7542,-0.145168,-7.27917,6.79836,0.0156492,0.00491957,0.000889454,4,0,41.39591206278282,-91.78302511615664,8768.934126025208,-72.16137900768328,-0.197140537905467,-1.976382190177819,192.74,8749.224682894945,11121.848502006404,150,True,7.627173964466807,False,171.73193856404484,177.44528545626181,False,10.339064799213379,True,False
11,1970-07-23 11:25:55.925340797,2025-09-16,2025-09-26 15:13:12.534,AA,C,588585122,JASSM,3,136,76,2,2,1,225,9,2,0,1,26,0,0,0,0,-160944.11950858062,-4786294.223604049,4203094.554167271,-2.36549,-0.397013,0.382536,76.125,-31.75,-33.125,0.0,0.0,0.0,0.0,0.0,0.0,2,0,41.462792202073246,-91.9259044942754,9999.999432032171,119.87263010335772,-0.0022074256317043,0.0043473518664152,,8749.224682894945,11121.848502006404,150,11,2025-09-16,2025-09-26 15:13:12.641,AA,C,623835432,AMBUSH51,1,1,48,2,1,1,225,2,1,0,0,9,1,225,2,1,-149292.07796313392,-4791273.725294234,4197316.82565592,2.30825,2.89894,-0.230001,-110.789,31.7056,33.8679,-0.137966,-7.08448,6.79676,0.0101273,-0.00473855,0.00977151,4,0,41.396412861031024,-91.78471108223052,8771.5205581079,-72.17079580464566,-0.147526292578769,-0.5712360899701409,193.168,8749.224682894945,11121.848502006404,150,True,7.494387498813688,False,171.63675380577502,177.3297622709772,False,10.54344708775272,True,False
11,1970-07-23 11:25:55.935402583,2025-09-16,2025-09-26 15:13:13.540,AA,C,589837822,JASSM,3,136,76,2,2,1,225,9,2,0,1,26,0,0,0,0,-160864.18444998687,-4786327.743135299,4203059.677214146,-2.36549,-0.396918,0.382536,76.125,-31.75,-33.125,0.0,0.0,0.0,0.0,0.0,0.0,2,0,41.46237336184145,-91.9249352171088,9999.996876504949,119.86963481614252,-0.0049385912300942,0.002295683460167,,8749.224682894945,11121.848502006404,150,11,2025-09-16,2025-09-26 15:13:13.407,AA,C,624750064,AMBUSH51,1,1,48,2,1,1,225,2,1,0,0,9,1,225,2,1,-149375.9878908325,-4791249.482839633,4197342.092128104,2.31713,2.89863,-0.232499,-110.878,31.7537,33.8572,0.0305787,-7.03135,6.65503,0.0239071,-0.00753279,0.00455962,4,0,41.39671210109558,-91.78572256298146,8773.135165783873,-72.05448733477657,-0.0624019110834911,-0.0669673618363018,193.706,8749.224682894945,11121.848502006404,150,True,7.396089243600049,False,171.6322113992767,177.25077937371626,False,10.636273680358125,True,False
11,1970-07-23 11:25:55.946403068,2025-09-16,2025-09-26 15:13:14.640,AA,C,591150748,JASSM,3,136,76,2,2,1,225,9,2,0,1,26,0,0,0,0,-160780.40612967435,-4786362.873994674,4203023.124479771,-2.36549,-0.396918,0.382536,76.125,-31.75,-33.125,0.0,0.0,0.0,0.0,0.0,0.0,2,0,41.46193438413923,-91.92391935079084,10000.000694402075,119.8703074469394,-0.0040598128366941,0.0022941649662474,,8749.224682894945,11121.848502006404,150,11,2025-09-16,2025-09-26 15:13:14.473,AA,C,626022596,AMBUSH51,1,1,48,2,1,1,225,2,1,0,0,9,1,225,2,1,-149495.01765894305,-4791214.821437492,4197377.904990292,2.42562,2.89631,-0.234548,-110.984,32.3838,34.0827,-0.198347,-7.01855,6.60879,0.0761675,-8.84253e-05,0.00634269,4,0,41.397137997438925,-91.7871575082583,8774.700365225142,-71.8814044715387,-0.0762371660155653,6.118032299091721,193.926,8749.224682894945,11121.848502006404,150,True,7.275235701410541,False,171.87816755900107,177.14147265600738,False,10.5345021898079,True,False
11,1970-07-23 11:25:55.956440777,2025-09-16,2025-09-26 15:13:15.644,AA,C,592404718,JASSM,3,136,76,2,2,1,225,9,2,0,1,26,0,0,0,0,-160700.39050467435,-4786396.426729049,4202988.210417271,-2.36549,-0.396918,0.382536,76.125,-31.75,-33.125,0.0,0.0,0.0,0.0,0.0,0.0,2,0,41.461515095212064,-91.92294912250443,10000.001656072109,119.87094985417424,-0.0032204934419597,0.0022926986227012,,8749.224682894945,11121.848502006404,150,11,2025-09-16,2025-09-26 15:13:15.573,AA,C,627334894,AMBUSH51,1,1,48,2,1,1,225,2,1,0,0,9,1,225,2,1,-149616.5960897649,-4791178.302443622,4197415.456245046,2.48642,2.88268,-0.246589,-110.666,33.5623,35.0071,-0.107456,-6.93199,6.59862,0.0354086,-0.00305743,0.028888,4,0,41.39758618935741,-91.78862361380394,8775.671966175549,-70.86087918158333,-0.1597974657518568,9.4134656771734,194.28,8749.224682894945,11121.848502006404,150,True,7.154875962599534,False,172.58505036177968,177.03056223557584,False,9.972913410770753,True,False
11,1970-07-23 11:25:55.967460418,2025-09-16,2025-09-26 15:13:16.746,AA,C,593715660,JASSM,3,136,76,2,2,1,225,9,2,0,1,26,0,0,0,0,-160616.73864920562,-4786431.500947799,4202951.710417271,-2.36549,-0.396918,0.382536,76.125,-31.75,-33.125,0.0,0.0,0.0,0.0,0.0,0.0,2,0,41.46107676760894,-91.92193481784172,10000.000906944071,119.87162143953206,-0.0023430448937872,0.002291186161356,,8749.224682894945,11121.848502006404,150,11,2025-09-16,2025-09-26 15:13:16.673,AA,C,628647194,AMBUSH51,1,1,48,2,1,1,225,2,1,0,0,9,1,225,2,1,-149737.67462786846,-4791140.480580897,4197453.9873474445,2.47212,2.86281,-0.262208,-110.251,34.8848,36.0035,-0.320822,-6.98728,6.63264,-0.0535493,-0.00646753,0.0113632,4,0,41.39804882131149,-91.79008425359376,8775.535106146355,-69.4550397368068,-0.3496259985988716,8.301279795530935,194.659,8749.224682894945,11121.848502006404,150,True,7.032003021342622,False,173.37084390756138,176.91933025820438,False,9.34102648945732,True,False
11,1970-07-23 11:25:55.978407883,2025-09-16,2025-09-26 15:13:17.840,AA,C,594972274,JASSM,3,136,76,2,2,1,225,9,2,0,1,26,0,0,0,0,-160536.55407889312,-4786465.122041549,4202916.722136021,-2.36549,-0.396918,0.382632,76.125,-31.75,-33.125,0.0,0.0,0.0,0.0,0.0,0.0,2,0,41.46065658796322,-91.92096256764114,10000.00389653241,119.87611299230326,-0.0054223321521138,0.0022894936664576,,8749.224682894945,11121.848502006404,150,11,2025-09-16,2025-09-26 15:13:17.841,AA,C,630039024,AMBUSH51,1,1,48,2,1,1,225,2,1,0,0,9,1,225,2,1,-149865.2307450204,-4791099.231580067,4197495.866503015,2.31598,2.85387,-0.274732,-110.193,35.4852,36.7563,-0.0364202,-7.34155,6.90321,-0.140502,-0.00147618,0.0132544,4,0,41.39855322077299,-91.79162358313025,8774.739359045652,-68.595250229534,-0.2140906684499628,-0.7851628723049331,195.343,8749.224682894945,11121.848502006404,150,True,6.907004764916732,False,173.7945837341993,176.80504449011946,False,9.037635733740274,True,False
11,1970-07-23 11:25:55.990382311,2025-09-16,2025-09-26 15:13:19.038,AA,C,596339924,JASSM,3,136,76,2,2,1,225,9,2,0,1,26,0,0,0,0,-160449.28357108062,-4786501.711885299,4202878.640104771,-2.36549,-0.396918,0.382632,76.125,-31.75,-33.125,0.0,0.0,0.0,0.0,0.0,0.0,2,0,41.46019926926597,-91.91990441457216,10000.002525569314,119.8768135983488,-0.0045069211337426,0.0022879672499814,,8749.224682894945,11121.848502006404,150,11,2025-09-16,2025-09-26 15:13:18.940,AA,C,631351324,AMBUSH51,1,1,48,2,1,1,225,2,1,0,0,9,1,225,2,1,-149986.25808069378,-4791060.140725257,4197536.081391672,2.19535,2.85685,-0.269622,-110.609,35.2392,36.4316,-0.0340469,-6.98851,6.56767,-0.0807656,-0.00579966,-0.0190863,4,0,41.39903474096891,-91.79308412881944,8775.148819676131,-68.92189468170335,-0.2949144045021716,-7.649482819044171,196.137,8749.224682894945,11121.848502006404,150,True,6.781304979583513,False,173.53900181559484,176.69087914164254,False,9.410570233669764,True,False
11,1970-07-23 11:25:56.000379339,2025-09-16,2025-09-26 15:13:20.037,AA,C,597592624,JASSM,3,136,76,2,2,1,225,9,2,0,1,26,0,0,0,0,-160369.34851248687,-4786535.225557174,4202843.757292271,-2.36549,-0.396918,0.382632,76.125,-31.75,-33.125,0.0,0.0,0.0,0.0,0.0,0.0,2,0,41.45978037366866,-91.9189352169738,10000.000613204678,119.87745530115885,-0.0036684504042786,0.0022865621806516,,8749.224682894945,11121.848502006404,150,11,2025-09-16,2025-09-26 15:13:20.074,AA,C,632703388,AMBUSH51,1,1,48,2,1,1,225,2,1,0,0,9,1,225,2,1,-150112.4214623121,-4791020.270713239,4197576.464698707,2.15972,2.86863,-0.254447,-111.389,34.6596,35.0938,-0.0976885,-7.10364,6.57305,-0.00396249,-0.00960299,-0.0128258,4,0,41.39952105747664,-91.79460634936754,8774.412084701713,-70.0028025127729,-0.4161712505518443,-9.509764713017193,196.443,8749.224682894945,11121.848502006404,150,True,6.657755205441264,False,172.7942939355977,176.5638717583575,False,10.313881757216853,True,False
11,1970-07-23 11:25:56.010418212,2025-09-16,2025-09-26 15:13:21.041,AA,C,598845410,JASSM,3,136,76,2,2,1,225,9,2,0,1,26,0,0,0,0,-160289.40808279935,-4786568.739229049,4202808.872526646,-2.36549,-0.396918,0.382632,76.125,-31.75,-33.125,0.0,0.0,0.0,0.0,0.0,0.0,2,0,41.45936145777351,-91.91796596762812,9999.998502130386,119.87809703289852,-0.0028299318533589,0.0022851705579493,,8749.224682894945,11121.848502006404,150,11,2025-09-16,2025-09-26 15:13:21.040,AA,C,633856620,AMBUSH51,1,1,48,2,1,1,225,2,1,0,0,9,1,225,2,1,-150219.62330946137,-4790987.244389285,4197609.405426904,2.16852,2.87824,-0.245715,-112.149,33.9446,34.0724,0.0426192,-7.19202,6.57972,0.0219992,-0.00328214,-0.0292854,4,0,41.39991993152104,-91.7958994890312,8772.908837374805,-70.73348715044476,-0.3685765726831897,-8.864155441621728,196.932,8749.224682894945,11121.848502006404,150,True,6.545732347746405,False,172.11712111078785,176.44186204720384,False,11.11705003134823,True,False
11,1970-07-23 11:25:56.021459741,2025-09-16,2025-09-26 15:13:22.145,AA,C,600099122,JASSM,3,136,76,2,2,1,225,9,2,0,1,26,0,0,0,0,-160209.40808279935,-4786602.278291549,4202773.960417271,-2.36549,-0.396918,0.382632,76.125,-31.75,-33.125,0.0,0.0,0.0,0.0,0.0,0.0,2,0,41.45894220992798,-91.9169960083351,9999.998976564088,119.87873922935148,-0.0019907825160836,0.0022837678884626,,8749.224682894945,11121.848502006404,150,11,2025-09-16,2025-09-26 15:13:22.107,AA,C,635129152,AMBUSH51,1,1,48,2,1,1,225,2,1,0,0,9,1,225,2,1,-150340.3087382036,-4790951.266959999,4197645.285811197,2.23361,2.8929,-0.235672,-112.878,33.1686,33.2403,-0.204695,-7.33954,6.86772,0.1432,0.00764306,-0.00736427,4,0,41.40035367637309,-91.79735484476136,8771.572380258684,-71.71161988227395,-0.163427188394183,-4.930178036205676,197.494,8749.224682894945,11121.848502006404,150,True,6.426450859612672,False,171.49298066795805,176.29701814932582,False,11.880031966303312,True,False
11,1970-07-23 11:25:56.032325961,2025-09-16,2025-09-26 15:13:23.232,AA,C,601410372,JASSM,3,136,76,2,2,1,225,9,2,0,1,26,0,0,0,0,-160125.73669608062,-4786637.354463424,4202737.446745396,-2.36549,-0.396822,0.382632,76.125,-31.75,-33.125,0.0,0.0,0.0,0.0,0.0,0.0,2,0,41.45850372969087,-91.91598154954346,10000.000557991423,119.87577407596358,-0.0046827598851992,0.0002315447477999,,8749.224682894945,11121.848502006404,150,11,2025-09-16,2025-09-26 15:13:23.106,AA,C,636322152,AMBUSH51,1,1,48,2,1,1,225,2,1,0,0,9,1,225,2,1,-150452.4080955617,-4790918.401144601,4197678.279178687,2.33503,2.89885,-0.23178,-113.165,32.7066,33.4722,-0.175896,-7.34022,6.68884,0.0585968,-0.00464701,0.011642,4,0,41.40075100511645,-91.79870647071976,8770.971343338791,-72.10152685098663,-0.070986412512467,0.960585449719663,197.604,8749.224682894945,11121.848502006404,150,True,6.310005371803525,False,171.384509365978,176.1519199874821,False,12.100667779678586,True,False
11,1970-07-23 11:25:56.043342138,2025-09-16,2025-09-26 15:13:24.334,AA,C,602664932,JASSM,3,136,76,2,2,1,225,9,2,0,1,26,0,0,0,0,-160045.68249686187,-4786670.915010299,4202702.509245396,-2.36549,-0.396822,0.382632,76.125,-31.75,-33.125,0.0,0.0,0.0,0.0,0.0,0.0,2,0,41.45808417665096,-91.91501095918916,10000.00341537962,119.87641667939184,-0.0038430401531273,0.0002300837979814,,8749.224682894945,11121.848502006404,150,11,2025-09-16,2025-09-26 15:13:24.440,AA,C,637912816,AMBUSH51,1,1,48,2,1,1,225,2,1,0,0,9,1,225,2,1,-150603.1637547517,-4790874.154384541,4197723.024245027,2.41188,2.89127,-0.241112,-113.164,33.2444,34.1885,-0.20993,-7.35725,6.78692,0.0418543,-0.00243534,0.0024499,4,0,41.40128813291966,-91.80052423480936,8770.870196457623,-71.42385823025201,-0.0148652034872175,5.261311819644163,197.934,8749.224682894945,11121.848502006404,150,True,6.173762576559519,False,171.76911970654243,175.96222143470618,False,11.911670175884959,True,False
11,1970-07-23 11:25:56.054362590,2025-09-16,2025-09-26 15:13:25.436,AA,C,603977008,JASSM,3,136,76,2,2,1,225,9,2,0,1,26,0,0,0,0,-159961.95837576812,-4786706.010713424,4202665.968229771,-2.3654,-0.396822,0.382632,76.125,-31.75,-33.125,0.0,0.0,0.0,0.0,0.0,0.0,2,0,41.457645388603694,-91.91399588882096,9999.998886093186,119.87708872619558,-0.002964829642378,0.0057200337929902,,8749.224682894945,11121.848502006404,150,11,2025-09-16,2025-09-26 15:13:25.540,AA,C,639225116,AMBUSH51,1,1,48,2,1,1,225,2,1,0,0,9,1,225,2,1,-150728.3023590493,-4790836.760830883,4197760.987764174,2.42585,2.88512,-0.245771,-113.056,33.917,35.0585,-0.32474,-7.24792,6.76152,-0.0676974,0.0133689,0.00784904,4,0,41.40174347384824,-91.80203338941476,8770.942901317834,-70.99641745613968,-0.0818998926500077,5.976417337227302,198.533,8749.224682894945,11121.848502006404,150,True,6.049557599401297,False,172.25837434154178,175.79426845357338,False,11.594877983468264,True,False
11,1970-07-23 11:25:56.065399612,2025-09-16,2025-09-26 15:13:26.539,AA,C,605289606,JASSM,3,136,76,2,2,1,225,9,2,0,1,26,0,0,0,0,-159878.20105154935,-4786741.120088424,4202629.413542271,-2.3654,-0.396822,0.382632,76.125,-31.75,-33.125,0.0,0.0,0.0,0.0,0.0,0.0,2,0,41.45720642454111,-91.91298042968772,10000.00045384707,119.87776102453566,-0.0020862743334046,0.0057185170802341,,8749.224682894945,11121.848502006404,150,11,2025-09-16,2025-09-26 15:13:26.641,AA,C,640537414,AMBUSH51,1,1,48,2,1,1,225,2,1,0,0,9,1,225,2,1,-150852.3662140491,-4790798.96887221,4197799.512737102,2.33723,2.87303,-0.257841,-112.993,34.2668,35.7194,-0.114095,-7.26231,6.80787,-0.0561896,-0.000132118,0.0126178,4,0,41.40220515683431,-91.80352987418016,8771.180131136038,-70.03408233308575,-0.0980407555530228,0.7248812114041779,198.838,8749.224682894945,11121.848502006404,150,True,5.9256473760724955,False,172.5773741462359,175.62440761269067,False,11.438580868459727,True,False
11,1970-07-23 11:25:56.075417228,2025-09-16,2025-09-26 15:13:27.541,AA,C,606601252,JASSM,3,136,76,2,2,1,225,9,2,0,1,26,0,0,0,0,-159794.50427420562,-4786776.204072799,4202592.884245396,-2.3654,-0.396822,0.382728,76.125,-31.75,-33.125,0.0,0.0,0.0,0.0,0.0,0.0,2,0,41.456767761899386,-91.91196571829748,10000.004667748804,119.88228078095386,-0.005128584571642,0.0057167826368543,,8749.224682894945,11121.848502006404,150,11,2025-09-16,2025-09-26 15:13:27.441,AA,C,641491812,AMBUSH51,1,1,48,2,1,1,225,2,1,0,0,9,1,225,2,1,-150942.64172647538,-4790771.413924769,4197827.8458973,2.27492,2.87633,-0.25428,-113.147,34.276,35.7008,-0.0644238,-7.14789,6.6156,-0.0823468,-0.0055916,-0.00775542,4,0,41.40254344746429,-91.80461883091029,8771.873804054034,-70.30867486926425,-0.1033433671888309,-2.796757620293384,199.205,8749.224682894945,11121.848502006404,150,True,5.821161061644785,False,172.5456871167774,175.48652464786895,False,11.611920966724886,True,False
11,1970-07-23 11:25:56.087341191,2025-09-16,2025-09-26 15:13:28.734,AA,C,607972128,JASSM,3,136,76,2,2,1,225,9,2,0,1,26,0,0,0,0,-159707.02771170562,-4786812.868135299,4202554.702604771,-2.3654,-0.396822,0.382728,76.125,-31.75,-33.125,0.0,0.0,0.0,0.0,0.0,0.0,2,0,41.45630928727116,-91.91090519841408,9999.997899068445,119.88298290011248,-0.0042110182521441,0.0057152599871747,,8749.224682894945,11121.848502006404,150,11,2025-09-16,2025-09-26 15:13:28.740,AA,C,643042712,AMBUSH51,1,1,48,2,1,1,225,2,1,0,0,9,1,225,2,1,-151089.16096702972,-4790727.194846831,4197873.27646258,2.22152,2.88306,-0.248339,-113.722,33.8197,35.0355,-0.126618,-7.24859,6.7204,-0.0116524,0.000194536,-0.00285354,4,0,41.4030857395743,-91.8063860670839,8773.044244928788,-70.81343519207128,-0.0618699491296963,-5.759821820646764,199.498,8749.224682894945,11121.848502006404,150,True,5.682225972048808,False,172.10079622168465,175.27351169245338,False,12.278521742050915,True,False
11,1970-07-23 11:25:56.098785140,2025-09-16,2025-09-26 15:13:29.878,AA,C,609226264,JASSM,3,136,76,2,2,1,225,9,2,0,1,26,0,0,0,0,-159627.00036795562,-4786846.411104049,4202519.772917271,-2.3654,-0.396822,0.382728,76.125,-31.75,-33.125,0.0,0.0,0.0,0.0,0.0,0.0,2,0,41.45588984328068,-91.90993500158936,10000.00026042652,119.88362521513046,-0.0033715870584502,0.0057138645518001,,8749.224682894945,11121.848502006404,150,11,2025-09-16,2025-09-26 15:13:29.843,AA,C,644355010,AMBUSH51,1,1,48,2,1,1,225,2,1,0,0,9,1,225,2,1,-151214.41675825889,-4790690.091683205,4197911.41908316,2.22688,2.88792,-0.24117,-114.276,33.2778,34.4541,-0.138949,-7.18049,6.58023,0.0646056,-0.00131181,-0.00545012,4,0,41.40354046284271,-91.8078965946366,8774.26591185897,-71.29920627068712,-0.1431767698951564,-5.384836995883726,199.877,8749.224682894945,11121.848502006404,150,True,5.560537978865459,False,171.6621210168457,175.07582839019625,False,12.912899954579506,True,False
11,1970-07-23 11:25:56.109385211,2025-09-16,2025-09-26 15:13:30.938,AA,C,610538268,JASSM,3,136,76,2,2,1,225,9,2,0,1,26,0,0,0,0,-159543.28064139312,-4786881.500947799,4202483.229948521,-2.3654,-0.396822,0.382728,76.125,-31.75,-33.125,0.0,0.0,0.0,0.0,0.0,0.0,2,0,41.45545103112471,-91.90892005452314,10000.002058664417,119.88429715115224,-0.0024934221590787,0.0057123988206647,,8749.224682894945,11121.848502006404,150,11,2025-09-16,2025-09-26 15:13:30.906,AA,C,645627542,AMBUSH51,1,1,48,2,1,1,225,2,1,0,0,9,1,225,2,1,-151336.48301062305,-4790654.604807664,4197947.8460541945,2.37985,2.89048,-0.233548,-114.628,33.1543,34.2932,-0.274294,-6.91925,6.40918,0.193659,-0.00983809,-0.00502984,4,0,41.40397456769785,-91.80936842445936,8775.502047182197,-71.7168047759443,-0.3354206544456496,3.4159135094292075,200.353,8749.224682894945,11121.848502006404,150,True,5.4387383987291935,False,171.5134176294509,174.86678469712,False,13.274651652020133,True,False
11,1970-07-23 11:25:56.119447538,2025-09-16,2025-09-26 15:13:31.944,AA,C,611849528,JASSM,3,136,76,2,2,1,225,9,2,0,1,26,0,0,0,0,-159459.60876639312,-4786916.569307174,4202446.706511021,-2.3654,-0.396726,0.382728,76.125,-31.75,-33.125,0.0,0.0,0.0,0.0,0.0,0.0,2,0,41.45501246016073,-91.90790570180728,10000.00231831948,119.88133215010156,-0.0051853808232344,0.0036597062596425,,8749.224682894945,11121.848502006404,150,11,2025-09-16,2025-09-26 15:13:31.943,AA,C,646860308,AMBUSH51,1,1,48,2,1,1,225,2,1,0,0,9,1,225,2,1,-151454.81172773897,-4790619.597131025,4197983.117561684,2.51217,2.88439,-0.239176,-114.471,34.3242,34.8372,-0.264327,-7.29494,6.67142,0.0757326,-0.00143873,0.0288526,4,0,41.40439870546597,-91.81079543642105,8775.127988149723,-71.25087602900513,-0.3622163985511578,10.913079700427396,200.28,8749.224682894945,11121.848502006404,150,False,5.319040169994417,False,172.04662212352858,174.65342521640517,False,13.00624735549251,True,False
11,1970-07-23 11:25:56.130468334,2025-09-16,2025-09-26 15:13:33.046,AA,C,613102228,JASSM,3,136,76,2,2,1,225,9,2,0,1,26,0,0,0,0,-159379.67224295562,-4786950.069307174,4202411.813932896,-2.3654,-0.396726,0.382728,76.125,-31.75,-33.125,0.0,0.0,0.0,0.0,0.0,0.0,2,0,41.4545934789435,-91.90693664657644,10000.001014828384,119.88197369292352,-0.0043469094786505,0.0036582688573992,,8749.224682894945,11121.848502006404,150,11,2025-09-16,2025-09-26 15:13:33.043,AA,C,648172606,AMBUSH51,1,1,48,2,1,1,225,2,1,0,0,9,1,225,2,1,-151580.07769240387,-4790580.958576391,4198022.035983632,2.59841,2.864,-0.261011,-113.735,35.95,36.5931,-0.235746,-7.28688,6.72459,0.0756119,-0.00094563,0.0169267,4,0,41.40486774075438,-91.81230672672044,8774.285146133501,-69.56490329598307,-0.3306484459661498,15.554843119251704,201.16,8749.224682894945,11121.848502006404,150,False,5.197109146307801,False,173.18973783389302,174.43152833452848,False,12.111692054079823,True,False
11,1970-07-23 11:25:56.141610006,2025-09-16,2025-09-26 15:13:34.161,AA,C,614356448,JASSM,3,136,76,2,2,1,225,9,2,0,1,26,0,0,0,0,-159299.64001639312,-4786983.610322799,4202376.876432896,-2.3654,-0.396726,0.382728,76.125,-31.75,-33.125,0.0,0.0,0.0,0.0,0.0,0.0,2,0,41.45417396126232,-91.9059664432878,9999.999599991072,119.88261599045298,-0.0035074207171357,0.0036568067396191,,8749.224682894945,11121.848502006404,150,11,2025-09-16,2025-09-26 15:13:34.176,AA,C,649524672,AMBUSH51,1,1,48,2,1,1,225,2,1,0,0,9,1,225,2,1,-151709.50671332327,-4790538.555957946,4198064.644813431,2.60858,2.84582,-0.278273,-112.728,38.2307,38.5594,-0.164356,-7.47455,6.78541,-0.0375641,0.00597651,0.0368879,4,0,41.405383278983,-91.81386920417742,8772.526007889755,-68.15746708776811,-0.377654151755142,15.850763573504532,201.27,8749.224682894945,11121.848502006404,150,False,5.071705987671956,False,174.62056910883797,174.2071739887325,False,10.975123020061593,True,False
11,1970-07-23 11:25:56.151389270,2025-09-16,2025-09-26 15:13:35.138,AA,C,615608910,JASSM,3,136,76,2,2,1,225,9,2,0,1,26,0,0,0,0,-159219.71911795562,-4787017.102510299,4202341.989714146,-2.3654,-0.396726,0.382728,76.125,-31.75,-33.125,0.0,0.0,0.0,0.0,0.0,0.0,2,0,41.45375504659646,-91.9049976029316,10000.002077284757,119.88325738035336,-0.0026691139924715,0.0036553702668066,,8749.224682894945,11121.848502006404,150,11,2025-09-16,2025-09-26 15:13:35.209,AA,C,650757436,AMBUSH51,1,1,48,2,1,1,225,2,1,0,0,9,1,225,2,1,-151825.30532395738,-4790498.281088977,4198105.224290829,2.56827,2.82202,-0.301111,-111.714,39.521,40.5759,-0.0227357,-7.7714,6.89165,-0.016057,0.00400202,0.0122557,4,0,41.405875007707145,-91.81526804064409,8770.544554653767,-66.30921384035153,-0.413964350861369,13.139218419371266,201.466,8749.224682894945,11121.848502006404,150,False,4.953273021216584,False,175.80113880140107,174.00550037071432,False,9.99522578381725,True,False
11,1970-07-23 11:25:56.162407960,2025-09-16,2025-09-26 15:13:36.240,AA,C,616919976,JASSM,3,136,76,2,2,1,225,9,2,0,1,26,0,0,0,0,-159136.05896170562,-4787052.161104049,4202305.468229771,-2.3654,-0.396726,0.382728,76.125,-31.75,-33.125,0.0,0.0,0.0,0.0,0.0,0.0,2,0,41.45331650992329,-91.90398344704796,10000.00254275356,119.88392876424577,-0.0017915787957214,0.0036538547720339,,8749.224682894945,11121.848502006404,150,11,2025-09-16,2025-09-26 15:13:36.209,AA,C,651950436,AMBUSH51,1,1,48,2,1,1,225,2,1,0,0,9,1,225,2,1,-151936.4306000981,-4790458.170332672,4198146.285321073,2.47864,2.81449,-0.315423,-110.862,40.4066,42.1938,-0.184364,-7.82473,6.89124,-0.12689,0.00556663,0.0155348,4,0,41.40636987566622,-91.81661099751076,8769.655685323894,-65.43496572115886,-0.1377584720599626,7.86836127672615,201.539,8749.224682894945,11121.848502006404,150,True,4.83449003950956,False,176.7086704249689,173.80975705134315,False,9.263865912394605,True,False
11,1970-07-23 11:25:56.172426136,2025-09-16,2025-09-26 15:13:37.242,AA,C,618114938,JASSM,3,136,76,2,2,1,225,9,2,0,1,26,0,0,0,0,-159059.80798514312,-4787084.114229049,4202272.179167271,-2.3654,-0.396726,0.382824,76.125,-31.75,-33.125,0.0,0.0,0.0,0.0,0.0,0.0,2,0,41.45291679328538,-91.90305911980376,10000.001424219225,119.8883887755986,-0.004911850912174,0.0036522662860197,,8749.224682894945,11121.848502006404,150,11,2025-09-16,2025-09-26 15:13:37.242,AA,C,653183200,AMBUSH51,1,1,48,2,1,1,225,2,1,0,0,9,1,225,2,1,-152050.53605677508,-4790416.035796019,4198190.146219923,2.37219,2.80283,-0.326605,-110.327,40.8796,42.9032,0.0387252,-7.51702,6.52307,-0.0761258,0.0119915,-0.00904331,4,0,41.40689510653504,-91.81799035095656,8770.105609076845,-64.53475054598061,-0.1434811544508614,1.5560649877575752,201.576,8749.224682894945,11121.848502006404,150,True,4.718003737895536,False,177.16143341443316,173.6166890182202,False,9.00342755774674,True,False
11,1970-07-23 11:25:56.183449021,2025-09-16,2025-09-26 15:13:38.344,AA,C,619425374,JASSM,3,136,76,2,2,1,225,9,2,0,1,26,0,0,0,0,-158976.18786795562,-4787119.153291549,4202235.673307896,-2.3654,-0.396726,0.382824,76.125,-31.75,-33.125,0.0,0.0,0.0,0.0,0.0,0.0,2,0,41.4524784532348,-91.90204547647627,10000.000484732269,119.88905980911322,-0.0040347381151668,0.0036508133107166,,8749.224682894945,11121.848502006404,150,11,2025-09-16,2025-09-26 15:13:38.443,AA,C,654614800,AMBUSH51,1,1,48,2,1,1,225,2,1,0,0,9,1,225,2,1,-152182.53628228398,-4790367.281028777,4198241.518893755,2.28721,2.80897,-0.323313,-110.127,40.5617,42.8766,-0.139096,-7.25143,6.19319,-0.0463754,-0.0120248,-0.0101668,4,0,41.40750703519415,-91.81958605604336,8771.980350522443,-64.90353794453013,-0.0353337094496351,-3.200156978377444,201.282,8749.224682894945,11121.848502006404,150,True,4.586030501775347,False,177.1039213345128,173.38859630152118,False,9.254996629626623,True,False
11,1970-07-23 11:25:56.193491947,2025-09-16,2025-09-26 15:13:39.349,AA,C,620678072,JASSM,3,136,76,2,2,1,225,9,2,0,1,26,0,0,0,0,-158896.25232108062,-4787152.647432174,4202200.774870396,-2.3654,-0.396726,0.382824,76.125,-31.75,-33.125,0.0,0.0,0.0,0.0,0.0,0.0,2,0,41.4520594176448,-91.90107651067282,9999.999263361338,119.88970126058057,-0.0031962730011186,0.0036494225923637,,8749.224682894945,11121.848502006404,150,11,2025-09-16,2025-09-26 15:13:39.209,AA,C,655529432,AMBUSH51,1,1,48,2,1,1,225,2,1,0,0,9,1,225,2,1,-152266.99853600527,-4790336.193163378,4198274.210725041,2.27269,2.8078,-0.32041,-110.213,40.3699,42.5492,0.023357,-7.2768,6.0909,0.00199009,-0.000739651,-0.00701473,4,0,41.40789671572062,-91.82060706534736,8773.063035997036,-64.97917024729549,-0.195957710312897,-4.0529369691521575,201.136,8749.224682894945,11121.848502006404,150,True,4.485159275924251,False,176.93834749869322,173.20976436128976,False,9.606457793612988,True,False
11,1970-07-23 11:25:56.204807286,2025-09-16,2025-09-26 15:13:40.480,AA,C,621872154,JASSM,3,136,76,2,2,1,225,9,2,0,1,26,0,0,0,0,-158820.05700858062,-4787184.573213424,4202167.509245396,-2.3654,-0.396726,0.382824,76.125,-31.75,-33.125,0.0,0.0,0.0,0.0,0.0,0.0,2,0,41.45165998747615,-91.90015289545173,9999.99922175432,119.89031268518104,-0.0023970434789005,0.003648102039983,,8749.224682894945,11121.848502006404,150,11,2025-09-16,2025-09-26 15:13:40.642,AA,C,657239396,AMBUSH51,1,1,48,2,1,1,225,2,1,0,0,9,1,225,2,1,-152425.0394135871,-4790278.587617255,4198334.2279876815,2.31116,2.81586,-0.310261,-110.36,40.2659,41.5637,-0.0399891,-7.33848,6.22899,0.106538,-0.00320308,-0.0186411,4,0,41.40861469302937,-91.82251733677872,8773.985544781879,-65.70322216953254,-0.2851138355974785,-1.7027119871215992,201.013,8749.224682894945,11121.848502006404,150,True,4.3427958661245905,False,176.58871077392766,172.92010914422488,False,10.313885029664167,True,False
11,1970-07-23 11:25:56.215366961,2025-09-16,2025-09-26 15:13:41.536,AA,C,623184054,JASSM,3,136,76,2,2,1,225,9,2,0,1,26,0,0,0,0,-158736.34314139312,-4787219.649385299,4202130.958464146,-2.3654,-0.39663,0.382824,76.125,-31.75,-33.125,0.0,0.0,0.0,0.0,0.0,0.0,2,0,41.45122111625657,-91.89913815572947,9999.998356608174,119.88734815901373,-0.0050885555932496,0.0015949133084011,,8749.224682894945,11121.848502006404,150,11,2025-09-16,2025-09-26 15:13:41.409,AA,C,658154028,AMBUSH51,1,1,48,2,1,1,225,2,1,0,0,9,1,225,2,1,-152509.66285776117,-4790247.602398561,4198366.157128654,2.39529,2.81732,-0.308297,-110.315,40.2934,41.6929,-0.320477,-7.22526,6.3118,0.111529,-0.00549797,-0.00297421,4,0,41.4089985577621,-91.82354026767338,8773.691727484456,-65.84009439706003,-0.3054068221709625,3.143689023153992,200.83,8749.224682894945,11121.848502006404,150,True,4.239813149483155,False,176.64519452496324,172.71057775659207,False,10.461117310622186,True,False
11,1970-07-23 11:25:56.226830462,2025-09-16,2025-09-26 15:13:42.683,AA,C,624495822,JASSM,3,136,76,2,2,1,225,9,2,0,1,26,0,0,0,0,-158652.63806326812,-4787254.719697799,4202094.411589146,-2.3654,-0.39663,0.382824,76.125,-31.75,-33.125,0.0,0.0,0.0,0.0,0.0,0.0,2,0,41.45078229555621,-91.89812353708255,9999.997210320544,119.88801981569112,-0.0042105522938625,0.0015934018495562,,8749.224682894945,11121.848502006404,150,11,2025-09-16,2025-09-26 15:13:42.809,AA,C,659824228,AMBUSH51,1,1,48,2,1,1,225,2,1,0,0,9,1,225,2,1,-152663.4529335774,-4790190.289220037,4198425.087466963,2.58049,2.80655,-0.320328,-109.411,41.397,42.9516,-0.254428,-7.26594,6.36064,0.114996,-0.00749326,0.0137059,4,0,41.409708215740245,-91.82539969961483,8772.666548931822,-64.93828784416473,-0.2438161720800884,13.559889323819366,200.5,8749.224682894945,11121.848502006404,150,False,4.095076132296208,False,177.51986536081384,172.38907663538146,False,9.942887355046544,True,False
11,1970-07-23 11:25:56.236027629,2025-09-16,2025-09-26 15:13:43.602,AA,C,625690208,JASSM,3,136,76,2,2,1,225,9,2,0,1,26,0,0,0,0,-158576.42321951812,-4787286.651338424,4202061.134245396,-2.3654,-0.39663,0.382824,76.125,-31.75,-33.125,0.0,0.0,0.0,0.0,0.0,0.0,2,0,41.450382731507126,-91.8971997222702,9999.997559804851,119.88863135701156,-0.0034111145780624,0.0015920231075141,,8749.224682894945,11121.848502006404,150,11,2025-09-16,2025-09-26 15:13:43.543,AA,C,660699092,AMBUSH51,1,1,48,2,1,1,225,2,1,0,0,9,1,225,2,1,-152743.43514085375,-4790159.45559765,4198456.684460138,2.63897,2.79345,-0.330233,-108.613,42.8071,43.8346,-0.376202,-7.2738,6.46441,0.0539758,0.0104311,0.0289962,4,0,41.41008979136311,-91.8263671488637,8771.674055057381,-64.03564537008548,-0.3540449220471531,16.66568765369438,200.28,8749.224682894945,11121.848502006404,150,False,3.9989828791981457,False,178.3265887734559,172.18053217575195,False,9.442468784511734,True,False
11,1970-07-23 11:25:56.246466590,2025-09-16,2025-09-26 15:13:44.646,AA,C,627002072,JASSM,3,136,76,2,2,1,225,9,2,0,1,26,0,0,0,0,-158492.71130545562,-4787321.723604049,4202024.583464146,-2.3654,-0.39663,0.382824,76.125,-31.75,-33.125,0.0,0.0,0.0,0.0,0.0,0.0,2,0,41.44994385701557,-91.89618504725176,10000.001571531971,119.88930303983273,-0.0025330392863129,0.0015905106288991,,8749.224682894945,11121.848502006404,150,11,2025-09-16,2025-09-26 15:13:44.642,AA,C,662011392,AMBUSH51,1,1,48,2,1,1,225,2,1,0,0,9,1,225,2,1,-152862.0142730617,-4790111.205739742,4198505.782505398,2.63278,2.76533,-0.351974,-107.188,44.9017,45.7373,-0.288567,-7.381,6.52341,-0.132537,0.00121195,0.0403479,4,0,41.41068579355335,-91.82780244738956,8768.861420101675,-62.08302461960847,-0.5518315852880539,15.756800733234243,200.537,8749.224682894945,11121.848502006404,150,False,3.8737337570965593,False,179.59348920796262,171.9083491642855,False,8.426052692953462,True,False
11,1970-07-23 11:25:56.258006331,2025-09-16,2025-09-26 15:13:45.800,AA,C,628196052,JASSM,3,136,76,2,2,1,225,9,2,0,1,26,0,0,0,0,-158416.52282889312,-4787353.641572799,4201991.315886021,-2.3654,-0.39663,0.382824,76.125,-31.75,-33.125,0.0,0.0,0.0,0.0,0.0,0.0,2,0,41.44954441942591,-91.8952615768588,10000.00022892716,119.88991434298796,-0.0017338806174423,0.0015891352412029,,8749.224682894945,11121.848502006404,150,11,2025-09-16,2025-09-26 15:13:45.775,AA,C,663363456,AMBUSH51,1,1,48,2,1,1,225,2,1,0,0,9,1,225,2,1,-152982.40502758074,-4790059.980220632,4198557.985385207,2.39138,2.74538,-0.371124,-106.488,45.7952,47.198,-0.030744,-7.64732,6.88983,-0.218946,-0.00228345,0.0130027,4,0,41.41132009716224,-91.82926055555764,8765.620593619604,-60.55211114012724,-0.5228032109229037,1.5070102339105091,200.989,8749.224682894945,11121.848502006404,150,True,3.751038066773166,False,179.35476692927568,171.6442540088357,False,7.881338635455255,True,False
11,1970-07-23 11:25:56.267367914,2025-09-16,2025-09-26 15:13:46.736,AA,C,629447072,JASSM,3,136,76,2,2,1,225,9,2,0,1,26,0,0,0,0,-158336.69372733062,-4787387.084932174,4201956.458464146,-2.3654,-0.39663,0.38292,76.125,-31.75,-33.125,0.0,0.0,0.0,0.0,0.0,0.0,2,0,41.44912588455736,-91.8942939910058,10000.003334279998,119.89440308524225,-0.0048164899112626,0.0015875002008456,,8749.224682894945,11121.848502006404,150,11,2025-09-16,2025-09-26 15:13:46.743,AA,C,664516688,AMBUSH51,1,1,48,2,1,1,225,2,1,0,0,9,1,225,2,1,-153085.9884714967,-4790015.613822013,4198604.007642837,2.2559,2.756,-0.364469,-106.674,45.5645,47.2576,0.0299991,-7.31903,6.59456,-0.100777,-0.00398538,-0.0232371,4,0,41.41187504619887,-91.83051523728992,8764.524427748362,-61.224726002094144,-0.3947350874647911,-6.031557584773384,201.246,8749.224682894945,11121.848502006404,150,True,3.6362870853278877,False,179.46422005531608,171.3897195903764,False,8.172517462006056,True,False
11,1970-07-23 11:25:56.277406239,2025-09-16,2025-09-26 15:13:47.740,AA,C,630641922,JASSM,3,136,76,2,2,1,225,9,2,0,1,26,0,0,0,0,-158260.44861014312,-4787419.024385299,4201923.163542271,-2.3654,-0.39663,0.38292,76.125,-31.75,-33.125,0.0,0.0,0.0,0.0,0.0,0.0,2,0,41.44872613050936,-91.89336985818686,9999.99915519592,119.8950148170592,-0.0040167353771025,0.0015861734193079,,8749.224682894945,11121.848502006404,150,11,2025-09-16,2025-09-26 15:13:47.608,AA,C,665550622,AMBUSH51,1,1,48,2,1,1,225,2,1,0,0,9,1,225,2,1,-153178.3777540407,-4789976.41992214,4198644.711816985,2.22953,2.76402,-0.353977,-107.075,45.0049,46.7523,-0.184543,-7.1856,6.35157,0.0197729,-0.016238,-0.0071999,4,0,41.41236543710736,-91.8316342005314,8763.73478341402,-61.95429048121537,-0.517267393523541,-7.375295841464181,201.356,8749.224682894945,11121.848502006404,150,True,3.5310244430568,False,179.8469211910762,171.13800901973593,False,8.762985044724386,True,False
