Subject_cm,Timestamp,SampleDate_cm,SampleTime_cm,Configuration_cm,Scenario_cm,DisTime_cm,MarkingTxt_cm,Application_cm,EntId_cm,Site_cm,ExerciseId_cm,ForceId_cm,Category_cm,Country_cm,Domain_cm,Kind_cm,Extra_cm,Specific_cm,Subcategory_cm,AltCategory_cm,AltCountry_cm,AltDomain_cm,AltKind_cm,ECEF_X_cm,ECEF_Y_cm,ECEF_Z_cm,OriPhi_cm,OriPsi_cm,OriTheta_cm,LinVelX_cm,LinVelY_cm,LinVelZ_cm,LinAccX_cm,LinAccY_cm,LinAccZ_cm,AngVelX_cm,AngVelY_cm,AngVelZ_cm,DrAlg_cm,Appearance_cm,Latitude_cm,Longitude_cm,Altitude_cm,Heading_cm,Pitch_cm,Roll_cm,CalibratedAirspeed_cm,CM_Altitude_Lead_cm,CM_Altitude_Wing_cm,CM_Airspeed_cm,Subject_ac,SampleDate_ac,SampleTime_ac,Configuration_ac,Scenario_ac,DisTime_ac,MarkingTxt_ac,Application_ac,EntId_ac,Site_ac,ExerciseId_ac,ForceId_ac,Category_ac,Country_ac,Domain_ac,Kind_ac,Extra_ac,Specific_ac,Subcategory_ac,AltCategory_ac,AltCountry_ac,AltDomain_ac,AltKind_ac,ECEF_X_ac,ECEF_Y_ac,ECEF_Z_ac,OriPhi_ac,OriPsi_ac,OriTheta_ac,LinVelX_ac,LinVelY_ac,LinVelZ_ac,LinAccX_ac,LinAccY_ac,LinAccZ_ac,AngVelX_ac,AngVelY_ac,AngVelZ_ac,DrAlg_ac,Appearance_ac,Latitude_ac,Longitude_ac,Altitude_ac,Heading_ac,Pitch_ac,Roll_ac,CalibratedAirspeed_ac,CM_Altitude_Lead_ac,CM_Altitude_Wing_ac,CM_Airspeed_ac,Bank_Angle_Condition,distance_nm,Distance_Condition,angle_between_vel,angle_between_pos,Cone_Condition,angle_between_pos_nose,Nose_Cone_Condition,Intercept_Criteria
11,1970-07-23 11:41:28.991342321,2025-09-17,2025-09-26 17:08:19.134,HA,D,1255436786,JASSM,3,102,76,2,2,1,225,9,2,0,1,26,0,0,0,0,-188207.34216483065,-4786096.764619674,4202193.003386021,-2.30155,-0.153302,0.128183,88.5,-13.625,-11.375,0.0,0.0,0.0,0.0,0.0,0.0,2,0,41.451966102564526,-92.25192545877891,9999.999401431138,99.81671402315962,-0.0037391312630278,0.0023905749057026,,9355.13352713969,11205.82783038296,150,11,2025-09-17,2025-09-26 17:08:19.167,HA,D,275610750,AMBUSH51,1,1,48,2,1,1,225,2,1,0,0,9,1,225,2,1,-149671.87212832388,-4790561.751078161,4198379.206416371,2.40598,2.66111,-0.453253,-91.3675,50.2111,53.2597,-0.0838691,-7.19142,6.63169,0.0053128,-0.00639263,-0.00308864,4,0,41.40775003578643,-91.78951412696,9354.510356430614,-54.07879513036494,-0.1837963142061078,0.3535121107865082,187.791,9355.13352713969,11205.82783038296,150,True,20.963487848987903,False,152.53287470871223,177.3213155578797,False,30.097612978615583,False,False
11,1970-07-23 11:41:29.001384069,2025-09-17,2025-09-26 17:08:20.138,HA,D,1256629356,JASSM,3,102,76,2,2,1,225,9,2,0,1,26,0,0,0,0,-188118.80700858065,-4786110.452119674,4202181.456511021,-2.30155,-0.153302,0.128183,88.5,-13.625,-11.375,0.0,0.0,0.0,0.0,0.0,0.0,2,0,41.4518274535321,-92.25086078340738,10000.000303735464,99.81741882872927,-0.0029291892634925,0.0023900152272049,,9355.13352713969,11205.82783038296,150,11,2025-09-17,2025-09-26 17:08:20.167,HA,D,276803748,AMBUSH51,1,1,48,2,1,1,225,2,1,0,0,9,1,225,2,1,-149763.0164692747,-4790510.972289903,4198432.577366475,2.40059,2.66035,-0.459888,-91.3628,50.3294,53.6709,-0.096962,-7.63388,6.96141,-0.0255861,0.0120539,0.00221271,4,0,41.40839547376841,-91.7906221299688,9352.441659716342,-53.79391940827161,0.0711159442503401,0.0253109570092297,188.035,9355.13352713969,11205.82783038296,150,True,20.860685075183735,False,152.3816582766744,177.22873413815353,False,30.34098388270059,False,False
11,1970-07-23 11:41:29.011262316,2025-09-17,2025-09-26 17:08:21.126,HA,D,1257821976,JASSM,3,102,76,2,2,1,225,9,2,0,1,26,0,0,0,0,-188030.26794608065,-4786124.139619674,4202169.907682896,-2.30155,-0.153302,0.128183,88.5,-13.5,-11.375,0.0,0.0,0.0,0.0,0.0,0.0,2,0,41.45168878238216,-92.24979606587966,10000.00077628391,99.81812366026703,-0.0021192106711843,0.0023894493970736,,9355.13352713969,11205.82783038296,150,11,2025-09-17,2025-09-26 17:08:20.966,HA,D,277758146,AMBUSH51,1,1,48,2,1,1,225,2,1,0,0,9,1,225,2,1,-149835.48978431,-4790470.992832542,4198475.118606271,2.37617,2.65754,-0.462825,-91.4859,50.1903,53.9263,-0.0306251,-7.07998,6.58236,-0.0210421,-0.0273921,-0.0079177,4,0,41.40890701981733,-91.79150302460238,9352.00312619162,-53.5743386519021,0.0986584869168494,-1.4455995931359178,188.304,9355.13352713969,11205.82783038296,150,True,20.769063582085582,False,152.32712937331527,177.21397597896348,False,30.41902574903965,False,False
11,1970-07-23 11:41:29.020907055,2025-09-17,2025-09-26 17:08:22.090,HA,D,1258956016,JASSM,3,102,76,2,2,1,225,9,2,0,1,26,0,0,0,0,-187946.0784929556,-4786137.153291549,4202158.925261021,-2.30155,-0.153302,0.128183,88.5,-13.5,-11.375,0.0,0.0,0.0,0.0,0.0,0.0,2,0,41.45155691651792,-92.24878365900716,9999.999591298118,99.81879386091543,-0.0013490242607399,0.0023889132231638,,9355.13352713969,11205.82783038296,150,11,2025-09-17,2025-09-26 17:08:22.199,HA,D,279229512,AMBUSH51,1,1,48,2,1,1,225,2,1,0,0,9,1,225,2,1,-149948.50827184424,-4790408.160761521,4198542.241436541,2.37504,2.64879,-0.450284,-91.5307,48.7003,55.6321,-0.119128,-6.48348,6.01956,-0.0080571,-0.00862094,-0.00910572,4,0,41.40971290689187,-91.79287694492216,9351.829367423612,-53.726245002830815,-0.7340887851198156,-1.730023224840412,188.426,9355.13352713969,11205.82783038296,150,True,20.65570246921158,False,152.17677658229638,177.09777163117167,False,30.66620328955157,False,False
11,1970-07-23 11:41:29.030339606,2025-09-17,2025-09-26 17:08:23.033,HA,D,1260147952,JASSM,3,102,76,2,2,1,225,9,2,0,1,26,0,0,0,0,-187857.5902117056,-4786150.831025924,4202147.380339146,-2.30155,-0.153302,0.128183,88.5,-13.5,-11.375,0.0,0.0,0.0,0.0,0.0,0.0,2,0,41.45141829875627,-92.24771956188432,9999.997623066349,99.81949827797088,-0.0005395096727417,0.0023883407012098,,9355.13352713969,11205.82783038296,150,11,2025-09-17,2025-09-26 17:08:22.966,HA,D,280144144,AMBUSH51,1,1,48,2,1,1,225,2,1,0,0,9,1,225,2,1,-150018.07521824058,-4790368.23213201,4198582.447811393,2.37676,2.6465,-0.452092,-91.8012,51.5011,53.3047,-0.094185,-6.96346,6.36368,0.00982561,0.00152196,0.00347979,4,0,41.41020891461167,-91.79372312817544,9346.23652848748,-53.56964484206339,-0.7358903737726785,-1.6908189344232587,188.622,9355.13352713969,11205.82783038296,150,True,20.56586559365928,False,152.2841909654266,177.02212721143542,False,30.666014911401508,False,False
11,1970-07-23 11:41:29.040502709,2025-09-17,2025-09-26 17:08:24.050,HA,D,1261283000,JASSM,3,102,76,2,2,1,225,9,2,0,1,26,0,0,0,0,-187773.32653983065,-4786163.856416549,4202136.388151646,-2.30145,-0.153206,0.128279,88.5,-13.5,-11.375,0.0,0.0,0.0,0.0,0.0,0.0,2,0,41.45128629631106,-92.24670627081083,10000.004638281363,99.8206232101706,-0.0074920065224774,0.0071767770696696,,9355.13352713969,11205.82783038296,150,11,2025-09-17,2025-09-26 17:08:23.965,HA,D,281337144,AMBUSH51,1,1,48,2,1,1,225,2,1,0,0,9,1,225,2,1,-150109.61897580684,-4790316.213862767,4198635.854754993,2.38733,2.64247,-0.451458,-91.9932,51.8547,53.298,-0.13149,-7.15168,6.53982,-0.00455338,-0.001549,0.000556559,4,0,41.41086185584601,-91.79483645220802,9341.2552258289,-53.440540310610125,-0.9009689058490504,-1.1881683856620018,189.135,9355.13352713969,11205.82783038296,150,True,20.465332367669824,False,152.2569927356443,176.9244487923387,False,30.793333824992093,False,False
11,1970-07-23 11:41:29.049334341,2025-09-17,2025-09-26 17:08:24.933,HA,D,1262416394,JASSM,3,102,76,2,2,1,225,9,2,0,1,26,0,0,0,0,-187689.1839617056,-4786176.860322799,4202125.409636021,-2.30145,-0.153206,0.128279,88.5,-13.5,-11.375,0.0,0.0,0.0,0.0,0.0,0.0,2,0,41.45115447678771,-92.24569444131576,10000.004019184053,99.82129302332476,-0.0067222497689545,0.0071762471424839,,9355.13352713969,11205.82783038296,150,11,2025-09-17,2025-09-26 17:08:24.866,HA,D,282410842,AMBUSH51,1,1,48,2,1,1,225,2,1,0,0,9,1,225,2,1,-150192.7509648707,-4790269.229566315,4198683.990830118,2.39265,2.64645,-0.454006,-92.1304,51.787,53.445,-0.197561,-7.2715,6.64662,9.25865e-05,0.00175706,0.00317603,4,0,41.41145082548432,-91.79584739974224,9336.574162034874,-53.495495772413975,-0.6543383148142596,-0.7826812502382992,189.404,9355.13352713969,11205.82783038296,150,True,20.369947636583426,False,152.27369910385264,176.83483748694192,False,30.865719766563785,False,False
11,1970-07-23 11:41:29.059702139,2025-09-17,2025-09-26 17:08:25.970,HA,D,1263608312,JASSM,3,102,76,2,2,1,225,9,2,0,1,26,0,0,0,0,-187600.69763358065,-4786190.534150924,4202113.862761021,-2.30145,-0.153206,0.128279,88.5,-13.5,-11.375,0.0,0.0,0.0,0.0,0.0,0.0,2,0,41.45101584006585,-92.24463038252254,10000.000548067095,99.82199740945694,-0.0059127553549457,0.0071756871912742,,9355.13352713969,11205.82783038296,150,11,2025-09-17,2025-09-26 17:08:26.032,HA,D,283802674,AMBUSH51,1,1,48,2,1,1,225,2,1,0,0,9,1,225,2,1,-150299.32730432396,-4790208.802195237,4198745.793435849,2.39948,2.64593,-0.457332,-92.2614,51.8512,53.6565,-0.109633,-7.42023,6.67808,0.0017321,-0.00618041,-0.000652266,4,0,41.41220764508967,-91.79714354789898,9330.305836271242,-53.34888448189288,-0.5295159283658523,-0.4059240287378632,189.954,9355.13352713969,11205.82783038296,150,True,20.258335389726504,False,152.23753624133334,176.72016723691158,False,31.016502419660878,False,False
11,1970-07-23 11:41:29.070920429,2025-09-17,2025-09-26 17:08:27.092,HA,D,1264860840,JASSM,3,102,76,2,2,1,225,9,2,0,1,26,0,0,0,0,-187507.7113054556,-4786204.903291549,4202101.727995396,-2.30145,-0.153206,0.128279,88.5,-13.5,-11.375,0.0,0.0,0.0,0.0,0.0,0.0,2,0,41.45087013823949,-92.24351221560237,9999.999770492164,99.82273761202433,-0.005062093156548,0.0071750946968452,,9355.13352713969,11205.82783038296,150,11,2025-09-17,2025-09-26 17:08:26.966,HA,D,284916140,AMBUSH51,1,1,48,2,1,1,225,2,1,0,0,9,1,225,2,1,-150385.21036968843,-4790160.182752145,4198795.811397611,2.40151,2.6484,-0.459988,-92.3321,51.945,53.8487,-0.248433,-7.38078,6.80377,0.000591929,-0.00536481,0.000708442,4,0,41.41281851278903,-91.79818802519432,9325.913372840294,-53.34149660748727,-0.3305775979486206,-0.227402438454969,190.272,9355.13352713969,11205.82783038296,150,True,20.156578626568052,False,152.1813936045843,176.62459849492154,False,31.16828416884553,False,False
11,1970-07-23 11:41:29.079382154,2025-09-17,2025-09-26 17:08:27.938,HA,D,1265995548,JASSM,3,102,76,2,2,1,225,9,2,0,1,26,0,0,0,0,-187423.47107108065,-4786217.918916549,4202090.735807896,-2.30145,-0.153206,0.128279,88.5,-13.5,-11.375,0.0,0.0,0.0,0.0,0.0,0.0,2,0,41.45073815139475,-92.2424992263038,10000.000801608065,99.82340818740836,-0.004291446486803,0.0071745774514003,,9355.13352713969,11205.82783038296,150,11,2025-09-17,2025-09-26 17:08:27.967,HA,D,286109138,AMBUSH51,1,1,48,2,1,1,225,2,1,0,0,9,1,225,2,1,-150477.35829422247,-4790108.267829742,4198849.528591649,2.39374,2.64845,-0.462959,-92.4244,51.8411,54.0779,-0.0946545,-7.48621,6.85453,-0.00486131,0.00297837,-0.00287434,4,0,41.41347277794175,-91.79930862131118,9321.934918197152,-53.229625242408105,-0.2017931643546313,-0.6720641892144451,190.614,9355.13352713969,11205.82783038296,150,True,20.05597493476133,False,152.16958027848904,176.52273138338356,False,31.280841002097016,False,False
11,1970-07-23 11:41:29.089708099,2025-09-17,2025-09-26 17:08:28.970,HA,D,1267187042,JASSM,3,102,76,2,2,1,225,9,2,0,1,26,0,0,0,0,-187335.0159929556,-4786231.586885299,4202079.190886021,-2.30145,-0.153206,0.128279,88.5,-13.5,-11.375,0.0,0.0,0.0,0.0,0.0,0.0,2,0,41.45059952588348,-92.241435557379,10000.002746135106,99.8241123096392,-0.0034822368540672,0.007174009444123,,9355.13352713969,11205.82783038296,150,11,2025-09-17,2025-09-26 17:08:28.966,HA,D,287302136,AMBUSH51,1,1,48,2,1,1,225,2,1,0,0,9,1,225,2,1,-150569.5654715764,-4790056.506328867,4198903.443587904,2.37605,2.6491,-0.46479,-92.5461,51.6917,54.1936,-0.26564,-7.23153,6.71426,-0.0420166,0.010947,0.0154765,4,0,41.41412744340301,-91.80042989075996,9318.77486247376,-53.18491581306507,-0.1003469657964311,-1.668888829982684,190.773,9355.13352713969,11205.82783038296,150,True,19.953096358173294,False,152.2096804297006,176.41935801172355,False,31.343259645094758,False,False
11,1970-07-23 11:41:29.099383833,2025-09-17,2025-09-26 17:08:29.938,HA,D,1268380166,JASSM,3,102,76,2,2,1,225,9,2,0,1,26,0,0,0,0,-187246.4378679556,-4786245.270479049,4202067.628386021,-2.30145,-0.153206,0.128279,88.5,-13.5,-11.375,0.0,0.0,0.0,0.0,0.0,0.0,2,0,41.45046070760321,-92.24037041494316,9999.997261026909,99.82481740535594,-0.0026719044017411,0.0071734501874968,,9355.13352713969,11205.82783038296,150,11,2025-09-17,2025-09-26 17:08:30.033,HA,D,288574668,AMBUSH51,1,1,48,2,1,1,225,2,1,0,0,9,1,225,2,1,-150668.13968204588,-4790001.45533116,4198961.228510708,2.25624,2.65134,-0.469536,-93.038,51.0109,54.1837,-0.0536571,-7.739,6.85507,-0.0759032,0.000194536,-0.00477809,4,0,41.41482660061207,-91.80162850367614,9316.423845514344,-53.08763914648036,0.1789770604938424,-8.475518667313514,191.042,9355.13352713969,11205.82783038296,150,True,19.846471467287408,False,152.5248190612096,176.3084428840117,False,31.135617244191558,False,False
11,1970-07-23 11:41:29.109383402,2025-09-17,2025-09-26 17:08:30.938,HA,D,1269514114,JASSM,3,102,76,2,2,1,225,9,2,0,1,26,0,0,0,0,-187162.25622733065,-4786258.276338424,4202056.640104771,-2.30145,-0.153206,0.128279,88.5,-13.5,-11.375,0.0,0.0,0.0,0.0,0.0,0.0,2,0,41.45032876392848,-92.23935814329656,10000.000172733084,99.82548750022885,-0.0019017903707233,0.0071729124786656,,9355.13352713969,11205.82783038296,150,11,2025-09-17,2025-09-26 17:08:31.032,HA,D,289767668,AMBUSH51,1,1,48,2,1,1,225,2,1,0,0,9,1,225,2,1,-150761.34508586396,-4789950.81551348,4199015.242452329,2.22747,2.66982,-0.458083,-93.9318,50.0174,53.708,-0.194569,-7.68251,7.0075,-0.0147941,0.00432868,-0.0273609,4,0,41.41547504978619,-91.80276132709548,9316.329212443414,-54.23008890114444,0.3358947963767932,-9.65547888867456,191.31,9355.13352713969,11205.82783038296,150,True,19.745592859730262,False,153.16785648367846,176.2046612614655,False,30.593118654596097,False,False
11,1970-07-23 11:41:29.119700749,2025-09-17,2025-09-26 17:08:31.970,HA,D,1270707520,JASSM,3,102,76,2,2,1,225,9,2,0,1,26,0,0,0,0,-187073.65857108065,-4786271.961885299,4202045.075651646,-2.30145,-0.153206,0.128279,88.5,-13.5,-11.375,0.0,0.0,0.0,0.0,0.0,0.0,2,0,41.45018990615028,-92.23829277535678,10000.0015477478,99.82619274143364,-0.0010912813385463,0.0071723631667565,,9355.13352713969,11205.82783038296,150,11,2025-09-17,2025-09-26 17:08:31.966,HA,D,290881134,AMBUSH51,1,1,48,2,1,1,225,2,1,0,0,9,1,225,2,1,-150849.212436154,-4789904.422183324,4199064.907840132,2.19925,2.68578,-0.450768,-94.8927,49.0408,52.9015,-0.113565,-7.58073,6.87983,-0.0100815,0.00596819,-0.000144601,4,0,41.416069868738695,-91.80382878552436,9316.833373885707,-55.1177480187269,0.5892483094692241,-10.878032222657282,191.042,9355.13352713969,11205.82783038296,150,False,19.645623483467027,False,153.92246931778158,176.10763578762106,False,29.93396498968637,True,False
11,1970-07-23 11:41:29.128300395,2025-09-17,2025-09-26 17:08:32.830,HA,D,1271841132,JASSM,3,102,76,2,2,1,225,9,2,0,1,26,0,0,0,0,-186989.49841483065,-4786284.961885299,4202034.087370396,-2.30145,-0.15311,0.128279,88.5,-13.5,-11.375,0.0,0.0,0.0,0.0,0.0,0.0,2,0,41.45005797407181,-92.23728077166068,9999.999897574313,99.82322638067728,-0.0043782964576885,0.0064692413572555,,9355.13352713969,11205.82783038296,150,11,2025-09-17,2025-09-26 17:08:32.766,HA,D,291835532,AMBUSH51,1,1,48,2,1,1,225,2,1,0,0,9,1,225,2,1,-150925.41569037034,-4789865.717752679,4199106.738843234,2.19074,2.69761,-0.44802,-95.7719,47.9755,52.1669,-0.300328,-7.68692,7.09349,-0.035625,0.0156013,-0.020137,4,0,41.4165682336525,-91.80475398192584,9318.344625068745,-55.67111356942889,0.893991210704936,-11.07852715052653,191.359,9355.13352713969,11205.82783038296,150,False,19.555097543633284,False,154.65279313423397,176.02488808759293,False,29.283437993249017,True,False
11,1970-07-23 11:41:29.138341218,2025-09-17,2025-09-26 17:08:33.834,HA,D,1273034710,JASSM,3,102,76,2,2,1,225,9,2,0,1,26,0,0,0,0,-186900.88903983065,-4786298.647432174,4202022.519011021,-2.30145,-0.15311,0.128279,88.5,-13.5,-11.375,0.0,0.0,0.0,0.0,0.0,0.0,2,0,41.449919073423686,-92.2362152725127,9999.999844735195,99.82393170499084,-0.0035676799460709,0.0064686351665254,,9355.13352713969,11205.82783038296,150,11,2025-09-17,2025-09-26 17:08:33.700,HA,D,292948998,AMBUSH51,1,1,48,2,1,1,225,2,1,0,0,9,1,225,2,1,-151015.3476547056,-4789821.320474813,4199155.355544974,2.11987,2.72007,-0.435613,-96.69,46.5703,51.1731,-0.0975342,-7.49844,6.77368,-0.083901,-0.0157303,-0.0256111,4,0,41.41714369057573,-91.80584539660414,9321.65311111137,-57.00411682734882,1.1837254201745449,-14.612932343674457,191.359,9355.13352713969,11205.82783038296,150,False,19.454274735666093,False,155.5552223562151,175.92977706894183,False,28.471907528640962,True,False
11,1970-07-23 11:41:29.148939146,2025-09-17,2025-09-26 17:08:34.893,HA,D,1274226026,JASSM,3,102,76,2,2,1,225,9,2,0,1,26,0,0,0,0,-186812.4456804556,-4786312.307588424,4202010.972136021,-2.30145,-0.15311,0.128375,88.5,-13.5,-11.375,0.0,0.0,0.0,0.0,0.0,0.0,2,0,41.44978042040219,-92.23515177406529,10000.004179134432,99.82872626787598,-0.0064249560246691,0.006467699536437,,9355.13352713969,11205.82783038296,150,11,2025-09-17,2025-09-26 17:08:34.832,HA,D,294301062,AMBUSH51,1,1,48,2,1,1,225,2,1,0,0,9,1,225,2,1,-151125.10830821833,-4789769.36746851,4199211.772580868,2.06998,2.72242,-0.413033,-98.2102,45.5685,49.0435,-0.139022,-6.6122,6.07426,-0.0238322,-0.00981104,-0.0222592,4,0,41.417813023001614,-91.80717663593757,9324.856096058546,-57.99150476575061,0.3388604565551406,-17.429113688778347,191.396,9355.13352713969,11205.82783038296,150,False,19.34230654115932,False,156.88056045130824,175.82044286558715,False,27.262891456639558,True,False
11,1970-07-23 11:41:29.158541092,2025-09-17,2025-09-26 17:08:35.854,HA,D,1275359420,JASSM,3,102,76,2,2,1,225,9,2,0,1,26,0,0,0,0,-186728.3050554556,-4786325.299775924,4201999.983854771,-2.30145,-0.15311,0.128375,88.5,-13.5,-11.375,0.0,0.0,0.0,0.0,0.0,0.0,2,0,41.44964850265471,-92.23414002018906,9999.996953226007,99.82939601102971,-0.0056552209370328,0.0064671750189518,,9355.13352713969,11205.82783038296,150,11,2025-09-17,2025-09-26 17:08:35.965,HA,D,295653128,AMBUSH51,1,1,48,2,1,1,225,2,1,0,0,9,1,225,2,1,-151237.96400402198,-4789717.340894839,4199265.719033296,2.00032,2.74343,-0.387563,-99.9605,44.9055,46.1806,-0.204294,-7.70628,6.9496,-0.159924,0.0308271,-0.0294831,4,0,41.41846552187851,-91.80854491674076,9322.765423366603,-59.80441668320126,0.0666523900559973,-20.9573789859926,191.518,9355.13352713969,11205.82783038296,150,False,19.231204494715623,False,158.40215022927606,175.71349680210895,False,25.862184182781334,True,False
11,1970-07-23 11:41:29.169707936,2025-09-17,2025-09-26 17:08:36.970,HA,D,1276672524,JASSM,3,102,76,2,2,1,225,9,2,0,1,26,0,0,0,0,-186630.8206804556,-4786340.354463424,4201987.253386021,-2.30145,-0.15311,0.128375,88.5,-13.5,-11.5,0.0,0.0,0.0,0.0,0.0,0.0,2,0,41.44949564359408,-92.23296781776192,9999.999371737593,99.8301719629204,-0.0047634122174609,0.0064665580182815,,9355.13352713969,11205.82783038296,150,11,2025-09-17,2025-09-26 17:08:37.134,HA,D,297044960,AMBUSH51,1,1,48,2,1,1,225,2,1,0,0,9,1,225,2,1,-151355.32164724031,-4789666.673929531,4199317.633807757,1.82952,2.77187,-0.368111,-102.626,42.2083,42.9347,0.0647382,-8.1931,7.31165,-0.094252,0.0302258,-0.0463692,4,0,41.41909535505814,-91.80996651203216,9319.967631361853,-61.66568852662564,0.3421021362087908,-30.149060184721236,192.484,9355.13352713969,11205.82783038296,150,False,19.110617456581778,False,160.86449459113047,175.55544782595967,False,23.564893633451458,True,False
11,1970-07-23 11:41:29.179325114,2025-09-17,2025-09-26 17:08:37.932,HA,D,1277925928,JASSM,3,102,76,2,2,1,225,9,2,0,1,26,0,0,0,0,-186537.76794608065,-4786354.721650924,4201975.101042271,-2.30145,-0.15311,0.128375,88.5,-13.5,-11.5,0.0,0.0,0.0,0.0,0.0,0.0,2,0,41.449349736835615,-92.23184891025296,9999.99745894518,99.83091263347536,-0.0039121486514863,0.006465983099021,,9355.13352713969,11205.82783038296,150,11,2025-09-17,2025-09-26 17:08:37.967,HA,D,298039126,AMBUSH51,1,1,48,2,1,1,225,2,1,0,0,9,1,225,2,1,-151441.52493076693,-4789632.763690447,4199352.284206006,1.77788,2.81356,-0.326834,-104.927,39.4344,39.7411,-0.144339,-8.78512,8.06761,-0.0552512,0.0305109,-0.0554094,4,0,41.419514796235184,-91.81100949175496,9318.48990450178,-64.9273222779119,0.2834146299408376,-32.31215627559608,192.862,9355.13352713969,11205.82783038296,150,False,19.01065668644716,False,163.18386947793542,175.48203616512532,False,21.31953705187464,True,False
11,1970-07-23 11:41:29.190352224,2025-09-17,2025-09-26 17:08:39.035,HA,D,1279237708,JASSM,3,102,76,2,2,1,225,9,2,0,1,26,0,0,0,0,-186440.38122733065,-4786369.758760299,4201962.382292271,-2.30145,-0.15311,0.128375,88.5,-13.5,-11.5,0.0,0.0,0.0,0.0,0.0,0.0,2,0,41.44919701546789,-92.2306778940013,10000.001408040243,99.83168779556956,-0.003021235472809,0.0064653742501229,,9355.13352713969,11205.82783038296,150,11,2025-09-17,2025-09-26 17:08:39.099,HA,D,299391190,AMBUSH51,1,1,48,2,1,1,225,2,1,0,0,9,1,225,2,1,-151562.7258561672,-4789590.243134772,4199395.470346658,1.75285,2.86159,-0.288096,-108.046,34.9128,35.2545,-0.0535606,-8.84068,8.0442,0.0173657,0.0324229,-0.0351943,4,0,41.42003648617407,-91.81247398324292,9317.094312329677,-68.34536023405566,0.6435703191565835,-32.94064976100764,192.789,9355.13352713969,11205.82783038296,150,False,18.888914288808937,False,166.59305436987918,175.39430319509245,False,17.993559451314695,True,False
11,1970-07-23 11:41:29.202361293,2025-09-17,2025-09-26 17:08:40.236,HA,D,1280608830,JASSM,3,102,76,2,2,1,225,9,2,0,1,26,0,0,0,0,-186338.5902117056,-4786385.473604049,4201949.087370396,-2.30145,-0.15311,0.128375,88.5,-13.5,-11.5,0.0,0.0,0.0,0.0,0.0,0.0,2,0,41.44903738181245,-92.22945392569925,10000.003158233136,99.832498007119,-0.0020900329154243,0.0064647448263727,,9355.13352713969,11205.82783038296,150,11,2025-09-17,2025-09-26 17:08:40.165,HA,D,300663722,AMBUSH51,1,1,48,2,1,1,225,2,1,0,0,9,1,225,2,1,-151678.22877448282,-4789555.622739167,4199430.963469698,1.78648,2.90519,-0.247208,-110.399,30.6068,31.1156,-0.0824559,-8.71077,7.88732,0.0485767,0.0268698,-0.0469413,4,0,41.420460296929946,-91.8138674133802,9317.99280494452,-71.70285295511631,0.8055863778049717,-30.395193418794676,192.899,9355.13352713969,11205.82783038296,150,False,18.76852769661863,False,169.670168607424,175.32171196302318,False,14.979711899953557,True,False
11,1970-07-23 11:41:29.213699818,2025-09-17,2025-09-26 17:08:41.369,HA,D,1281922598,JASSM,3,102,76,2,2,1,225,9,2,0,1,26,0,0,0,0,-186241.05700858065,-4786400.530244674,4201936.345182896,-2.30145,-0.153015,0.128375,88.5,-13.5,-11.5,0.0,0.0,0.0,0.0,0.0,0.0,2,0,41.44888439562128,-92.22828116075397,10000.00056134944,99.82963814241366,-0.0052547060104928,0.0057610772832162,,9355.13352713969,11205.82783038296,150,11,2025-09-17,2025-09-26 17:08:41.300,HA,D,302015788,AMBUSH51,1,1,48,2,1,1,225,2,1,0,0,9,1,225,2,1,-151804.7454800481,-4789523.347480489,4199463.957979854,1.82277,2.9447,-0.207592,-112.301,26.2546,26.875,-0.278985,-8.58329,7.94559,0.0305983,0.0270571,-0.0411365,4,0,41.42085119419932,-91.81539159604571,9320.101012821677,-74.8676002343733,0.8985192084134217,-27.852507307813497,192.789,9355.13352713969,11205.82783038296,150,False,18.644820585373925,False,172.71446725370865,175.25647874698754,False,11.981985500449808,True,False
11,1970-07-23 11:41:29.225698220,2025-09-17,2025-09-26 17:08:42.569,HA,D,1283233728,JASSM,3,102,76,2,2,1,225,9,2,0,1,26,0,0,0,0,-186143.7191179556,-4786415.553682174,4201923.630339146,-2.30145,-0.153015,0.128375,88.5,-13.5,-11.5,0.0,0.0,0.0,0.0,0.0,0.0,2,0,41.44873173435781,-92.22711075121,9999.999507421027,99.8304128957865,-0.0043642449838483,0.0057604312715578,,9355.13352713969,11205.82783038296,150,11,2025-09-17,2025-09-26 17:08:42.600,HA,D,303566686,AMBUSH51,1,1,48,2,1,1,225,2,1,0,0,9,1,225,2,1,-151951.952922146,-4789492.24401441,4199495.996707237,1.86303,2.98428,-0.172138,-113.927,21.6391,22.3868,-0.278224,-8.49915,7.65166,0.0323376,0.0238426,-0.0355896,4,0,41.42122474077521,-91.81716262292416,9324.639362114784,-77.86952959998818,1.1906590689815613,-25.172819462492217,192.752,9355.13352713969,11205.82783038296,150,False,18.510280619725503,False,175.84923623779534,175.1968005671733,False,8.847876787205378,True,False
11,1970-07-23 11:41:29.234262243,2025-09-17,2025-09-26 17:08:43.426,HA,D,1284487760,JASSM,3,102,76,2,2,1,225,9,2,0,1,26,0,0,0,0,-186050.6214617056,-4786429.924775924,4201911.466276646,-2.30145,-0.153015,0.128375,88.5,-13.5,-11.5,0.0,0.0,0.0,0.0,0.0,0.0,2,0,41.448585678705456,-92.225991331216,10000.001676727426,99.83115389439858,-0.0035125677701951,0.0057597804994064,,9355.13352713969,11205.82783038296,150,11,2025-09-17,2025-09-26 17:08:43.466,HA,D,304600618,AMBUSH51,1,1,48,2,1,1,225,2,1,0,0,9,1,225,2,1,-152050.76282688955,-4789474.642700106,4199514.326135499,1.89398,3.00668,-0.146084,-114.635,19.0211,19.8846,-0.295278,-8.05138,7.39878,0.0558192,0.00557287,-0.0383422,4,0,41.42143452953219,-91.81835015547962,9328.854989431788,-79.82793857694371,1.1399156039639886,-23.23604336429515,192.63,9355.13352713969,11205.82783038296,150,False,18.405084856143016,False,177.4977474952255,175.15974939321188,False,7.117521564629849,True,False
11,1970-07-23 11:41:29.245300595,2025-09-17,2025-09-26 17:08:44.530,HA,D,1285740680,JASSM,3,102,76,2,2,1,225,9,2,0,1,26,0,0,0,0,-185957.60388358065,-4786444.280244674,4201899.311979771,-2.30145,-0.153015,0.128471,88.5,-13.5,-11.5,0.0,0.0,0.0,0.0,0.0,0.0,2,0,41.44843975252512,-92.22487288062403,9999.99893609372,99.83598485943686,-0.0063279505543958,0.0057588236554686,,9355.13352713969,11205.82783038296,150,11,2025-09-17,2025-09-26 17:08:44.532,HA,D,305873150,AMBUSH51,1,1,48,2,1,1,225,2,1,0,0,9,1,225,2,1,-152173.2470365433,-4789455.891495822,4199533.581248641,1.94052,3.03338,-0.121053,-115.31,15.9119,17.1072,-0.312178,-7.94652,7.3294,0.0494048,0.0119437,-0.0272048,4,0,41.42165292029237,-91.81982105951656,9334.107187390466,-81.90885835454633,1.3202572856323096,-20.41049568457049,191.934,9355.13352713969,11205.82783038296,150,False,18.287200489392013,False,178.68200505881083,175.12429370800183,False,5.1618946444418,True,False
11,1970-07-23 11:41:29.256318582,2025-09-17,2025-09-26 17:08:45.631,HA,D,1287110348,JASSM,3,102,76,2,2,1,225,9,2,0,1,26,0,0,0,0,-185855.92028983065,-4786459.971650924,4201886.024870396,-2.30145,-0.153015,0.128471,88.5,-13.5,-11.5,0.0,0.0,0.0,0.0,0.0,0.0,2,0,41.448280224477614,-92.22365023561484,9999.996573201774,99.83679418295073,-0.0053977327405251,0.0057582004997207,,9355.13352713969,11205.82783038296,150,11,2025-09-17,2025-09-26 17:08:45.634,HA,D,307185450,AMBUSH51,1,1,48,2,1,1,225,2,1,0,0,9,1,225,2,1,-152300.14801808918,-4789439.734165307,4199550.414630506,1.97894,3.05527,-0.105536,-115.745,13.0275,14.5026,-0.241851,-8.03948,7.31633,0.0510755,0.0129195,-0.0233869,4,0,41.421838675744326,-91.82134377116044,9340.834343571663,-83.40200207070521,1.664404863016751,-18.105784244766767,192.056,9355.13352713969,11205.82783038296,150,False,18.162437242901934,False,177.75537950229798,175.09388487618557,False,3.40640993413798,True,False
11,1970-07-23 11:41:29.267700352,2025-09-17,2025-09-26 17:08:46.770,HA,D,1288363296,JASSM,3,102,76,2,2,1,225,9,2,0,1,26,0,0,0,0,-185762.9027117056,-4786474.327119674,4201873.870573521,-2.30145,-0.153015,0.128471,88.5,-13.5,-11.5,0.0,0.0,0.0,0.0,0.0,0.0,2,0,41.448134275529405,-92.22253179551534,10000.003511613231,99.8375345263226,-0.0045467916224906,0.0057576252249876,,9355.13352713969,11205.82783038296,150,11,2025-09-17,2025-09-26 17:08:46.632,HA,D,308378448,AMBUSH51,1,1,48,2,1,1,225,2,1,0,0,9,1,225,2,1,-152415.846208661,-4789427.488698285,4199563.655025858,2.02087,3.06555,-0.0854357,-115.961,11.0208,12.435,-0.188148,-7.07821,6.3763,0.0495837,-0.0068566,-0.0232475,4,0,41.42197900396758,-91.822731119585,9348.51337897547,-84.65447115088686,1.3418401414485548,-15.680079551817418,191.75,9355.13352713969,11205.82783038296,150,False,18.04871600885182,False,176.55254036449742,175.07126244963638,False,2.1769520369999125,True,False
11,1970-07-23 11:41:29.278384180,2025-09-17,2025-09-26 17:08:47.838,HA,D,1289675398,JASSM,3,102,76,2,2,1,225,9,2,0,1,26,0,0,0,0,-185665.4925554556,-4786489.356416549,4201861.140104771,-2.30145,-0.153015,0.128471,88.5,-13.5,-11.5,0.0,0.0,0.0,0.0,0.0,0.0,2,0,41.44798143215994,-92.22136054647764,10000.000908884327,99.838309823892,-0.0036556694106557,0.0057570317584779,,9355.13352713969,11205.82783038296,150,11,2025-09-17,2025-09-26 17:08:47.734,HA,D,309690746,AMBUSH51,1,1,48,2,1,1,225,2,1,0,0,9,1,225,2,1,-152542.776817708,-4789415.7254876215,4199575.248073448,2.02795,3.07954,-0.0650209,-116.206,9.65476,9.96785,-0.201883,-7.46852,6.80942,-0.00446184,0.00414142,-0.00690861,4,0,41.42210319885818,-91.82425252667277,9354.689178654176,-86.06189637676552,1.1680436343228349,-15.245442251206446,191.396,9355.13352713969,11205.82783038296,150,False,17.92667460200402,False,175.40172443426286,175.0523508988192,False,0.9989982707250762,True,False
11,1970-07-23 11:41:29.288397723,2025-09-17,2025-09-26 17:08:48.839,HA,D,1290928824,JASSM,3,102,76,2,2,1,225,9,2,0,1,26,0,0,0,0,-185572.4378679556,-4786503.713838424,4201848.977995396,-2.30145,-0.153015,0.128471,88.5,-13.5,-11.5,0.0,0.0,0.0,0.0,0.0,0.0,2,0,41.447835405181046,-92.22024167219529,10000.001611446234,99.83905045027642,-0.0028043904809106,0.0057564583828147,,9355.13352713969,11205.82783038296,150,11,2025-09-17,2025-09-26 17:08:48.765,HA,D,310923512,AMBUSH51,1,1,48,2,1,1,225,2,1,0,0,9,1,225,2,1,-152663.53974293335,-4789406.27817485,4199584.389221144,1.97648,3.09099,-0.052107,-116.354,7.92343,7.8298,-0.0586331,-7.27309,6.70934,-0.0703106,0.0124784,-0.0227066,4,0,41.42219821385033,-91.82569934716044,9360.762413583328,-87.05113161376143,1.170534012684887,-18.176144235510783,191.628,9355.13352713969,11205.82783038296,150,False,17.810507847557993,False,174.108896922742,175.03846805335996,False,1.144955423646189,True,False
11,1970-07-23 11:41:29.300503464,2025-09-17,2025-09-26 17:08:50.050,HA,D,1292242170,JASSM,3,102,76,2,2,1,225,9,2,0,1,26,0,0,0,0,-185474.93591483065,-4786518.756807174,4201836.231901646,-2.30145,-0.153015,0.128471,88.5,-13.5,-11.5,0.0,0.0,0.0,0.0,0.0,0.0,2,0,41.44768237287518,-92.21906933039308,9999.999846877115,99.83982646658887,-0.0019124249371736,0.0057558430059371,,9355.13352713969,11205.82783038296,150,11,2025-09-17,2025-09-26 17:08:49.933,HA,D,312315344,AMBUSH51,1,1,48,2,1,1,225,2,1,0,0,9,1,225,2,1,-152798.37372369034,-4789397.564067174,4199591.573200534,1.94567,3.09225,-0.0169815,-116.464,6.99147,4.43997,-0.0427479,-6.32269,5.58065,0.0179274,-0.00670264,-0.0330097,4,0,41.42227296727111,-91.82731405302906,9365.50162817995,-88.60882988083048,-0.1060268296676524,-19.953535592338262,191.286,9355.13352713969,11205.82783038296,150,False,17.68449409251314,False,172.67512533737874,175.0296646824587,False,2.358287723732232,True,False
11,1970-07-23 11:41:29.310286593,2025-09-17,2025-09-26 17:08:51.028,HA,D,1293553382,JASSM,3,102,76,2,2,1,225,9,2,0,1,26,0,0,0,0,-185377.59216483065,-4786533.772432174,4201823.507292271,-2.30145,-0.152919,0.128471,88.5,-13.5,-11.5,0.0,0.0,0.0,0.0,0.0,0.0,2,0,41.44752959984391,-92.21789889764536,9999.99768373676,99.83696513256052,-0.005078833485626,0.0050516704969342,,9355.13352713969,11205.82783038296,150,11,2025-09-17,2025-09-26 17:08:51.065,HA,D,313667410,AMBUSH51,1,1,48,2,1,1,225,2,1,0,0,9,1,225,2,1,-152931.06920321198,-4789389.72095433,4199594.717068691,1.96034,3.10922,0.0144849,-116.655,5.94621,1.1164,-0.206251,-6.94623,6.158,0.00825892,0.00967789,-0.0235326,4,0,41.42231565556277,-91.82890287251766,9363.454483514342,-90.6051698607067,-0.5685282027942876,-19.100140846709685,191.323,9355.13352713969,11205.82783038296,150,False,17.559892538824005,False,171.12348977201816,175.02631043406427,False,3.973561464690229,True,False
11,1970-07-23 11:41:29.321303466,2025-09-17,2025-09-26 17:08:52.130,HA,D,1294866996,JASSM,3,102,76,2,2,1,225,9,2,0,1,26,0,0,0,0,-185280.06872733065,-4786548.815400924,4201810.759245396,-2.30145,-0.152919,0.128471,88.5,-13.5,-11.5,0.0,0.0,0.0,0.0,0.0,0.0,2,0,41.447376535431154,-92.21672631006729,9999.99978717836,99.83774130689676,-0.0041866768823876,0.0050510232055816,,9355.13352713969,11205.82783038296,150,11,2025-09-17,2025-09-26 17:08:52.134,HA,D,314939942,AMBUSH51,1,1,48,2,1,1,225,2,1,0,0,9,1,225,2,1,-153054.78406026814,-4789383.977940123,4199594.261108162,1.98029,3.12608,0.0301603,-116.857,4.38486,-1.62664,-0.201644,-7.2894,6.70013,0.0156929,0.0115109,-0.0236928,4,0,41.422323237618606,-91.83038356600626,9358.06077085676,-91.9187174750995,-0.4373462403080465,-17.966973507642706,192.019,9355.13352713969,11205.82783038296,150,False,17.44021869602963,False,169.59611553370436,175.02815470648815,False,5.524796948192779,True,False
11,1970-07-23 11:41:29.332898690,2025-09-17,2025-09-26 17:08:53.289,HA,D,1296177500,JASSM,3,102,76,2,2,1,225,9,2,0,1,26,0,0,0,0,-185182.7777117056,-4786563.823213424,4201798.038542271,-2.30145,-0.152919,0.128471,88.5,-13.5,-11.5,0.0,0.0,0.0,0.0,0.0,0.0,2,0,41.44722379926584,-92.21555652221976,10000.002060268564,99.83851562565076,-0.0032966420345259,0.0050503531856539,,9355.13352713969,11205.82783038296,150,11,2025-09-17,2025-09-26 17:08:53.232,HA,D,316252240,AMBUSH51,1,1,48,2,1,1,225,2,1,0,0,9,1,225,2,1,-153184.07664676572,-4789380.066526518,4199590.908144731,1.9882,3.14155,0.0530667,-116.974,2.39472,-4.08392,0.0935322,-7.33016,6.54212,0.0179274,-0.000993484,-0.0108617,4,0,41.42229928760223,-91.83193021920334,9351.329011806083,-93.48960640663414,-0.6411227769258278,-17.535692707969634,192.642,9355.13352713969,11205.82783038296,150,False,17.317879231929734,False,168.04777862063708,175.03702354306083,False,7.072494288896004,True,False
11,1970-07-23 11:41:29.343335226,2025-09-17,2025-09-26 17:08:54.333,HA,D,1297431392,JASSM,3,102,76,2,2,1,225,9,2,0,1,26,0,0,0,0,-185089.6878679556,-4786578.180635299,4201785.866667271,-2.30145,-0.152919,0.128471,88.5,-13.5,-11.5,0.0,0.0,0.0,0.0,0.0,0.0,2,0,41.44707765803577,-92.21443725377922,10000.002220756714,99.83925650184844,-0.0024450428272482,0.0050497224579989,,9355.13352713969,11205.82783038296,150,11,2025-09-17,2025-09-26 17:08:54.299,HA,D,317524772,AMBUSH51,1,1,48,2,1,1,225,2,1,0,0,9,1,225,2,1,-153308.06141091022,-4789378.240211914,4199585.475662844,1.98285,-3.11872,0.0683941,-117.044,0.181937,-6.1873,-0.000576377,-7.87858,7.09482,-0.00861262,0.0150229,-0.0177735,4,0,41.42224988487554,-91.83341264160346,9344.801264850728,-95.01664676161964,-0.2399026231716644,-17.910534238467257,192.679,9355.13352713969,11205.82783038296,150,False,17.200845784206443,False,166.56787363440912,175.0508755378424,False,8.545703145219417,True,False
11,1970-07-23 11:41:29.354358833,2025-09-17,2025-09-26 17:08:55.435,HA,D,1298743898,JASSM,3,102,76,2,2,1,225,9,2,0,1,26,0,0,0,0,-184992.24841483065,-4786593.206025924,4201773.124479771,-2.30145,-0.152919,0.128567,88.5,-13.5,-11.5,0.0,0.0,0.0,0.0,0.0,0.0,2,0,41.446924683169854,-92.21326569439536,9999.99683450071,99.84412264432974,-0.0052199279554247,0.0050488266085405,,9355.13352713969,11205.82783038296,150,11,2025-09-17,2025-09-26 17:08:55.432,HA,D,318876838,AMBUSH51,1,1,48,2,1,1,225,2,1,0,0,9,1,225,2,1,-153441.4097070862,-4789379.419553889,4199576.743553862,1.97301,-3.09672,0.0910009,-116.978,-2.50313,-8.65908,-0.136005,-7.81065,7.23277,-0.010635,0.0109679,-0.0233037,4,0,41.42215852203934,-91.83500581387568,9339.247420297324,-96.8206974245962,-0.157695746990328,-18.568129156164247,193.058,9355.13352713969,11205.82783038296,150,False,17.076693065129636,False,164.7997684412536,175.07406547374148,False,10.320130283872116,True,False
11,1970-07-23 11:41:29.364398769,2025-09-17,2025-09-26 17:08:56.439,HA,D,1299997436,JASSM,3,102,76,2,2,1,225,9,2,0,1,26,0,0,0,0,-184899.18591483065,-4786607.557588424,4201760.954557896,-2.30145,-0.152919,0.128567,88.5,-13.5,-11.5,0.0,0.0,0.0,0.0,0.0,0.0,2,0,41.446778561411385,-92.21214676575964,9999.99891231566,99.84486329123854,-0.0043685791660007,0.0050482555150918,,9355.13352713969,11205.82783038296,150,11,2025-09-17,2025-09-26 17:08:56.298,HA,D,319910770,AMBUSH51,1,1,48,2,1,1,225,2,1,0,0,9,1,225,2,1,-153541.6435142564,-4789382.209946707,4199568.45320432,1.96672,-3.08011,0.107698,-116.718,-4.49544,-10.524,-0.0824454,-7.78074,7.05451,-0.0143613,0.0109845,-0.0257234,4,0,41.42206684916391,-91.83620262057444,9336.012366292089,-98.16547351242612,-0.0853961894078287,-19.02027137549524,193.095,9355.13352713969,11205.82783038296,150,False,16.972694533148154,False,163.46822444112487,175.09314325563832,False,11.663002405334879,True,False
11,1970-07-23 11:41:29.376423810,2025-09-17,2025-09-26 17:08:57.642,HA,D,1301367914,JASSM,3,102,76,2,2,1,225,9,2,0,1,26,0,0,0,0,-184797.43982108065,-4786623.247041549,4201747.647917271,-2.30145,-0.152919,0.128567,88.5,-13.5,-11.5,0.0,0.0,0.0,0.0,0.0,0.0,2,0,41.446618792308186,-92.21092343703192,10000.000923297215,99.84567304072752,-0.0034377919797644,0.0050476306448125,,9355.13352713969,11205.82783038296,150,11,2025-09-17,2025-09-26 17:08:57.766,HA,D,321660500,AMBUSH51,1,1,48,2,1,1,225,2,1,0,0,9,1,225,2,1,-153712.24943123068,-4789390.677732736,4199550.220887573,1.94799,-3.05611,0.135656,-116.177,-7.47154,-14.3582,-0.0607998,-7.62665,7.08141,-0.0152684,0.00891223,-0.0408806,4,0,41.42186084256672,-91.83823824776508,9330.714879484029,-100.27099179647644,-0.1332196742086058,-20.256354470600893,193.864,9355.13352713969,11205.82783038296,150,False,16.82697642701265,False,161.085843138376,175.1453820853644,False,14.10199280138196,True,False
11,1970-07-23 11:41:29.387280279,2025-09-17,2025-09-26 17:08:58.728,HA,D,1302679784,JASSM,3,102,76,2,2,1,225,9,2,0,1,26,0,0,0,0,-184700.0472429556,-4786638.262666549,4201734.909636021,-2.30145,-0.152919,0.128567,88.5,-13.5,-11.5,0.0,0.0,0.0,0.0,0.0,0.0,2,0,41.44646585536225,-92.20975245891832,9999.99968562814,99.84644813573289,-0.0025468335722548,0.0050470403371594,,9355.13352713969,11205.82783038296,150,11,2025-09-17,2025-09-26 17:08:58.866,HA,D,322972800,AMBUSH51,1,1,48,2,1,1,225,2,1,0,0,9,1,225,2,1,-153840.49684613035,-4789400.276080174,4199532.905538849,1.94732,-3.0449,0.164589,-115.756,-9.85949,-17.0986,-0.163048,-7.05882,6.24039,-0.00107879,-0.012262,-0.0226858,4,0,41.42166235832649,-91.8397672150563,9326.856801938857,-101.92973323038312,-0.7669630910417039,-20.378023264720333,194.207,9355.13352713969,11205.82783038296,150,False,16.706307912545803,False,159.30051163378212,175.19071076189172,False,15.93192257521408,True,False
11,1970-07-23 11:41:29.398317127,2025-09-17,2025-09-26 17:08:59.831,HA,D,1303994064,JASSM,3,102,76,2,2,1,225,9,2,0,1,26,0,0,0,0,-184602.47497733065,-4786653.305635299,4201722.147917271,-2.30145,-0.152823,0.128567,88.5,-13.5,-11.5,0.0,0.0,0.0,0.0,0.0,0.0,2,0,41.44631262687071,-92.20857932605274,10000.002784646886,99.8435886655918,-0.0057111485628442,0.0043423887575274,,9355.13352713969,11205.82783038296,150,11,2025-09-17,2025-09-26 17:08:59.999,HA,D,324324864,AMBUSH51,1,1,48,2,1,1,225,2,1,0,0,9,1,225,2,1,-153970.33136635172,-4789412.031595817,4199511.304449612,1.9419,-3.03031,0.191432,-115.232,-11.4607,-20.3911,-0.0578898,-7.11916,6.30282,-0.004466,0.00774085,-0.0262186,4,0,41.42142178889582,-91.8413143117958,9319.134575984832,-103.62455817764952,-1.18360477250023,-20.807647511053663,194.133,9355.13352713969,11205.82783038296,150,False,16.584966908093,False,157.5534700644296,175.24528757168966,False,17.749888828194393,True,False
11,1970-07-23 11:41:29.410498118,2025-09-17,2025-09-26 17:09:01.049,HA,D,1305304304,JASSM,3,102,76,2,2,1,225,9,2,0,1,26,0,0,0,0,-184505.20153983065,-4786668.299775924,4201709.423307896,-2.30145,-0.152823,0.128567,88.5,-13.5,-11.5,0.0,0.0,0.0,0.0,0.0,0.0,2,0,41.44615985883763,-92.20740979282928,9999.999874450134,99.84436279953896,-0.0048212820868027,0.0043417479982796,,9355.13352713969,11205.82783038296,150,11,2025-09-17,2025-09-26 17:09:01.132,HA,D,325676930,AMBUSH51,1,1,48,2,1,1,225,2,1,0,0,9,1,225,2,1,-154101.06782876133,-4789426.058213991,4199486.0847083945,1.95427,-3.00339,0.217156,-114.601,-13.7839,-23.3937,-0.12517,-7.76089,7.06546,-0.0114963,0.0212418,-0.0293416,4,0,41.42114308853908,-91.84287130374146,9309.222604764916,-105.73205723874094,-1.053987940988567,-20.370464639030377,194.585,9355.13352713969,11205.82783038296,150,False,16.463570078986983,False,155.68294834729792,175.30854196415493,False,19.686336407434908,True,False
11,1970-07-23 11:41:29.419360371,2025-09-17,2025-09-26 17:09:01.936,HA,D,1306557006,JASSM,3,102,76,2,2,1,225,9,2,0,1,26,0,0,0,0,-184412.20153983065,-4786682.635713424,4201697.255339146,-2.30145,-0.152823,0.128567,88.5,-13.5,-11.5,0.0,0.0,0.0,0.0,0.0,0.0,2,0,41.44601377195715,-92.20629164467977,9999.99793732967,99.84510291863737,-0.0039705059387395,0.0043411164953589,,9355.13352713969,11205.82783038296,150,11,2025-09-17,2025-09-26 17:09:02.099,HA,D,326830162,AMBUSH51,1,1,48,2,1,1,225,2,1,0,0,9,1,225,2,1,-154210.57234106096,-4789440.265466183,4199462.180201577,1.94796,-2.98288,0.237879,-113.944,-16.1869,-25.8264,-0.0839446,-8.00829,7.13688,-0.00743917,0.0102043,-0.0191904,4,0,41.42087623676822,-91.84417448090096,9300.93768136877,-107.3820424665746,-1.0097625594772923,-20.967480688974867,195.27,9355.13352713969,11205.82783038296,150,False,16.355831394535873,False,153.99824633981004,175.3672822419688,False,21.42564319343656,True,False
11,1970-07-23 11:41:29.430376147,2025-09-17,2025-09-26 17:09:03.037,HA,D,1307810886,JASSM,3,102,76,2,2,1,225,9,2,0,1,26,0,0,0,0,-184319.1136492056,-4786696.983369674,4201685.077604771,-2.30145,-0.152823,0.128567,88.5,-13.5,-11.5,0.0,0.0,0.0,0.0,0.0,0.0,2,0,41.44586755871604,-92.20517244567796,9999.999896452937,99.84584373115996,-0.0031189302183035,0.0043405065004314,,9355.13352713969,11205.82783038296,150,11,2025-09-17,2025-09-26 17:09:02.933,HA,D,327824328,AMBUSH51,1,1,48,2,1,1,225,2,1,0,0,9,1,225,2,1,-154304.95409309698,-4789454.389393631,4199439.570567276,1.95853,-2.96454,0.254815,-113.227,-17.9966,-28.143,-0.0900814,-7.71573,6.79666,0.0135561,0.00614712,-0.0302175,4,0,41.42062150441902,-91.84529695599312,9294.066895206925,-108.78716570401342,-0.9178984740383788,-20.594512599594285,195.429,9355.13352713969,11205.82783038296,150,False,16.25608656115721,False,152.5306720671106,175.42162372331663,False,22.94973535280826,True,False
11,1970-07-23 11:41:29.440554773,2025-09-17,2025-09-26 17:09:04.055,HA,D,1309064108,JASSM,3,102,76,2,2,1,225,9,2,0,1,26,0,0,0,0,-184226.0745867056,-4786711.323213424,4201672.903776646,-2.30145,-0.152823,0.128567,88.5,-13.5,-11.5,0.0,0.0,0.0,0.0,0.0,0.0,2,0,41.445721396252566,-92.20405383889204,10000.000388865315,99.84658414953938,-0.0022677986867181,0.0043398819547562,,9355.13352713969,11205.82783038296,150,11,2025-09-17,2025-09-26 17:09:03.932,HA,D,329017326,AMBUSH51,1,1,48,2,1,1,225,2,1,0,0,9,1,225,2,1,-154417.68253041705,-4789473.419404969,4199410.184974611,1.96976,-2.94389,0.277884,-112.375,-20.4545,-30.5526,-0.0761554,-7.90123,7.22537,0.000535753,0.00788858,-0.00448888,4,0,41.42028831437808,-91.84663678385073,9286.011838295472,-110.53354355757462,-0.9818098094266612,-20.233767364608845,195.881,9355.13352713969,11205.82783038296,150,False,16.147095786593663,False,150.8206629986931,175.49626192045,False,24.730772934159738,True,False
11,1970-07-23 11:41:29.451282075,2025-09-17,2025-09-26 17:09:05.128,HA,D,1310317472,JASSM,3,102,76,2,2,1,225,9,2,0,1,26,0,0,0,0,-184133.0238054556,-4786725.663057174,4201660.727995396,-2.30145,-0.152823,0.128663,88.5,-13.5,-11.5,0.0,0.0,0.0,0.0,0.0,0.0,2,0,41.44557521241649,-92.20293509706433,10000.000158240751,99.85141535626988,-0.0050827843411306,0.0043390329708805,,9355.13352713969,11205.82783038296,150,11,2025-09-17,2025-09-26 17:09:05.099,HA,D,330409158,AMBUSH51,1,1,48,2,1,1,225,2,1,0,0,9,1,225,2,1,-154548.5039565351,-4789498.891663808,4199372.877244779,2.00917,-2.91685,0.298583,-111.172,-23.1539,-33.2456,-0.308805,-7.84675,7.14021,0.016394,0.0144445,-0.038931,4,0,41.41985983037684,-91.84819033264884,9278.045590749269,-112.41657120597516,-0.7127542495133365,-18.388641823382983,195.991,9355.13352713969,11205.82783038296,150,False,16.029108811930342,False,148.88974622157426,175.59528308152008,False,26.7581311142226,True,False
11,1970-07-23 11:41:29.462297495,2025-09-17,2025-09-26 17:09:06.229,HA,D,1311687576,JASSM,3,102,76,2,2,1,225,9,2,0,1,26,0,0,0,0,-184031.30700858065,-4786741.338838424,4201647.415495396,-2.30145,-0.152823,0.128663,88.5,-13.5,-11.5,0.0,0.0,0.0,0.0,0.0,0.0,2,0,41.44541538048002,-92.20171216999395,10000.000276165503,99.85222482064768,-0.0041522662194215,0.0043384040273221,,9355.13352713969,11205.82783038296,150,11,2025-09-17,2025-09-26 17:09:06.365,HA,D,331920290,AMBUSH51,1,1,48,2,1,1,225,2,1,0,0,9,1,225,2,1,-154687.82719918966,-4789529.672666152,4199328.869512668,2.03713,-2.8933,0.318577,-109.832,-25.6201,-35.8676,-0.139512,-8.01602,7.12115,0.037922,0.0240236,-0.00261427,4,0,41.41935288071176,-91.849843412199,9269.276142774608,-114.13415106186189,-0.5734368377204515,-17.176793232196317,196.101,9355.13352713969,11205.82783038296,150,False,15.902438969769477,False,147.03144033530268,175.712568850559,False,28.73363318788968,True,False
11,1970-07-23 11:41:29.473334562,2025-09-17,2025-09-26 17:09:07.333,HA,D,1313001616,JASSM,3,102,76,2,2,1,225,9,2,0,1,26,0,0,0,0,-183933.75232108065,-4786756.370088424,4201634.647917271,-2.30145,-0.152823,0.128663,88.5,-13.5,-11.5,0.0,0.0,0.0,0.0,0.0,0.0,2,0,41.445262096181786,-92.20053929045572,9999.998384425631,99.85300115578464,-0.0032598280085801,0.004337820053838,,9355.13352713969,11205.82783038296,150,11,2025-09-17,2025-09-26 17:09:07.365,HA,D,333113288,AMBUSH51,1,1,48,2,1,1,225,2,1,0,0,9,1,225,2,1,-154796.31710085506,-4789556.052049283,4199292.581768627,2.06507,-2.87364,0.334739,-108.941,-28.3427,-36.6954,-0.250885,-7.99422,7.16495,0.00792394,-0.000481658,-0.0250826,4,0,41.41893013368395,-91.85112970427896,9263.999904195658,-115.54239213587606,-0.4499087121827362,-15.925190946475125,196.638,9355.13352713969,11205.82783038296,150,False,15.794023069489342,False,145.78152850319702,175.80846825038847,False,30.065903353448,False,False
11,1970-07-23 11:41:29.485339444,2025-09-17,2025-09-26 17:09:08.533,HA,D,1314372370,JASSM,3,102,76,2,2,1,225,9,2,0,1,26,0,0,0,0,-183831.98669608065,-4786772.049775924,4201621.329557896,-2.30145,-0.152727,0.128663,88.5,-13.5,-11.5,0.0,0.0,0.0,0.0,0.0,0.0,2,0,41.44510218715195,-92.19931578975962,10000.001601977176,99.85017510106788,-0.0063857800575776,0.0036326730982243,,9355.13352713969,11205.82783038296,150,11,2025-09-17,2025-09-26 17:09:08.432,HA,D,334385820,AMBUSH51,1,1,48,2,1,1,225,2,1,0,0,9,1,225,2,1,-154912.40104635846,-4789586.831838822,4199251.441728437,2.07973,-2.85171,0.346063,-107.736,-30.1239,-38.9262,-0.215205,-7.83171,7.13892,0.0231872,0.0134604,-0.0245208,4,0,41.41844697571447,-91.85250502898292,9259.62367089746,-116.83573726160388,-0.057769864595469,-15.498794118231066,196.675,9355.13352713969,11205.82783038296,150,False,15.679735362121042,False,144.2848698258995,175.91955520846483,False,31.67676348591377,False,False
11,1970-07-23 11:41:29.496356072,2025-09-17,2025-09-26 17:09:09.635,HA,D,1315684554,JASSM,3,102,76,2,2,1,225,9,2,0,1,26,0,0,0,0,-183734.56970389312,-4786787.057588424,4201608.577604771,-2.30145,-0.152727,0.128663,88.5,-13.5,-11.5,0.0,0.0,0.0,0.0,0.0,0.0,2,0,41.44494909187215,-92.19814457798356,9999.999424268097,99.85095032753564,-0.0054946017348325,0.003632030274552,,9355.13352713969,11205.82783038296,150,11,2025-09-17,2025-09-26 17:09:09.732,HA,D,335936720,AMBUSH51,1,1,48,2,1,1,225,2,1,0,0,9,1,225,2,1,-155051.3279998881,-4789627.343200965,4199199.109927812,2.10244,-2.82863,0.364618,-106.303,-32.6009,-40.8997,-0.243796,-7.70031,6.93514,0.0119541,0.00390007,-0.0229167,4,0,41.41782595564484,-91.85414954258916,9256.713306815936,-118.46494465035832,0.0716944888462927,-14.657932362016002,196.602,9355.13352713969,11205.82783038296,150,False,15.556711010641328,False,142.62137135869656,176.0674164124377,False,33.48572962043066,False,False
11,1970-07-23 11:41:29.507379670,2025-09-17,2025-09-26 17:09:10.737,HA,D,1316996526,JASSM,3,102,76,2,2,1,225,9,2,0,1,26,0,0,0,0,-183637.1683367056,-4786802.063447799,4201595.825651646,-2.30145,-0.152727,0.128663,88.5,-13.5,-11.5,0.0,0.0,0.0,0.0,0.0,0.0,2,0,41.44479599272259,-92.19697355935828,9999.998991624749,99.8517254238026,-0.0046035633501197,0.0036313712779374,,9355.13352713969,11205.82783038296,150,11,2025-09-17,2025-09-26 17:09:10.831,HA,D,337249018,AMBUSH51,1,1,48,2,1,1,225,2,1,0,0,9,1,225,2,1,-155166.75979668566,-4789663.747024222,4199153.27786917,2.12701,-2.80658,0.375501,-105.043,-34.6003,-42.4156,0.000258505,-7.89627,7.06467,0.00685452,0.0116253,-0.0122037,4,0,41.41727775241782,-91.8555148524147,9255.949638593736,-119.74206464087712,0.457112660927105,-13.712960444674078,196.553,9355.13352713969,11205.82783038296,150,False,15.445820951501807,False,141.28029655320427,176.19678856109257,False,34.95442102948254,False,False
11,1970-07-23 11:41:29.520899707,2025-09-17,2025-09-26 17:09:12.089,HA,D,1318250916,JASSM,3,102,76,2,2,1,225,9,2,0,1,26,0,0,0,0,-183544.04138358065,-4786816.409150924,4201583.634245396,-2.30145,-0.152727,0.128663,88.5,-13.5,-11.5,0.0,0.0,0.0,0.0,0.0,0.0,2,0,41.44464961711308,-92.19585393624106,10000.001337735775,99.85246649922088,-0.0037516310423965,0.0036307568312043,,9355.13352713969,11205.82783038296,150,11,2025-09-17,2025-09-26 17:09:12.099,HA,D,338760150,AMBUSH51,1,1,48,2,1,1,225,2,1,0,0,9,1,225,2,1,-155298.9732128983,-4789708.670068885,4199098.693835525,2.30586,-2.78622,0.39184,-103.992,-36.5186,-43.2831,-0.270393,-7.48616,6.59452,0.212317,0.0113881,-0.0244564,4,0,41.41661653104445,-91.85707737438354,9258.4868372786,-121.17155199106148,0.5416076582563929,-3.915395869106364,196.602,9355.13352713969,11205.82783038296,150,True,15.329279267885651,False,140.21081592926632,176.35717619167224,False,36.18044856762073,False,False
11,1970-07-23 11:41:29.529279051,2025-09-17,2025-09-26 17:09:12.927,HA,D,1319622064,JASSM,3,102,76,2,2,1,225,9,2,0,1,26,0,0,0,0,-183442.2464617056,-4786832.086885299,4201570.306120396,-2.30145,-0.152727,0.128663,88.5,-13.5,-11.5,0.0,0.0,0.0,0.0,0.0,0.0,2,0,41.4444896106672,-92.19463010930065,9999.99698468259,99.85327654439556,-0.0028204055723817,0.0036300906922735,,9355.13352713969,11205.82783038296,150,11,2025-09-17,2025-09-26 17:09:12.834,HA,D,339635016,AMBUSH51,1,1,48,2,1,1,225,2,1,0,0,9,1,225,2,1,-155375.1384856652,-4789735.071778554,4199066.924952537,2.39552,-2.78068,0.391336,-103.883,-36.6733,-43.2204,-0.493974,-7.66084,7.08428,0.0603237,0.010662,0.0129257,4,0,41.4162303087137,-91.85797729218876,9260.534981701305,-121.36353500011766,0.7666589162525222,1.0987364367104908,196.443,9355.13352713969,11205.82783038296,150,True,15.235884255182812,False,140.15967790831118,176.44549936777062,False,36.32017099852867,False,False
11,1970-07-23 11:41:29.539313647,2025-09-17,2025-09-26 17:09:13.931,HA,D,1320875540,JASSM,3,102,76,2,2,1,225,9,2,0,1,26,0,0,0,0,-183349.1878679556,-4786846.420869674,4201558.122526646,-2.30145,-0.152727,0.128663,88.5,-13.5,-11.5,0.0,0.0,0.0,0.0,0.0,0.0,2,0,41.44434331911686,-92.19351131910628,10000.003632975446,99.85401706400155,-0.0019690988767704,0.0036294759546797,,9355.13352713969,11205.82783038296,150,11,2025-09-17,2025-09-26 17:09:13.933,HA,D,340947314,AMBUSH51,1,1,48,2,1,1,225,2,1,0,0,9,1,225,2,1,-155490.4190157807,-4789775.38108139,4199019.240124384,2.42551,-2.79864,0.364209,-104.031,-36.8062,-42.3206,-0.194765,-7.71436,7.06127,0.0340292,-0.00634477,0.0122308,4,0,41.415646344559,-91.8593392137348,9265.366436783364,-119.59591128038218,1.219676999851547,3.227054341234642,196.406,9355.13352713969,11205.82783038296,150,True,15.128010343236147,False,140.43147092343787,176.58893254969385,False,36.18901780239137,False,False
11,1970-07-23 11:41:29.550335154,2025-09-17,2025-09-26 17:09:15.033,HA,D,1322187218,JASSM,3,102,76,2,2,1,225,9,2,0,1,26,0,0,0,0,-183251.80798514312,-4786861.416963424,4201545.370573521,-2.30145,-0.152727,0.128759,88.5,-13.5,-11.5,0.0,0.0,0.0,0.0,0.0,0.0,2,0,41.44419022602411,-92.19234058351437,10000.001283139738,99.8588827101802,-0.0047444341750494,0.0036286278470293,,9355.13352713969,11205.82783038296,150,11,2025-09-17,2025-09-26 17:09:14.998,HA,D,342219846,AMBUSH51,1,1,48,2,1,1,225,2,1,0,0,9,1,225,2,1,-155601.25651096995,-4789814.355978814,4198974.440206061,2.41115,-2.78745,0.362829,-104.143,-36.8646,-41.3473,-0.251284,-7.86966,7.01851,-0.0514458,0.00765347,-0.0100586,4,0,41.41509063514179,-91.86064853669713,9272.8314441939,-119.97196484954164,1.6949419389614166,2.1671539668105586,195.771,9355.13352713969,11205.82783038296,150,True,15.0200214535325,False,140.73805644242725,176.72665795936837,False,36.01744211894663,False,False
11,1970-07-23 11:41:29.562139667,2025-09-17,2025-09-26 17:09:16.213,HA,D,1323440356,JASSM,3,102,76,2,2,1,225,9,2,0,1,26,0,0,0,0,-183158.7738054556,-4786875.743135299,4201533.186979771,-2.30145,-0.152727,0.128759,88.5,-13.5,-11.5,0.0,0.0,0.0,0.0,0.0,0.0,2,0,41.44404395314388,-92.191222098973,10000.000498787662,99.85962302311168,-0.00389335254231,0.0036280762302755,,9355.13352713969,11205.82783038296,150,11,2025-09-17,2025-09-26 17:09:16.133,HA,D,343571912,AMBUSH51,1,1,48,2,1,1,225,2,1,0,0,9,1,225,2,1,-155719.0931631005,-4789855.781787245,4198927.914958992,2.35993,-2.79706,0.342041,-103.981,-37.1942,-40.4842,-0.144883,-7.96117,7.33506,-0.00178619,0.00914109,0.0120602,4,0,41.41450732834793,-91.86204051916708,9283.146821105993,-118.77183215022616,2.1910447231035577,-0.5368513237482412,195.539,9355.13352713969,11205.82783038296,150,True,14.91100873455076,False,140.86488083433017,176.8749201149779,False,36.03576744948577,False,False
11,1970-07-23 11:41:29.572375632,2025-09-17,2025-09-26 17:09:17.237,HA,D,1324751598,JASSM,3,102,76,2,2,1,225,9,2,0,1,26,0,0,0,0,-183061.42712576807,-4786890.733369674,4201520.436979771,-2.30145,-0.152631,0.128759,88.5,-13.5,-11.5,0.0,0.0,0.0,0.0,0.0,0.0,2,0,41.44389087724261,-92.19005177365985,10000.00102071026,99.85676184822924,-0.0070597241106801,0.0029224664191364,,9355.13352713969,11205.82783038296,150,11,2025-09-17,2025-09-26 17:09:17.398,HA,D,345083042,AMBUSH51,1,1,48,2,1,1,225,2,1,0,0,9,1,225,2,1,-155850.96044346597,-4789902.987804314,4198877.187821457,2.3525,-2.78207,0.347814,-103.772,-37.9982,-39.4306,-0.232139,-7.72235,7.0858,-0.0508529,0.00421424,0.000656428,4,0,41.41385853423476,-91.86359788210416,9299.689256241569,-119.58420586775463,2.517140292281736,-1.2863570016151085,195.319,9355.13352713969,11205.82783038296,150,True,14.792832547374859,False,140.8887090319198,177.0436559048683,False,36.17550940194135,False,False
11,1970-07-23 11:41:29.583428172,2025-09-17,2025-09-26 17:09:18.342,HA,D,1326123526,JASSM,3,102,76,2,2,1,225,9,2,0,1,26,0,0,0,0,-182959.57361014312,-4786906.415010299,4201507.097136021,-2.30145,-0.152631,0.128759,88.5,-13.5,-11.5,0.0,0.0,0.0,0.0,0.0,0.0,2,0,41.44373072007643,-92.18882727314956,10000.001571223363,99.85757232711758,-0.0061279647637668,0.0029218098741951,,9355.13352713969,11205.82783038296,150,11,2025-09-17,2025-09-26 17:09:18.301,HA,D,346156742,AMBUSH51,1,1,48,2,1,1,225,2,1,0,0,9,1,225,2,1,-155944.369127634,-4789936.95251981,4198841.6781051215,2.33827,-2.78717,0.342646,-103.489,-38.3876,-39.0524,-0.145014,-7.21102,6.63608,0.0175633,-0.00522333,0.00138672,4,0,41.413398670929325,-91.86470082107472,9313.626058557307,-119.1812775843364,2.540394572974503,-1.9850903118979697,194.891,9355.13352713969,11205.82783038296,150,True,14.691190594291669,False,140.81615794946006,177.1614261854307,False,36.36442493336062,False,False
11,1970-07-23 11:41:29.594291750,2025-09-17,2025-09-26 17:09:19.429,HA,D,1327377280,JASSM,3,102,76,2,2,1,225,9,2,0,1,26,0,0,0,0,-182866.49450858065,-4786920.745088424,4201494.903776646,-2.30145,-0.152631,0.128759,88.5,-13.5,-11.5,0.0,0.0,0.0,0.0,0.0,0.0,2,0,41.44358433411045,-92.18770826571078,9999.999492861472,99.85831297944075,-0.0052764717524246,0.0029211955030345,,9355.13352713969,11205.82783038296,150,11,2025-09-17,2025-09-26 17:09:19.301,HA,D,347349740,AMBUSH51,1,1,48,2,1,1,225,2,1,0,0,9,1,225,2,1,-156047.73150187687,-4789974.523721176,4198802.533581486,2.35263,-2.78983,0.351899,-103.178,-37.9348,-39.1759,-0.168443,-6.41006,5.81223,0.00176747,-0.0218098,-0.0117626,4,0,41.41289087548102,-91.86592127508597,9329.34676492816,-119.44764769117734,2.0604903642824968,-1.1207796108681969,194.133,9355.13352713969,11205.82783038296,150,True,14.589540146306117,False,140.8493497718295,177.29539423781347,False,36.46849069828762,False,False
11,1970-07-23 11:41:29.605309582,2025-09-17,2025-09-26 17:09:20.530,HA,D,1328688018,JASSM,3,102,76,2,2,1,225,9,2,0,1,26,0,0,0,0,-182769.1839617056,-4786935.725557174,4201482.155729771,-2.30145,-0.152631,0.128759,88.5,-13.5,-11.5,0.0,0.0,0.0,0.0,0.0,0.0,2,0,41.4434312855448,-92.18653839322435,9999.998852601626,99.85908729618733,-0.0043862702306033,0.0029205568952351,,9355.13352713969,11205.82783038296,150,11,2025-09-17,2025-09-26 17:09:20.707,HA,D,349019938,AMBUSH51,1,1,48,2,1,1,225,2,1,0,0,9,1,225,2,1,-156192.05440132844,-4790025.427068718,4198745.9265447445,2.34858,-2.8174,0.374209,-102.994,-35.5451,-41.2095,-0.13753,-5.53519,4.99963,0.00543347,-0.0235596,0.00338825,4,0,41.41217792796287,-91.86762594322258,9343.24846739992,-119.28704211155578,0.1158113192538257,-0.7888680671743613,193.718,9355.13352713969,11205.82783038296,150,True,14.46564681927899,False,140.915134313202,177.48840200409754,False,36.61661129258101,False,False
11,1970-07-23 11:41:29.615349061,2025-09-17,2025-09-26 17:09:21.534,HA,D,1329940786,JASSM,3,102,76,2,2,1,225,9,2,0,1,26,0,0,0,0,-182676.17712576807,-4786950.041963424,4201469.972136021,-2.30145,-0.152631,0.128759,88.5,-13.5,-11.5,0.0,0.0,0.0,0.0,0.0,0.0,2,0,41.443285008153694,-92.1854202660116,10000.000629007827,99.85982736150429,-0.0035354420633646,0.0029199596847432,,9355.13352713969,11205.82783038296,150,11,2025-09-17,2025-09-26 17:09:21.668,HA,D,350173170,AMBUSH51,1,1,48,2,1,1,225,2,1,0,0,9,1,225,2,1,-156291.2172683116,-4790058.139317783,4198705.443029703,2.35456,-2.83157,0.388757,-103.133,-33.7609,-42.6883,-0.220127,-5.64729,5.08138,0.00695023,-0.0196835,0.00167592,4,0,41.41169079116296,-91.8687980635226,9343.79379346633,-119.34028147749136,-1.005742496223999,-0.1433361952849711,194.06,9355.13352713969,11205.82783038296,150,True,14.366230835215998,False,141.00714943409713,177.61826456807648,False,36.67453786991024,False,False
11,1970-07-23 11:41:29.626368637,2025-09-17,2025-09-26 17:09:22.636,HA,D,1331194874,JASSM,3,102,76,2,2,1,225,9,2,0,1,26,0,0,0,0,-182583.07263358065,-4786964.373994674,4201457.772917271,-2.30145,-0.152631,0.128759,88.5,-13.5,-11.5,0.0,0.0,0.0,0.0,0.0,0.0,2,0,41.44313854364797,-92.18430096953666,10000.002344120294,99.86056819858064,-0.0026837164374238,0.002919339537691,,9355.13352713969,11205.82783038296,150,11,2025-09-17,2025-09-26 17:09:22.468,HA,D,351127570,AMBUSH51,1,1,48,2,1,1,225,2,1,0,0,9,1,225,2,1,-156373.81142934453,-4790084.379117018,4198670.602685885,2.35167,-2.84169,0.39714,-103.294,-32.5403,-43.8075,-0.0625687,-5.89835,5.34249,-0.00150947,-0.00853772,-0.00440566,4,0,41.41128346181245,-91.86977471844008,9339.344357801983,-119.30252535154146,-1.723317119839671,-0.0877848784263828,194.17,9355.13352713969,11205.82783038296,150,True,14.274910498621763,False,141.03389536179156,177.72565747894882,False,36.7728159734413,False,False
11,1970-07-23 11:41:29.637387820,2025-09-17,2025-09-26 17:09:23.738,HA,D,1332506776,JASSM,3,102,76,2,2,1,225,9,2,0,1,26,0,0,0,0,-182485.6761492056,-4786979.364229049,4201445.011198521,-2.30145,-0.152631,0.128759,88.5,-13.5,-11.5,0.0,0.0,0.0,0.0,0.0,0.0,2,0,41.44298532956085,-92.18313008151542,10000.002703409766,99.86134318063134,-0.001792730595345,0.0029187043016332,,9355.13352713969,11205.82783038296,150,11,2025-09-17,2025-09-26 17:09:23.701,HA,D,352598936,AMBUSH51,1,1,48,2,1,1,225,2,1,0,0,9,1,225,2,1,-156502.08994194533,-4790123.240763683,4198615.378567546,2.37922,-2.85402,0.404589,-103.747,-31.0089,-44.9949,-0.184602,-6.28576,5.63783,0.010997,-0.0146547,-0.00724983,4,0,41.41065455843547,-91.87129229435432,9325.3749050146,-119.14956198998634,-2.484370982876986,1.760259885350853,195.123,9355.13352713969,11205.82783038296,150,True,14.159004952873362,False,141.17663145595654,177.89622808463403,False,36.826779774432715,False,False
