Subject,Timestamp,SampleDate,SampleTime,TestCard,Roll,True_Heading,Pitch,North_Velocity,East_Velocity,Latitude,Longitude,Vertical_Speed,True_Track_Angle,Altitude_Msl,Ground_Speed,Altitude_Pressure,Baro_Corrected_Alt,Computed_Airspeed,Mach,GPS_Altitude,GPS_Ground_Speed,Magnetic_Variation,AccX,AccY,AccZ,Angle_Of_Attack,Body_Pitch_Rate,Body_Roll_Rate,Body_Yaw_Rate,Calibrated_Airspeed,Down_Velocity,Flight_Path_Angle,Mag_Heading,Side_Slip_Angle,Theta,True_Airspeed,Load_Factor_Normal_Body
613,17498312682400833,2025-06-13,16:14:28.240,NA,0.5795376516365423,108.99427786678876,1.6795605401693763,-0.8848282666842806,0.3750192278769191,41.63857674691826,-91.54053898528218,-8.5457343216558,108.99427786678876,624.151,0.5693891040494914,624.151,624.151,0,0.000862707,624.151,0.961021,0,1.17592,-0.0836305,-32.1232,1.67947,0.446618,0.151098,0.0516772,0,0.142429,0,108.994,0.0169882,0.0293139,0.569389,0.998421
613,17498312682861568,2025-06-13,16:14:28.286,NA,0.5850308995193529,108.98329137102314,1.6795605401693763,-0.8938745627199296,0.3794418614941151,41.63857666309923,-91.54053898528218,-8.606042961896492,108.98329137102314,624.147,0.5753465747973053,624.147,624.147,0,0.000871734,624.147,0.971076,0,1.19742,-0.091888,-32.1177,1.67947,0.0109077,0.622451,-0.0674129,0,0.143434,0,108.983,0.0171492,0.0293139,0.575347,0.998248
613,17498312683324585,2025-06-13,16:14:28.332,NA,0.5136186770428139,108.97230487525752,1.7454795147631046,-0.6389700433162488,0.33280317971048134,41.63857846520841,-91.54053923673928,-8.509549137511385,108.97230487525752,624.144,0.42685185844543394,624.144,624.144,0,0.000646743,624.144,0.720445,0,1.20357,-0.0507928,-32.1319,1.74541,0.064671,0.11462,-0.178039,0,0.141826,0,108.972,0.0156469,0.0304644,0.426852,0.998689
613,17498312683784557,2025-06-13,16:14:28.378,NA,0.530098420691246,108.95582513160906,1.7592126344701313,-0.6540472033755123,0.33943713013673005,41.63857838138938,-91.54053915292025,-8.497487409463247,108.95582513160906,624.136,0.4365907399804356,624.136,624.136,0,0.000661499,624.136,0.736882,0,1.19474,-0.0561698,-32.1545,1.75914,0.486672,0.259459,-0.295103,0,0.141625,0,108.956,0.0162759,0.0307041,0.436591,0.999394
613,17498312684251871,2025-06-13,16:14:28.425,NA,0.5465781643396781,108.95033188372628,1.764705882352942,-0.6689233346342007,0.34526696535954216,41.63857829757035,-91.54053906910121,-8.521610865559524,108.95033188372628,624.133,0.4460060114031001,624.133,624.133,0,0.000675764,624.133,0.752773,0,1.2149,-0.0751811,-32.1215,1.76463,0.172913,-0.413239,-0.187933,0,0.142027,0,108.95,0.0168343,0.0307999,0.446006,0.998367
613,17498312684707881,2025-06-13,16:14:28.470,NA,0.5410849164568674,108.95033188372628,1.7454795147631046,-0.6827943218888777,0.3527050309890001,41.638578213751316,-91.54053898528218,-8.485425681415109,108.95033188372628,624.144,0.45533022909789717,624.144,624.144,0,0.000689892,624.144,0.768511,0,1.23583,-0.0995693,-32.1209,1.7454,-0.196159,0.243962,0.249088,0,0.141424,0,108.95,0.0164836,0.0304644,0.45533,0.998349
613,17498312685169531,2025-06-13,16:14:28.516,NA,0.5520714122224888,108.95582513160906,1.74822613870451,-0.694252963533927,0.3587358950126145,41.638578129932284,-91.54053898528218,-8.5457343216558,108.95582513160906,624.136,0.46300196987033954,624.136,624.136,0,0.000701515,624.136,0.781459,0,1.23468,-0.0845907,-32.1284,1.74814,0.00399351,0.563085,-0.381887,0,0.142429,0,108.956,0.0168447,0.0305123,0.463002,0.998582
613,17498312685629297,2025-06-13,16:14:28.562,NA,0.5850308995193529,108.95033188372628,1.7289997711146725,-0.709732181194795,0.3653698454388632,41.63857804611325,-91.54053890146315,-8.557796049703938,108.95033188372628,624.129,0.4729545848228802,624.129,624.129,0,0.000716595,624.129,0.798257,0,1.17284,-0.0482964,-32.1574,1.72891,-0.368297,0.687897,-0.206888,2.78625,0.14263,0,108.95,0.017654,0.0301767,0.472955,0.999483
613,17498312686091566,2025-06-13,16:14:28.609,NA,0.5960173952849743,108.95033188372628,1.7180132753490511,-0.7260155140590996,0.3711996806616753,41.638577920384705,-91.54053881764412,-8.5457343216558,108.95033188372628,624.122,0.4831151315808203,624.122,624.122,0,0.00073199,624.122,0.815407,0,1.19666,-0.0592423,-32.1309,1.71792,-0.28199,0.29105,0.0906587,0,0.142429,0,108.95,0.0178713,0.029985,0.483115,0.99866
613,17498312686551833,2025-06-13,16:14:28.655,NA,0.601510643167785,108.96681162737468,1.7070267795834297,-0.7422988469231768,0.3780346598887263,41.63857783656567,-91.54053873382509,-8.581919505800215,108.96681162737468,624.125,0.49354924226740116,624.125,624.125,0,0.000747799,624.125,0.833017,0,1.19051,-0.063467,-32.1077,1.70693,-0.207007,-0.0166297,0.153363,0,0.143032,0,108.967,0.0179206,0.0297932,0.493549,0.997937
613,17498312687013259,2025-06-13,16:14:28.701,NA,0.5960173952849743,108.96681162737468,1.7042801556420244,-0.7519482293610054,0.38265832230695196,41.63857775274664,-91.54053873382509,-8.630166417979126,108.96681162737468,624.118,0.49988695428524094,624.118,624.118,0,0.000757402,624.118,0.843714,0,1.23737,-0.0724926,-32.1161,1.70419,-0.273883,-0.0360608,0.455797,0,0.143836,0,108.967,0.0177284,0.0297453,0.499887,0.9982
613,17498312687593945,2025-06-13,16:14:28.759,NA,0.5905241474021636,108.9613183794919,1.6960402838178084,-0.7686336198269146,0.3906994743385894,41.63857766892761,-91.54053865000606,-8.630166417979126,108.9613183794919,624.11,0.5108583895264295,624.11,624.11,0,0.000774025,624.11,0.862232,0,1.2245,-0.0809421,-32.1447,1.69595,0.206053,0.334799,0.119627,0,0.143836,0,108.961,0.0174801,0.0296015,0.510858,0.999089
613,17498312687935644,2025-06-13,16:14:28.793,NA,0.6124971389334064,108.93934538796066,1.6905470359349977,-0.7861231254958057,0.3983385687686223,41.63857754319906,-91.54053856618702,-8.630166417979126,108.93934538796066,624.103,0.522147064162962,624.103,624.103,0,0.000791129,624.103,0.881285,0,1.19838,-0.080366,-32.1574,1.69045,-0.126183,0.759184,-0.481069,0,0.143836,0,108.939,0.0180718,0.0295056,0.522147,0.999483
613,17498312688396982,2025-06-13,16:14:28.839,NA,0.6344701304646492,108.93385214007782,1.6878004119935923,-0.8028085159614875,0.40617869199945744,41.63857745938003,-91.54053848236799,-8.606042961896492,108.93385214007782,624.099,0.5330651019867326,624.099,624.099,0,0.000807671,624.099,0.899713,0,1.21221,-0.0966888,-32.153,1.6877,0.126064,0.249326,-0.368774,0,0.143434,0,108.934,0.0186896,0.0294577,0.533065,0.999346
613,17498312688858639,2025-06-13,16:14:28.885,NA,0.6399633783474599,108.9228656443122,1.6905470359349977,-0.8138651000049322,0.4108023544176831,41.638577375561,-91.54053848236799,-8.5457343216558,108.9228656443122,624.114,0.5401473631375582,624.114,624.114,0,0.000818402,624.114,0.911666,0,1.21202,-0.0452239,-32.1209,1.69044,-0.0867248,0.180542,0.0311732,0,0.142429,0,108.923,0.0188821,0.0295056,0.540147,0.998349
613,17498312689319304,2025-06-13,16:14:28.931,NA,0.6399633783474599,108.91737239642941,1.6987869077592137,-0.8321587208770325,0.41824042004691364,41.63857729174197,-91.54053839854896,-8.593981233848353,108.91737239642941,624.107,0.5518099038605168,624.107,624.107,0,0.000836072,624.107,0.93135,0,1.19685,-0.0429195,-32.1211,1.69868,0.313103,0.411212,-0.0250936,0,0.143233,0,108.917,0.0189742,0.0296494,0.55181,0.998355
613,17498312689781443,2025-06-13,16:14:28.978,NA,0.6564431219958919,108.9228656443122,1.6960402838178084,-0.846632794533889,0.4236681976683485,41.63857716601342,-91.54053831472993,-8.630166417979126,108.9228656443122,624.099,0.5609172256636807,624.099,624.099,0,0.000849871,624.099,0.946722,0,1.17918,-0.0811341,-32.125,1.69593,0.0274777,0.781357,0.341833,0,0.143836,0,108.923,0.0194313,0.0296015,0.560917,0.998475
613,17498312690242434,2025-06-13,16:14:29.024,NA,0.6674296177615133,108.92835889219504,1.6878004119935923,-0.8691480202226103,0.4315083208991837,41.63857704028487,-91.5405382309109,-8.690475058219818,108.92835889219504,624.092,0.5749284376232833,624.092,624.092,0,0.0008711,624.092,0.97037,0,1.20453,-0.0567459,-32.1196,1.68769,-0.832141,0.0966191,-0.321925,0,0.144841,0,108.928,0.0196605,0.0294577,0.574928,0.998308
613,17498312690703140,2025-06-13,16:14:29.070,NA,0.672922865644324,108.91737239642941,1.676813916227971,-0.8878436986963152,0.4383433001262347,41.638576914556324,-91.54053814709187,-8.73872197041237,108.91737239642941,624.085,0.5866521021459297,624.085,624.085,0,0.000888863,624.085,0.990157,0,1.19435,-0.0909278,-32.1298,1.6767,-0.11915,0.0575185,-0.327408,0,0.145645,0,108.917,0.0196933,0.0292659,0.586652,0.998624
613,17498312691164526,2025-06-13,16:14:29.116,NA,0.6674296177615133,108.91187914854657,1.6630807965209442,-0.9029208587555786,0.4447762217514537,41.63857683073729,-91.54053806327283,-8.654289874075403,108.91187914854657,624.122,0.5963495782649173,624.122,624.122,0,0.000903556,624.122,1.00652,0,1.21163,-0.057322,-32.1019,1.66297,-0.33015,-0.141084,0.291765,0,0.144238,0,108.912,0.0193725,0.0290262,0.59635,0.997758
613,17498312691626062,2025-06-13,16:14:29.162,NA,0.6564431219958919,108.91187914854657,1.6520943007553228,-0.9216165372292835,0.4532194313846958,41.638576705008745,-91.5405379794538,-8.714598514316094,108.91187914854657,624.114,0.608496986741618,624.114,624.114,0,0.000921962,624.114,1.02703,0,1.20357,-0.0761412,-32.1317,1.65199,-0.174344,0.263751,-0.231206,0,0.145243,0,108.912,0.0189278,0.0288345,0.608497,0.998684
613,17498312692166484,2025-06-13,16:14:29.216,NA,0.6619363698787026,108.9228656443122,1.6548409246967282,-0.9401111869021861,0.46126058341633325,41.6385765792802,-91.54053789563477,-8.642228146027264,108.9228656443122,624.107,0.6204327787169227,624.107,624.107,0,0.000940046,624.107,1.04717,0,1.20971,-0.0916959,-32.1447,1.65473,-0.122845,-0.0318885,0.422776,0,0.144037,0,108.923,0.0191179,0.0288824,0.620433,0.999089
613,17498312692548199,2025-06-13,16:14:29.254,NA,0.6619363698787026,108.9228656443122,1.6493476768139175,-0.958404807774059,0.47010585065117994,41.63857645355165,-91.54053781181574,-8.714598514316094,108.9228656443122,624.103,0.6324717502923004,624.103,624.103,0,0.000958287,624.103,1.06749,0,1.22469,-0.0757572,-32.1125,1.64924,-0.563085,-0.411212,0.0193715,0,0.145243,0,108.923,0.0190544,0.0287865,0.632472,0.998087
613,17498312693009581,2025-06-13,16:14:29.300,NA,0.5081254291600033,108.91187914854657,1.7701991302357527,-0.4940282779455174,0.3127002996313877,41.63857938721776,-91.54053915292025,-8.461302225318832,108.91187914854657,624.107,0.3464107508572139,624.107,624.107,0,0.000524863,624.107,0.584675,0,1.20683,-0.0703802,-32.115,1.77013,-0.0241399,0.523508,-0.384748,0,0.141022,0,108.912,0.0156987,0.0308958,0.346411,0.998164
613,17498312693471806,2025-06-13,16:14:29.347,NA,0.5191119249256246,108.91187914854657,1.74822613870451,-0.5087033804031762,0.31752499085041563,41.63857930339873,-91.54053915292025,-8.521610865559524,108.91187914854657,624.114,0.35529334833003295,624.114,624.114,0,0.000538321,624.114,0.599668,0,1.15787,-0.0337019,-32.095,1.74815,-0.104845,0.272691,0.500739,0,0.142027,0,108.912,0.0158391,0.0305123,0.355293,0.997544
613,17498312693933180,2025-06-13,16:14:29.393,NA,0.5246051728084353,108.91737239642941,1.74822613870451,-0.5231774540602601,0.32435997007723927,41.63857926148921,-91.54053906910121,-8.5457343216558,108.91737239642941,624.107,0.36471410517179964,624.107,624.107,0,0.000552595,624.107,0.615568,0,1.20338,-0.0782536,-32.1311,1.74815,-0.130355,-0.303686,0.400841,0,0.142429,0,108.917,0.0160067,0.0305123,0.364714,0.998666
613,17498312694393743,2025-06-13,16:14:29.439,NA,0.5246051728084353,108.92835889219504,1.7372396429388886,-0.5384556429203258,0.33059186290188336,41.63857917767018,-91.54053898528218,-8.557796049703938,108.92835889219504,624.099,0.37435668740034395,624.099,624.099,0,0.000567205,624.099,0.631843,0,1.21067,-0.0527132,-32.1369,1.73717,-0.181854,0.114262,0.089705,0,0.14263,0,108.928,0.0159061,0.0303206,0.374357,0.998845
613,17498312694854722,2025-06-13,16:14:29.485,NA,0.5246051728084353,108.92835889219504,1.7317463950560779,-0.5473009101551725,0.3356175829217136,41.638579135760665,-91.54053898528218,-8.557796049703938,108.92835889219504,624.096,0.3803808058752889,624.096,624.096,0,0.000576332,624.096,0.64201,0,1.20146,-0.08075,-32.1482,1.73167,-0.234783,-0.279367,0.00458956,0,0.14263,0,108.928,0.0158558,0.0302247,0.380381,0.999197
613,17498312695316201,2025-06-13,16:14:29.531,NA,0.5136186770428139,108.93385214007782,1.7372396429388886,-0.5617749838122563,0.34225153334773495,41.63857905194163,-91.54053890146315,-8.569857777752077,108.93385214007782,624.103,0.38974773565193904,624.103,624.103,0,0.000590525,624.103,0.65782,0,1.20357,-0.0542494,-32.1221,1.73717,0.102103,0.213683,0.436485,0,0.142831,0,108.934,0.015573,0.0303206,0.389748,0.998385
613,17498312695777712,2025-06-13,16:14:29.577,NA,0.530098420691246,108.93385214007782,1.7317463950560779,-0.5768521438715197,0.3496895989769655,41.6385789681226,-91.54053881764412,-8.642228146027264,108.93385214007782,624.096,0.39967027248014864,624.096,624.096,0,0.000605559,624.096,0.674567,0,1.20568,-0.074605,-32.1396,1.73167,-0.00935793,0.160396,-0.144541,0,0.144037,0,108.934,0.0160218,0.0302247,0.39967,0.998928
613,17498312696238757,2025-06-13,16:14:29.623,NA,0.5355916685740567,108.9228656443122,1.7262531471732672,-0.5927334191342197,0.3569266358056211,41.63857888430357,-91.54053881764412,-8.654289874075403,108.9228656443122,624.088,0.4099412202775622,624.088,624.088,0,0.000621121,624.088,0.691903,0,1.20472,-0.0792138,-32.1407,1.72618,-0.398099,0.105679,-0.460923,0,0.144238,0,108.923,0.0161365,0.0301288,0.409941,0.998964
613,17498312696699894,2025-06-13,16:14:29.669,NA,0.5465781643396781,108.91737239642941,1.7289997711146725,-0.6066044063886693,0.36396264383324706,41.63857880048454,-91.54053873382509,-8.666351602123541,108.91737239642941,624.081,0.4191326526470885,624.081,624.081,0,0.000635047,624.081,0.707416,0,1.20222,-0.0646192,-32.1284,1.72892,0.173152,0.407398,-0.336826,0,0.144439,0,108.917,0.0164937,0.0301767,0.419133,0.998582
613,17498312697161442,2025-06-13,16:14:29.716,NA,0.5520714122224888,108.91187914854657,1.7317463950560779,-0.6188671632371552,0.36999350785708884,41.63857875857502,-91.54053865000606,-8.569857777752077,108.91187914854657,624.103,0.42720167696554584,624.103,624.103,0,0.000647273,624.103,0.721035,0,1.21317,-0.0734528,-32.1181,1.73167,0.080049,0.069201,-0.129402,0,0.142831,0,108.912,0.0166859,0.0302247,0.427202,0.99826
613,17498312697623145,2025-06-13,16:14:29.762,NA,0.5685511558709209,108.90638590066379,1.7344930189974832,-0.6343463808980232,0.3774315734863194,41.63857867475599,-91.54053856618702,-8.618104689930988,108.90638590066379,624.096,0.43733569771455283,624.096,624.096,0,0.000662627,624.096,0.73814,0,1.20568,-0.046184,-32.143,1.73441,-0.0472665,0.568926,0.482142,0,0.143635,0,108.906,0.0172112,0.0302726,0.437336,0.999036
613,17498312698084344,2025-06-13,16:14:29.808,NA,0.5685511558709209,108.91187914854657,1.7235065232318618,-0.6494235409572866,0.38426655271314303,41.63857859093696,-91.54053856618702,-8.618104689930988,108.91187914854657,624.088,0.4470845701146185,624.088,624.088,0,0.000677398,624.088,0.754594,0,1.2028,-0.0843987,-32.1315,1.72342,0.162303,-0.00208616,-0.292838,0,0.143635,0,108.912,0.0171022,0.0300809,0.447085,0.998678
613,17498312698545299,2025-06-13,16:14:29.854,NA,0.5850308995193529,108.89539940489817,1.7070267795834297,-0.6659079026223935,0.39090050313939173,41.63857846520841,-91.54053848236799,-8.690475058219818,108.89539940489817,624.081,0.4574943915590505,624.081,624.081,0,0.000693171,624.081,0.772164,0,1.20645,-0.0567459,-32.1246,1.70694,-0.564396,0.0972152,0.146806,0,0.144841,0,108.895,0.0174297,0.0297932,0.457494,0.998463
613,17498312699006492,2025-06-13,16:14:29.900,NA,0.5905241474021636,108.89539940489817,1.6987869077592137,-0.6757583138610244,0.39492107915521046,41.638578423298895,-91.54053839854896,-8.702536786267956,108.89539940489817,624.077,0.463734296013964,624.077,624.077,0,0.000702625,624.077,0.782695,0,1.18321,-0.0721085,-32.1232,1.6987,-0.0258088,-0.173867,-0.28652,0,0.145042,0,108.895,0.0175084,0.0296494,0.463734,0.998421
613,17498312699467690,2025-06-13,16:14:29.946,NA,0.5795376516365423,108.87891966124971,1.6987869077592137,-0.6924437043267062,0.4027612023860456,41.638578339479864,-91.54053831472993,-8.642228146027264,108.87891966124971,624.088,0.474614240385611,624.088,624.088,0,0.00071911,624.088,0.801059,0,1.20299,-0.0767173,-32.1496,1.6987,0.130117,0.180066,-0.193536,0,0.144037,0,108.879,0.0171827,0.0296494,0.474614,0.999239
613,17498312699929644,2025-06-13,16:14:29.992,NA,0.5960173952849743,108.88441290913255,1.7125200274662404,-0.709732181194795,0.409194124011492,41.63857825566083,-91.5405382309109,-8.666351602123541,108.88441290913255,624.081,0.48538839019464686,624.081,624.081,0,0.000735434,624.081,0.819243,0,1.18149,-0.0434956,-32.1213,1.71243,0.122368,0.0762343,0.209034,0,0.144439,0,108.884,0.0178141,0.0298891,0.485388,0.998361
613,17498312700391122,2025-06-13,16:14:30.039,NA,0.5960173952849743,108.89539940489817,1.6960402838178084,-0.7258144852582973,0.41602910323831566,41.638578129932284,-91.54053814709187,-8.714598514316094,108.89539940489817,624.073,0.4956674587483208,624.073,624.073,0,0.000751008,624.073,0.836592,0,1.16708,-0.0646192,-32.1267,1.69595,-0.840724,-0.448406,-0.109732,0,0.145243,0,108.895,0.0176427,0.0296015,0.495667,0.998528
613,17498312700851864,2025-06-13,16:14:30.085,NA,0.5905241474021636,108.89539940489817,1.685053788052187,-0.7358659252977304,0.4206527656565413,41.63857808802277,-91.54053814709187,-8.714598514316094,108.89539940489817,624.07,0.5021968364864436,624.07,624.07,0,0.000760901,624.07,0.847613,0,1.21221,-0.0586662,-32.1592,1.68496,-0.265777,0.102818,0.176251,0,0.145243,0,108.895,0.0173669,0.0294097,0.502197,0.999537
613,17498312701313205,2025-06-13,16:14:30.131,NA,0.5905241474021636,108.89539940489817,1.6713206683451602,-0.7531544021658192,0.4290959752897834,41.63857796229422,-91.54053806327283,-8.714598514316094,108.89539940489817,624.062,0.5135727065504546,624.062,624.062,0,0.000778137,624.062,0.866813,0,1.19934,-0.0504088,-32.1386,1.67123,-0.0278354,0.00542402,0.0123382,0,0.145243,0,108.895,0.0172253,0.02917,0.513573,0.998898
613,17498312701774319,2025-06-13,16:14:30.177,NA,0.5960173952849743,108.89539940489817,1.6658274204623496,-0.7700408214323033,0.43653404091901393,41.63857787847519,-91.5405379794538,-8.762845426508648,108.89539940489817,624.066,0.5244485204800535,624.066,624.066,0,0.000794616,624.066,0.885169,0,1.17438,-0.0799819,-32.129,1.66574,-0.536501,0.344098,0.100076,0,0.146047,0,108.895,0.0173284,0.0290742,0.524449,0.9986
613,17498312702364404,2025-06-13,16:14:30.236,NA,0.5960173952849743,108.90638590066379,1.6548409246967282,-0.785721067894201,0.4451782793530583,41.63857775274664,-91.54053789563477,-8.726660242364233,108.90638590066379,624.059,0.5350562726893142,624.059,624.059,0,0.000810688,624.059,0.903073,0,1.18379,-0.111091,-32.1597,1.65475,-0.292599,-0.241578,0.139654,0,0.145444,0,108.906,0.0172141,0.0288824,0.535056,0.999555
613,17498312702696416,2025-06-13,16:14:30.269,NA,0.5740444037537316,108.90089265278095,1.6466010528725121,-0.7999941127502552,0.4532194313846958,41.63857766892761,-91.54053781181574,-8.67841333017168,108.90089265278095,624.051,0.5447624952201984,624.051,624.051,0,0.000825394,624.051,0.919456,0,1.16535,-0.0938083,-32.1511,1.64652,-0.155985,-0.233471,-0.402153,0,0.14464,0,108.901,0.016497,0.0287386,0.544762,0.999286
613,17498312703157785,2025-06-13,16:14:30.315,NA,0.4916456855115712,108.87342641336693,1.7454795147631046,-0.5489091405615909,0.27731923069200093,41.6385792195797,-91.54053940437734,-8.593981233848353,108.87342641336693,624.051,0.36436896368654953,624.051,624.051,0,0.000552072,624.051,0.614986,0,1.1811,-0.0569379,-32.0954,1.74542,0.40096,-0.351369,-0.886977,0,0.143233,0,108.873,0.0149775,0.0304644,0.364369,0.997555
613,17498312703619672,2025-06-13,16:14:30.361,NA,0.49713893339438187,108.84596017395285,1.7454795147631046,-0.5641873294216566,0.28415420991905194,41.638579135760665,-91.54053940437734,-8.618104689930988,108.84596017395285,624.066,0.3742748627726277,624.066,624.066,0,0.000567081,624.066,0.631705,0,1.22028,-0.0179551,-32.0956,1.74541,-0.213206,0.448406,-0.12058,0,0.143635,0,108.846,0.0151448,0.0304644,0.374275,0.997561
613,17498312704081239,2025-06-13,16:14:30.408,NA,0.5026321812771926,108.86243991760131,1.7289997711146725,-0.5808727198873385,0.2911902179466779,41.63857905194163,-91.54053932055831,-8.714598514316094,108.86243991760131,624.059,0.3849799351700631,624.059,624.059,0,0.000583301,624.059,0.649773,0,1.22988,0.0123862,-32.1238,1.72893,-0.834048,0.250995,0.427663,0,0.145243,0,108.862,0.0151676,0.0301767,0.38498,0.998439
613,17498312704541644,2025-06-13,16:14:30.454,NA,0.5191119249256246,108.85694666971847,1.7207598992904565,-0.5975581103532477,0.2984272547751061,41.63857901003212,-91.54053923673928,-8.774907154556786,108.85694666971847,624.051,0.39573949578072193,624.051,624.051,0,0.000599603,624.051,0.667933,0,1.19474,-0.0221799,-32.1545,1.72069,-0.265181,0.163972,-0.208199,0,0.146248,0,108.857,0.0155902,0.0300329,0.395739,0.999394
613,17498312705002934,2025-06-13,16:14:30.500,NA,0.5191119249256246,108.85694666971847,1.7152666514076458,-0.6066044063886693,0.30284988839252946,41.638578926213086,-91.54053923673928,-8.799030610653062,108.85694666971847,624.048,0.40170531093149686,624.048,624.048,0,0.000608642,624.048,0.678002,0,1.198,-0.0594343,-32.1392,1.7152,-0.175297,0.0630021,0.265777,0,0.146651,0,108.857,0.0155405,0.0299371,0.401705,0.998916
613,17498312705464765,2025-06-13,16:14:30.546,NA,0.530098420691246,108.85694666971847,1.7152666514076458,-0.6206764224441486,0.3098858964203828,41.638578842394054,-91.54053915292025,-8.799030610653062,108.85694666971847,624.04,0.41102685235796765,624.04,624.04,0,0.000622766,624.04,0.693735,0,1.19627,-0.0828624,-32.1709,1.71519,-0.119984,0.417769,-0.0523925,0,0.146651,0,108.857,0.0158694,0.0299371,0.411027,0.999901
613,17498312705925461,2025-06-13,16:14:30.592,NA,0.5575646601052995,108.85145342183569,1.7152666514076458,-0.6343463808980232,0.3167208756472064,41.63857875857502,-91.54053915292025,-8.67841333017168,108.85145342183569,624.077,0.42008206409824506,624.077,624.077,0,0.000636485,624.077,0.709019,0,1.17496,-0.10245,-32.1092,1.71519,0.13274,0.323236,-0.0842214,0,0.14464,0,108.851,0.0166916,0.0299371,0.420082,0.997985
613,17498312706386501,2025-06-13,16:14:30.638,NA,0.5630579079881102,108.87342641336693,1.7180132753490511,-0.6470111953478863,0.32375688367483235,41.63857867475599,-91.54053906910121,-8.593981233848353,108.87342641336693,624.07,0.4286578360018514,624.07,624.07,0,0.000649479,624.07,0.723493,0,1.1692,-0.0928481,-32.1787,1.71793,0.0614524,-0.203431,0.643551,0,0.143233,0,108.873,0.016883,0.029985,0.428658,1.00015
613,17498312706848049,2025-06-13,16:14:30.684,NA,0.5630579079881102,108.87891966124971,1.709773403524835,-0.6554544049811284,0.3281795172922557,41.638578632846475,-91.54053898528218,-8.521610865559524,108.87891966124971,624.062,0.43430407325241566,624.062,624.062,0,0.000658034,624.062,0.733023,0,1.21144,-0.0901597,-32.1593,1.70969,-0.276268,0.29403,0.572741,0,0.142027,0,108.879,0.016802,0.0298412,0.434304,0.999543
613,17498312707309466,2025-06-13,16:14:30.730,NA,0.5685511558709209,108.91187914854657,1.701533531700619,-0.6719387666460079,0.33601964052331823,41.63857854902744,-91.54053898528218,-8.593981233848353,108.91187914854657,624.059,0.4451169978396051,624.059,624.059,0,0.000674417,624.059,0.751273,0,1.22028,-0.0433035,-32.0931,1.70145,0.179827,0.162542,0.442207,0,0.143233,0,108.912,0.0168842,0.0296974,0.445117,0.997484
613,17498312707771742,2025-06-13,16:14:30.777,NA,0.5575646601052995,108.9228656443122,1.7125200274662404,-0.6898303299165036,0.3444628501565603,41.63857846520841,-91.54053890146315,-8.533672593607662,108.9228656443122,624.081,0.4568355711866815,624.081,624.081,0,0.000692172,624.081,0.771052,0,1.23429,-0.0123862,-32.0902,1.71244,-0.166595,-0.362575,0.245154,0,0.142228,0,108.923,0.0166648,0.0298891,0.456836,0.997394
613,17498312708232009,2025-06-13,16:14:30.823,NA,0.5630579079881102,108.90638590066379,1.7042801556420244,-0.7083249795894062,0.35190091578579086,41.638578339479864,-91.54053881764412,-8.702536786267956,108.90638590066379,624.073,0.46860881811026506,624.073,624.073,0,0.000710011,624.073,0.790923,0,1.20453,-0.0100818,-32.0877,1.7042,-0.0621676,0.0221133,0.338733,0,0.145042,0,108.906,0.0167481,0.0297453,0.468609,0.997317
613,17498312708693040,2025-06-13,16:14:30.869,NA,0.5630579079881102,108.91187914854657,1.6960402838178084,-0.725613456457495,0.3591379526142191,41.63857825566083,-91.54053873382509,-8.8110923387012,108.91187914854657,624.066,0.47969054525860355,624.066,624.066,0,0.000726801,624.066,0.809626,0,1.19454,-0.0408071,-32.1567,1.69596,-0.142753,0.143349,0.227511,2.72515,0.146852,0,108.912,0.0166671,0.0296015,0.479691,0.999459
613,17498312709154312,2025-06-13,16:14:30.915,NA,0.5575646601052995,108.91187914854657,1.693293659876403,-0.7384792997081604,0.3651688166380609,41.6385781718418,-91.54053873382509,-8.762845426508648,108.91187914854657,624.062,0.48810739421747834,624.062,624.062,0,0.000739554,624.062,0.823832,0,1.20683,-0.0830544,-32.162,1.69321,-0.126183,-0.270188,0.13262,0,0.146047,0,108.912,0.0164778,0.0295535,0.488107,0.999627
613,17498312709615646,2025-06-13,16:14:30.961,NA,0.5575646601052995,108.91187914854657,1.693293659876403,-0.7531544021658192,0.37220482466568683,41.63857808802277,-91.54053865000606,-8.702536786267956,108.91187914854657,624.055,0.4977491589122545,624.055,624.055,0,0.000754162,624.055,0.840106,0,1.18763,-0.114356,-32.1513,1.69321,-0.213206,0.172913,-0.196636,0,0.145042,0,108.912,0.0164778,0.0295535,0.497749,0.999292
613,17498312710077934,2025-06-13,16:14:31.007,NA,0.5630579079881102,108.89539940489817,1.685053788052187,-0.7676284758229031,0.37903980389273784,41.63857796229422,-91.54053856618702,-8.509549137511385,108.89539940489817,624.096,0.5072314170720669,624.096,624.096,0,0.000768529,624.096,0.85611,0,1.18494,-0.107059,-32.1561,1.68497,-0.671804,0.231206,-0.308812,0,0.141826,0,108.895,0.0165591,0.0294097,0.507231,0.999442
613,17498312710538333,2025-06-13,16:14:31.053,NA,0.5630579079881102,108.89539940489817,1.685053788052187,-0.7808963766751731,0.3864778695219684,41.63857787847519,-91.54053848236799,-8.557796049703938,108.89539940489817,624.088,0.5162313416787868,624.088,624.088,0,0.000782166,624.088,0.8713,0,1.19454,-0.117812,-32.1328,1.68497,-0.313699,0.407517,0.271618,0,0.14263,0,108.895,0.0165591,0.0294097,0.516231,0.998719
613,17498312710999631,2025-06-13,16:14:31.099,NA,0.5630579079881102,108.89539940489817,1.685053788052187,-0.7901437015116244,0.39190564714340326,41.63857779465616,-91.54053848236799,-8.5457343216558,108.89539940489817,624.085,0.5225683969797731,624.085,624.085,0,0.000791767,624.085,0.881996,0,1.19781,-0.0895836,-32.157,1.68497,0.294745,-0.434816,-0.078857,0,0.142429,0,108.895,0.0165591,0.0294097,0.522568,0.999471
613,17498312711460840,2025-06-13,16:14:31.146,NA,0.5575646601052995,108.88441290913255,1.6878004119935923,-0.8050198327700855,0.40075091437824995,41.63857766892761,-91.54053839854896,-8.521610865559524,108.88441290913255,624.077,0.5327935830869724,624.077,624.077,0,0.00080726,624.077,0.899254,0,1.23333,-0.069228,-32.1211,1.68772,-0.0978112,0.362575,-0.227869,0,0.142027,0,108.884,0.0164243,0.0294577,0.532794,0.998355
613,17498312711924147,2025-06-13,16:14:31.192,NA,0.5740444037537316,108.87891966124971,1.693293659876403,-0.8223083096381743,0.4101992680152762,41.63857758510858,-91.54053831472993,-8.569857777752077,108.87891966124971,624.085,0.5444582481106787,624.085,624.085,0,0.000824934,624.085,0.918942,0,1.2318,-0.063275,-32.1152,1.69321,0.363886,0.412405,0.0857711,0,0.142831,0,108.879,0.0169648,0.0295535,0.544458,0.99817
613,17498312712510579,2025-06-13,16:14:31.251,NA,0.5740444037537316,108.87891966124971,1.6987869077592137,-0.8387926713030538,0.41924556405092517,41.63857745938003,-91.5405382309109,-8.654289874075403,108.87891966124971,624.077,0.5555906043994218,624.077,624.077,0,0.000841801,624.077,0.937731,0,1.25484,-0.0884314,-32.1336,1.6987,0.39345,0.196993,-0.105679,0,0.144238,0,108.879,0.0170198,0.0296494,0.555591,0.998743
613,17498312712844895,2025-06-13,16:14:31.284,NA,0.5850308995193529,108.87891966124971,1.7042801556420244,-0.8482410249403074,0.42467334167236004,41.638577375561,-91.5405382309109,-8.654289874075403,108.87891966124971,624.073,0.5620358562015575,624.073,624.073,0,0.000851566,624.073,0.94861,0,1.20645,-0.0949605,-32.1517,1.70419,-0.0748038,-0.119865,0.128925,0,0.144238,0,108.879,0.0174016,0.0297453,0.562036,0.999304
613,17498312713306190,2025-06-13,16:14:31.330,NA,0.5136186770428139,108.88441290913255,1.764705882352942,-0.5987642831578341,0.3386330149335208,41.6385789681226,-91.54053898528218,-8.425117041174417,108.88441290913255,624.07,0.40756296438459655,624.07,624.07,0,0.000617517,624.07,0.687889,0,1.18821,-0.0732607,-32.1724,1.76463,-0.551879,0.0507236,0.0736117,0,0.140419,0,108.884,0.0158192,0.0307999,0.407563,0.999949
613,17498312713768833,2025-06-13,16:14:31.376,NA,0.5026321812771926,108.88441290913255,1.7592126344701313,-0.6120321840101042,0.3440607925549557,41.63857888430357,-91.54053890146315,-8.364808400933725,108.88441290913255,624.066,0.4159899709548378,624.066,624.066,0,0.000630285,624.066,0.702112,0,1.1569,-0.0550176,-32.1401,1.75914,0.0677705,-0.220954,0.0881553,0,0.139413,0,108.884,0.0154326,0.0307041,0.41599,0.998946
613,17498312714228663,2025-06-13,16:14:31.422,NA,0.49713893339438187,108.87891966124971,1.7619592584115367,-0.6263052288663857,0.34928754137558826,41.63857880048454,-91.54053881764412,-8.328623216802953,108.87891966124971,624.081,0.42488154233930797,624.081,624.081,0,0.000643757,624.081,0.717119,0,1.19205,-0.0431115,-32.1167,1.76189,0.148475,0.429809,-0.552118,0,0.13881,0,108.879,0.0152878,0.030752,0.424882,0.998218
613,17498312714689854,2025-06-13,16:14:31.468,NA,0.5081254291600033,108.87891966124971,1.7701991302357527,-0.6385679857146442,0.35371017499278423,41.638578716665506,-91.54053881764412,-8.40099358507814,108.87891966124971,624.077,0.4325050425314802,624.077,624.077,0,0.000655308,624.077,0.729986,0,1.1955,-0.0385027,-32.1348,1.77013,0.33623,0.269592,0.0365377,0,0.140017,0,108.879,0.0156987,0.0308958,0.432505,0.998779
613,17498312715150917,2025-06-13,16:14:31.515,NA,0.5246051728084353,108.87891966124971,1.7701991302357527,-0.6550523473795238,0.3591379526142191,41.638578632846475,-91.54053873382509,-8.47336395336697,108.87891966124971,624.07,0.4426110361688487,624.07,624.07,0,0.00067062,624.07,0.747043,0,1.1763,0.0191073,-32.1221,1.77013,-0.204623,0.557005,0.2051,0,0.141223,0,108.879,0.0162079,0.0308958,0.442611,0.998385
613,17498312715612502,2025-06-13,16:14:31.561,NA,0.5355916685740567,108.87891966124971,1.756466010528726,-0.6745521410564379,0.3649677878372586,41.63857854902744,-91.54053865000606,-8.47336395336697,108.87891966124971,624.062,0.4544092269467667,624.062,624.062,0,0.000688496,624.062,0.766956,0,1.24198,0.0500247,-32.1503,1.75639,-0.369251,0.0768304,0.360072,2.71293,0.141223,0,108.879,0.0164189,0.0306561,0.454409,0.999262
613,17498312716074186,2025-06-13,16:14:31.607,NA,0.5246051728084353,108.87891966124971,1.7592126344701313,-0.6938509059323223,0.3716017382632799,41.63857846520841,-91.54053856618702,-8.388931857030002,108.87891966124971,624.099,0.46634043256671365,624.099,624.099,0,0.000706574,624.099,0.787094,0,1.23295,0.0150746,-32.0695,1.75914,0.0376105,-0.285208,0.0467896,0,0.139816,0,108.879,0.0161073,0.0307041,0.46634,0.99675
613,17498312716534715,2025-06-13,16:14:31.653,NA,0.5355916685740567,108.88441290913255,1.756466010528726,-0.7085260083902085,0.3802459766973243,41.63857838138938,-91.54053856618702,-8.497487409463247,108.88441290913255,624.092,0.47642333399139974,624.092,624.092,0,0.000721851,624.092,0.804112,0,1.25465,-0.112051,-32.0998,1.75639,-0.0594258,0.222266,0.479758,0,0.141625,0,108.884,0.0164189,0.0306561,0.476423,0.997693
613,17498312716996661,2025-06-13,16:14:31.699,NA,0.5465781643396781,108.88990615701533,1.7592126344701313,-0.7159640740194391,0.38486963911554994,41.63857829757035,-91.54053848236799,-8.5457343216558,108.88990615701533,624.085,0.4816019418784149,624.085,624.085,0,0.000729697,624.085,0.812853,0,1.20779,-0.109747,-32.1211,1.75913,-0.10258,0.373781,0.0911355,0,0.142429,0,108.89,0.0167819,0.0307041,0.481602,0.998355
613,17498312717458923,2025-06-13,16:14:31.745,NA,0.5410849164568674,108.88441290913255,1.7537193865873206,-0.7274227156644884,0.3925087335455828,41.638578213751316,-91.54053839854896,-8.581919505800215,108.88441290913255,624.081,0.4897253746931518,624.081,624.081,0,0.000742005,624.081,0.826563,0,1.21163,-0.122805,-32.1125,1.75364,0.0601411,0.228345,-0.0227094,0,0.143032,0,108.884,0.0165614,0.0306082,0.489725,0.998087
613,17498312717919606,2025-06-13,16:14:31.791,NA,0.5410849164568674,108.89539940489817,1.756466010528726,-0.7392834149111422,0.40075091437824995,41.63857808802277,-91.54053831472993,-8.630166417979126,108.89539940489817,624.073,0.4982296521362487,624.073,624.073,0,0.00075489,624.073,0.840917,0,1.21816,-0.113972,-32.125,1.75639,0.0888705,-0.013411,0.149667,0,0.143836,0,108.895,0.0165873,0.0306561,0.49823,0.998475
613,17498312718381223,2025-06-13,16:14:31.838,NA,0.5355916685740567,108.87891966124971,1.756466010528726,-0.7519482293610054,0.4081889800074805,41.63857800420374,-91.54053831472993,-8.437178769222555,108.87891966124971,624.099,0.50692672468844,624.099,624.099,0,0.000768068,624.099,0.855596,0,1.18168,-0.0705723,-32.1513,1.75639,0.219762,-0.396311,-0.493825,0,0.14062,0,108.879,0.0164189,0.0306561,0.506927,0.999292
613,17498312718841703,2025-06-13,16:14:31.884,NA,0.530098420691246,108.87342641336693,1.756466010528726,-0.7599893813928702,0.41140544082009,41.638577920384705,-91.5405382309109,-8.449240497270694,108.87342641336693,624.092,0.512023354972224,624.092,624.092,0,0.00077579,624.092,0.864198,0,1.16939,-0.0780616,-32.1319,1.75639,-0.0687242,-0.136793,-0.0210404,0,0.140821,0,108.873,0.0162505,0.0306561,0.512023,0.998689
613,17498312719304542,2025-06-13,16:14:31.930,NA,0.5081254291600033,108.87342641336693,1.7592126344701313,-0.7768758006593544,0.4170342472423272,41.63857783656567,-91.54053814709187,-8.497487409463247,108.87342641336693,624.088,0.5224126841073384,624.088,624.088,0,0.000791531,624.088,0.881733,0,1.19166,-0.00816142,-32.1336,1.75914,-0.17947,-0.0403523,-0.0169873,0,0.141625,0,108.873,0.0156013,0.0307041,0.522413,0.998743
613,17498312719765335,2025-06-13,16:14:31.976,NA,0.5136186770428139,108.86793316548409,1.7344930189974832,-0.7939632487266408,0.4222609960627324,41.638577710837126,-91.54053806327283,-8.425117041174417,108.86793316548409,624.081,0.5328014111566002,624.081,624.081,0,0.000807272,624.081,0.899267,0,1.19089,-0.028517,-32.1534,1.73442,-0.374377,0.28497,-0.351369,0,0.140419,0,108.868,0.0155484,0.0302726,0.532801,0.999358
613,17498312720226314,2025-06-13,16:14:32.022,NA,0.5191119249256246,108.85694666971847,1.7317463950560779,-0.810246581590718,0.42849288888737647,41.638577627018094,-91.5405379794538,-8.388931857030002,108.85694666971847,624.096,0.543054530601979,624.096,624.096,0,0.000822807,624.096,0.916573,0,1.18168,-0.017379,-32.1069,1.73168,0.0228286,0.611961,-0.510633,0,0.139816,0,108.857,0.0156898,0.0302247,0.543055,0.997914
613,17498312720686982,2025-06-13,16:14:32.068,NA,0.5410849164568674,108.85145342183569,1.7235065232318618,-0.8229113960405812,0.4327144937039975,41.63857754319906,-91.5405379794538,-8.461302225318832,108.85145342183569,624.088,0.5508586076941883,624.088,624.088,0,0.000834631,624.088,0.929745,0,1.18168,-0.0150746,-32.1038,1.72343,-0.203431,0.0242591,0.0266433,0,0.141022,0,108.851,0.0162761,0.0300809,0.550859,0.997818
613,17498312721148835,2025-06-13,16:14:32.114,NA,0.5575646601052995,108.85694666971847,1.7317463950560779,-0.8379885560998446,0.438544328927037,41.638577417470515,-91.54053789563477,-8.521610865559524,108.85694666971847,624.081,0.5603737816618254,624.081,624.081,0,0.000849048,624.081,0.945804,0,1.17092,-0.0611626,-32.1336,1.73166,0.120223,0.0635982,0.129759,0,0.142027,0,108.857,0.0168519,0.0302247,0.560374,0.998743
613,17498312721609729,2025-06-13,16:14:32.160,NA,0.5575646601052995,108.86793316548409,1.7235065232318618,-0.8540708601633469,0.4451782793530583,41.63857729174197,-91.54053781181574,-8.47336395336697,108.86793316548409,624.073,0.5706393349913143,624.073,624.073,0,0.000864602,624.073,0.963131,0,1.18705,-0.0891995,-32.1691,1.72343,-0.208557,-0.197351,0.201046,0,0.141223,0,108.868,0.0167718,0.0300809,0.570639,0.999847
613,17498312722070595,2025-06-13,16:14:32.207,NA,0.5520714122224888,108.88441290913255,1.7042801556420244,-0.8681428762185988,0.4538225177871027,41.63857716601342,-91.5405377279967,-8.485425681415109,108.88441290913255,624.066,0.580400389064487,624.066,624.066,0,0.000879391,624.066,0.979605,0,1.24025,-0.130487,-32.1092,1.7042,-0.279367,-0.396669,0.953257,0,0.141424,0,108.884,0.0164213,0.0297453,0.5804,0.997985
613,17498312722650109,2025-06-13,16:14:32.265,NA,0.5520714122224888,108.88990615701533,1.7042801556420244,-0.8824159210748803,0.46447704422917013,41.63857704028487,-91.54053764417768,-8.581919505800215,108.88990615701533,624.088,0.5908215617156536,624.088,624.088,0,0.000895181,624.088,0.997194,0,1.23775,-0.116276,-32.043,1.7042,-0.0248551,-0.0141263,-0.0784993,0,0.143032,0,108.89,0.0164213,0.0297453,0.590822,0.995926
613,17498312722994903,2025-06-13,16:14:32.299,NA,0.4861524376287605,108.89539940489817,1.8168917372396436,-0.6339443232964186,0.26565956024614934,41.63857850711793,-91.54053915292025,-8.533672593607662,108.89539940489817,624.088,0.4072482164214186,624.088,624.088,0,0.00061704,624.088,0.687358,0,1.25407,-0.126838,-32.0737,1.81683,0.267327,0.579894,0.406921,0,0.142228,0,108.895,0.0154161,0.0317107,0.407248,0.996881
613,17498312723454923,2025-06-13,16:14:32.345,NA,0.49713893339438187,108.88990615701533,1.8168917372396436,-0.6413823889256491,0.272494539472973,41.63857859093696,-91.54053923673928,-8.485425681415109,108.88990615701533,624.081,0.4128828458161285,624.081,624.081,0,0.000625578,624.081,0.696868,0,1.24582,-0.110899,-32.1714,1.81682,-0.142515,-0.34529,0.0733733,0,0.141424,0,108.89,0.0157644,0.0317107,0.412883,0.999919
613,17498312723915468,2025-06-13,16:14:32.391,NA,0.49713893339438187,108.89539940489817,1.8141451132982382,-0.6534441169731053,0.27832437469601246,41.63857850711793,-91.54053915292025,-8.437178769222555,108.89539940489817,624.073,0.4208110397141633,624.073,624.073,0,0.00063759,624.073,0.710249,0,1.18341,-0.0732607,-32.1025,1.81408,0.12511,0.225723,-0.223339,0,0.14062,0,108.895,0.0157406,0.0316628,0.420811,0.997776
613,17498312724376446,2025-06-13,16:14:32.437,NA,0.4861524376287605,108.88441290913255,1.827878233005265,-0.6679181906301892,0.2821439219110289,41.63857838138938,-91.54053906910121,-8.509549137511385,108.88441290913255,624.099,0.4295895320686415,624.099,624.099,0,0.000650891,624.099,0.725065,0,1.1738,-0.00451278,-32.0956,1.82781,0.213563,-0.445187,-0.288665,0,0.141826,0,108.884,0.0155093,0.0319025,0.42959,0.997561
613,17498312724838883,2025-06-13,16:14:32.483,NA,0.4916456855115712,108.86793316548409,1.8333714808880757,-0.6777686018690474,0.2837521523174473,41.638578339479864,-91.54053906910121,-8.569857777752077,108.86793316548409,624.096,0.43533876174834224,624.096,624.096,0,0.000659602,624.096,0.734769,0,1.19339,0.0554016,-32.1188,1.8333,0.0986457,0.664175,-0.178039,0,0.142831,0,108.868,0.0157317,0.0319984,0.435339,0.998284
613,17498312725300271,2025-06-13,16:14:32.530,NA,0.5136186770428139,108.87342641336693,1.819638361181049,-0.6974694243465365,0.28415420991905194,41.63857825566083,-91.54053898528218,-8.569857777752077,108.87342641336693,624.088,0.44621827560195804,624.088,624.088,0,0.000676086,624.088,0.753132,0,1.15038,0.0742209,-32.1557,1.81957,0.056088,0.497043,-0.286639,0,0.142831,0,108.873,0.0163116,0.0317587,0.446218,0.99943
613,17498312725760358,2025-06-13,16:14:32.576,NA,0.5191119249256246,108.87891966124971,1.8223849851224543,-0.7149589300154275,0.2851593539228361,41.638578129932284,-91.54053898528218,-8.497487409463247,108.87891966124971,624.081,0.4560517311586826,624.081,624.081,0,0.000690985,624.081,0.769729,0,1.1498,0.00662515,-32.1855,1.82231,-0.0200868,-0.431716,0.518858,0,0.141625,0,108.879,0.016511,0.0318066,0.456052,1.00035
613,17498312726222848,2025-06-13,16:14:32.622,NA,0.5136186770428139,108.90638590066379,1.8086518654154276,-0.7282268308676976,0.28817478593487067,41.63857804611325,-91.54053890146315,-8.485425681415109,108.90638590066379,624.073,0.46401696679614485,624.073,624.073,0,0.000703053,624.073,0.783172,0,1.17668,-0.0916959,-32.1407,1.80858,-0.0693202,0.16731,0.818074,0,0.141424,0,108.906,0.0162131,0.0315669,0.464017,0.998964
613,17498312726683512,2025-06-13,16:14:32.668,NA,0.530098420691246,108.91737239642941,1.8059052414740222,-0.7376751845049512,0.2923963907514917,41.63857796229422,-91.54053890146315,-8.364808400933725,108.91737239642941,624.103,0.47014264512914816,624.103,624.103,0,0.000712335,624.103,0.793511,0,1.2076,-0.136056,-32.1382,1.80583,-0.0368953,0.22167,0.185668,0,0.139413,0,108.917,0.0167079,0.031519,0.470143,0.998886
613,17498312727146545,2025-06-13,16:14:32.714,NA,0.5355916685740567,108.91737239642941,1.811398489356833,-0.7463194229389956,0.2986282835759084,41.63857787847519,-91.54053881764412,-8.413055313126279,108.91737239642941,624.096,0.47626689132362826,624.096,624.096,0,0.000721614,624.096,0.803848,0,1.1907,-0.163132,-32.1323,1.81132,0.240982,-0.209153,0.10854,0,0.140218,0,108.917,0.0169324,0.0316149,0.476267,0.998701
613,17498312727605653,2025-06-13,16:14:32.760,NA,0.5410849164568674,108.9228656443122,1.819638361181049,-0.7549636613730399,0.30586532040456405,41.63857775274664,-91.54053873382509,-8.388931857030002,108.9228656443122,624.088,0.4826193261140741,624.088,624.088,0,0.000731239,624.088,0.81457,0,1.21912,-0.220358,-32.1399,1.81956,0.320017,-0.176609,0.445783,0,0.139816,0,108.923,0.0171839,0.0317587,0.482619,0.99894
613,17498312728067579,2025-06-13,16:14:32.806,NA,0.5465781643396781,108.92835889219504,1.8333714808880757,-0.7636078998070843,0.3141075012370038,41.63857766892761,-91.54053873382509,-8.328623216802953,108.92835889219504,624.085,0.4892067195876985,624.085,624.085,0,0.000741219,624.085,0.825688,0,1.24927,-0.152763,-32.1536,1.83329,-0.125825,0.219762,0.163376,0,0.13881,0,108.928,0.0174893,0.0319984,0.489207,0.999364
613,17498312728528087,2025-06-13,16:14:32.852,NA,0.5630579079881102,108.93385214007782,1.8333714808880757,-0.7758706566553428,0.32074145166302515,41.63857754319906,-91.54053865000606,-8.244191120465985,108.93385214007782,624.129,0.4974219462166957,624.129,624.129,0,0.000753667,624.129,0.839554,0,1.22892,-0.0780616,-32.0781,1.83328,-0.188887,0.121415,-0.236809,0,0.137403,0,108.934,0.0180166,0.0319984,0.497422,0.997018
613,17498312728991075,2025-06-13,16:14:32.899,NA,0.5685511558709209,108.93934538796066,1.8306248569466703,-0.7855200390933987,0.32435997007723927,41.63857750128955,-91.54053865000606,-8.364808400933725,108.93934538796066,624.125,0.503524484701085,624.125,624.125,0,0.000762913,624.125,0.849854,0,1.2366,-0.0421513,-32.0672,1.83053,0.208437,0.315011,0.432432,0,0.139413,0,108.939,0.0181652,0.0319504,0.503524,0.996678
613,17498312729450640,2025-06-13,16:14:32.945,NA,0.5685511558709209,108.93385214007782,1.8306248569466703,-0.8036126311644693,0.3289836324954649,41.638577375561,-91.54053856618702,-8.47336395336697,108.93385214007782,624.118,0.5144805007729181,624.118,624.118,0,0.000779513,624.118,0.868345,0,1.23237,0.034662,-32.0919,1.83053,-0.0537038,-0.0584722,0.00268221,0,0.141223,0,108.934,0.0181652,0.0319504,0.51448,0.997448
613,17498312729913544,2025-06-13,16:14:32.991,NA,0.5795376516365423,108.93934538796066,1.8251316090638596,-0.8227103672397789,0.33220009330807443,41.63857724983245,-91.54053848236799,-8.593981233848353,108.93934538796066,624.11,0.5256801468149029,624.11,624.11,0,0.000796482,624.11,0.887248,0,1.2149,0.0254444,-32.1019,1.82504,-0.00840426,0.249684,0.110686,0,0.143233,0,108.939,0.0184606,0.0318546,0.52568,0.997758
613,17498312730375097,2025-06-13,16:14:33.037,NA,0.5795376516365423,108.95582513160906,1.8141451132982382,-0.8432153049204771,0.3346124389177021,41.63857716601342,-91.54053839854896,-8.630166417979126,108.95582513160906,624.103,0.5374901021942383,624.103,624.103,0,0.000814376,624.103,0.907181,0,1.2053,0.0292851,-32.1244,1.81405,-0.289619,-0.154555,0.301063,0,0.143836,0,108.956,0.0183495,0.0316628,0.53749,0.998457
613,17498312730834994,2025-06-13,16:14:33.083,NA,0.5740444037537316,108.96681162737468,1.8086518654154276,-0.8548749753663287,0.3366227269254978,41.63857708219439,-91.54053839854896,-8.581919505800215,108.96681162737468,624.129,0.544352399032061,624.129,624.129,0,0.000824773,624.129,0.918763,0,1.19723,0.0246763,-32.1252,1.80856,-0.325859,-0.0107884,0.383556,0,0.143032,0,108.967,0.0181205,0.0315669,0.544352,0.998481
613,17498312731295907,2025-06-13,16:14:33.129,NA,0.5685511558709209,108.95582513160906,1.7894254978255901,-0.8737716826408359,0.33923610133592774,41.63857695646584,-91.54053831472993,-8.642228146027264,108.95582513160906,624.122,0.5553435359490345,624.122,624.122,0,0.000841426,624.122,0.937314,0,1.17284,0.0166109,-32.1275,1.78934,-0.282347,-0.0892282,-0.2864,2.68849,0.144037,0,108.956,0.0177563,0.0312314,0.555344,0.998552
613,17498312731757168,2025-06-13,16:14:33.175,NA,0.5685511558709209,108.95033188372628,1.7949187457084008,-0.8906581019073201,0.34205050454693264,41.63857683073729,-91.54053831472993,-8.666351602123541,108.95033188372628,624.114,0.5652774903018425,624.114,624.114,0,0.000856478,624.114,0.954081,0,1.17822,-0.0187233,-32.1438,1.79483,0.0118613,-0.0860095,-0.253379,0,0.144439,0,108.95,0.0178108,0.0313272,0.565278,0.99906
613,17498312732219802,2025-06-13,16:14:33.221,NA,0.5795376516365423,108.94483863584344,1.7949187457084008,-0.9073434923730019,0.3460710805627514,41.638576705008745,-91.5405382309109,-8.569857777752077,108.94483863584344,624.107,0.5753616893314134,624.107,624.107,0,0.000871757,624.107,0.971101,0,1.21413,-0.0469522,-32.167,1.79483,-0.00494719,0.312865,0.238478,0,0.142831,0,108.945,0.018155,0.0313272,0.575362,0.999782
613,17498312732798601,2025-06-13,16:14:33.279,NA,0.5850308995193529,108.95033188372628,1.7976653696498062,-0.920611393225272,0.34928754137558826,41.6385765792802,-91.54053814709187,-8.569857777752077,108.95033188372628,624.099,0.5833866180496385,624.099,624.099,0,0.000883916,624.099,0.984646,0,1.14116,-0.13836,-32.138,1.79757,-0.373781,0.0689626,-0.247419,0,0.142831,0,108.95,0.0183551,0.0313752,0.583387,0.998881
613,17498312733141207,2025-06-13,16:14:33.314,NA,0.458686198214707,108.93385214007782,1.8663309681849398,-0.5820788926921523,0.2712883666683865,41.63857880048454,-91.54053890146315,-8.183882480225293,108.93385214007782,624.144,0.380489579917988,624.144,624.144,0,0.000576497,624.144,0.642194,0,1.17649,-0.223239,-32.1334,1.86627,0.0277162,0.325024,0.0501275,0,0.136398,0,108.934,0.0149409,0.0325736,0.38049,0.998737
613,17498312733602951,2025-06-13,16:14:33.360,NA,0.4696726939803284,108.94483863584344,1.8718242160677505,-0.5852953535047618,0.276716144289594,41.638578716665506,-91.54053881764412,-8.147697296080878,108.94483863584344,624.136,0.3835812040308856,624.136,624.136,0,0.000581181,624.136,0.647412,0,1.1738,-0.23092,-32.158,1.87176,0.408709,0.514925,0.379622,0,0.135795,0,108.945,0.0153438,0.0326695,0.383581,0.999501
613,17498312734063732,2025-06-13,16:14:33.406,NA,0.4861524376287605,108.93385214007782,1.8745708400091559,-0.5881097567159941,0.28415420991905194,41.638578632846475,-91.54053881764412,-8.027080015613137,108.93385214007782,624.129,0.3869861370028582,624.129,624.129,0,0.00058634,624.129,0.653159,0,1.222,-0.245899,-32.1985,1.8745,0.413716,0.287354,-0.468791,0,0.133785,0,108.934,0.0159055,0.0327174,0.386986,1.00076
613,17498312734527004,2025-06-13,16:14:33.452,NA,0.4861524376287605,108.93385214007782,1.8773174639505612,-0.5915272463294059,0.28777272833326606,41.63857859093696,-91.54053873382509,-7.978833103420584,108.93385214007782,624.125,0.3897434041820587,624.125,624.125,0,0.000590518,624.125,0.657813,0,1.22373,-0.181952,-32.1772,1.87725,-0.0846982,0.114977,0.272453,0,0.132981,0,108.934,0.0159288,0.0327654,0.389743,1.0001
613,17498312734986515,2025-06-13,16:14:33.498,NA,0.49713893339438187,108.93385214007782,1.882810711833372,-0.6023828015720483,0.2921953619506894,41.63857850711793,-91.54053873382509,-7.918524463179892,108.93385214007782,624.118,0.3966736214328212,624.118,624.118,0,0.000601018,624.118,0.66951,0,1.19858,-0.063467,-32.1284,1.88274,0.0144839,0.237763,0.370681,0,0.131975,0,108.934,0.0163364,0.0328612,0.396674,0.998582
613,17498312735447603,2025-06-13,16:14:33.544,NA,0.5136186770428139,108.93934538796066,1.8745708400091559,-0.617459961631539,0.29641696676731044,41.638578423298895,-91.54053865000606,-7.954709647324307,108.93934538796066,624.151,0.40580591519176157,624.151,624.151,0,0.000614855,624.151,0.684923,0,1.24927,0.00374465,-32.0691,1.8745,-0.146687,0.337541,-0.455081,0,0.132578,0,108.939,0.0168041,0.0327174,0.405806,0.996738
613,17498312735910100,2025-06-13,16:14:33.591,NA,0.5191119249256246,108.93385214007782,1.8718242160677505,-0.6353515249020347,0.29943239877911765,41.638578339479864,-91.54053865000606,-8.063265199757552,108.93385214007782,624.144,0.41614609716541456,624.144,624.144,0,0.000630522,624.144,0.702375,0,1.20952,0.0421513,-32.1027,1.87175,-0.289738,-0.289381,0.224412,0,0.134388,0,108.934,0.0169589,0.0326695,0.416146,0.997782
613,17498312736372148,2025-06-13,16:14:33.637,NA,0.5246051728084353,108.94483863584344,1.8635843442435345,-0.6532430881725304,0.3034529747949364,41.63857825566083,-91.54053856618702,-8.051203471709414,108.94483863584344,624.136,0.42675709566895653,624.136,624.136,0,0.000646599,624.136,0.720285,0,1.24063,0.00969768,-32.1522,1.86351,-0.270069,0.53674,0.585377,0,0.134187,0,108.945,0.0170629,0.0325257,0.426757,0.999322
613,17498312736831878,2025-06-13,16:14:33.683,NA,0.5246051728084353,108.95033188372628,1.8553444724193184,-0.6653048162199866,0.30546326280295943,41.638578213751316,-91.54053848236799,-8.087388655853829,108.95033188372628,624.133,0.4337443989052871,624.133,624.133,0,0.000657186,624.133,0.732078,0,1.23276,0.0602025,-32.0998,1.85527,-0.365436,-0.123203,0.195205,0,0.13479,0,108.95,0.0169875,0.0323819,0.433744,0.997693
613,17498312737293405,2025-06-13,16:14:33.729,NA,0.5191119249256246,108.94483863584344,1.8553444724193184,-0.6833974082910572,0.30807663721316203,41.63857808802277,-91.54053848236799,-8.087388655853829,108.94483863584344,624.136,0.444142879200436,624.136,624.136,0,0.000672941,624.136,0.749629,0,1.19646,0.0233321,-32.1376,1.85527,0.245154,0.441849,0.00923872,0,0.13479,0,108.945,0.0168096,0.0323819,0.444143,0.998869
613,17498312737753922,2025-06-13,16:14:33.775,NA,0.530098420691246,108.95033188372628,1.8608377203021291,-0.7000827987569664,0.3096848676195805,41.63857800420374,-91.54053839854896,-8.147697296080878,108.95033188372628,624.129,0.4535581113161522,624.129,624.129,0,0.000687207,624.129,0.76552,0,1.16439,0.022756,-32.1169,1.86076,-0.0713468,-0.317156,0.10699,0,0.135795,0,108.95,0.0172162,0.0324777,0.453558,0.998224
613,17498312738215077,2025-06-13,16:14:33.821,NA,0.5246051728084353,108.95582513160906,1.852597848477913,-0.7135517284098114,0.31189618442817846,41.638577920384705,-91.54053831472993,-8.195944208273431,108.95582513160906,624.122,0.46139057346094803,624.122,624.122,0,0.000699074,624.122,0.77874,0,1.1498,-0.0830544,-32.1371,1.85252,-0.24873,0.074923,-0.0821948,2.68849,0.136599,0,108.956,0.0169623,0.0323339,0.461391,0.998851
613,17498312738676758,2025-06-13,16:14:33.867,NA,0.5136186770428139,108.95033188372628,1.8416113527122917,-0.7217939092424785,0.3139064724362015,41.63857783656567,-91.54053831472993,-8.13563556803274,108.95033188372628,624.118,0.46634298788243717,624.118,624.118,0,0.000706577,624.118,0.787098,0,1.17035,-0.139128,-32.1567,1.84154,-0.176966,-0.560701,-0.17339,0,0.135594,0,108.95,0.0165086,0.0321422,0.466343,0.999459
613,17498312739137680,2025-06-13,16:14:33.913,NA,0.5081254291600033,108.93934538796066,1.8553444724193184,-0.7312422628795048,0.31812807725282255,41.63857775274664,-91.5405382309109,-8.364808400933725,108.93934538796066,624.055,0.47247405942509185,624.055,624.055,0,0.000715867,624.055,0.797446,0,1.18206,-0.127222,-32.1029,1.85527,-0.140846,0.125587,-0.097692,0,0.139413,0,108.939,0.0164538,0.0323819,0.472474,0.997788
613,17498312739598897,2025-06-13,16:14:33.959,NA,0.5246051728084353,108.93934538796066,1.8471046005951024,-0.7416957605207699,0.3231537972726528,41.638577627018094,-91.54053814709187,-8.461302225318832,108.93934538796066,624.048,0.4793413576093587,624.048,624.048,0,0.000726272,624.048,0.809037,0,1.22834,-0.110899,-32.0831,1.84703,0.0608563,0.552237,-0.222981,0,0.141022,0,108.939,0.016912,0.0322381,0.479341,0.997173
613,17498312740060538,2025-06-13,16:14:34.006,NA,0.5355916685740567,108.9228656443122,1.836118104829481,-0.7537574885682261,0.33018980530027875,41.63857754319906,-91.54053814709187,-8.569857777752077,108.9228656443122,624.04,0.4875589697157663,624.04,624.04,0,0.000738723,624.04,0.822907,0,1.2389,-0.091888,-32.1163,1.83604,-0.317872,-0.293076,-0.465095,0,0.142831,0,108.923,0.0171635,0.0320463,0.487559,0.998206
613,17498312740522414,2025-06-13,16:14:34.052,NA,0.5355916685740567,108.91187914854657,1.8333714808880757,-0.7619996694006659,0.3340093525152952,41.63857745938003,-91.54053806327283,-8.606042961896492,108.91187914854657,624.036,0.4929400223098253,624.036,624.036,0,0.000746876,624.036,0.831989,0,1.26444,-0.0711484,-32.1252,1.83329,0.388086,0.100076,-0.238955,0,0.143434,0,108.912,0.0171378,0.0319984,0.49294,0.998481
613,17498312740983199,2025-06-13,16:14:34.098,NA,0.530098420691246,108.91187914854657,1.8416113527122917,-0.777277858260959,0.33963815893753235,41.638577375561,-91.54053806327283,-8.630166417979126,108.91187914854657,624.029,0.502569804317028,624.029,624.029,0,0.000761466,624.029,0.848242,0,1.23871,-0.034278,-32.1211,1.84153,0.0494123,-0.768006,-0.0792146,0,0.143836,0,108.912,0.0170383,0.0321422,0.50257,0.998355
613,17498312741444416,2025-06-13,16:14:34.144,NA,0.5136186770428139,108.90638590066379,1.8333714808880757,-0.792757075921827,0.344261821355758,41.63857724983245,-91.5405379794538,-8.859339250893754,108.90638590066379,623.988,0.51207192194948,623.988,623.988,0,0.000775863,623.988,0.86428,0,1.2053,-0.0502167,-32.0952,1.8333,-0.652611,-0.125706,-0.162065,0,0.147656,0,108.906,0.0164347,0.0319984,0.512072,0.997549
613,17498312741905259,2025-06-13,16:14:34.190,NA,0.5081254291600033,108.91187914854657,1.8251316090638596,-0.8074321783797132,0.34828239737157674,41.638577124103904,-91.54053789563477,-8.955833075265218,108.91187914854657,623.981,0.5209975745875313,623.981,623.981,0,0.000789387,623.981,0.879345,0,1.1738,-0.0429195,-32.1267,1.82506,-0.430882,-0.148118,0.186026,0,0.149264,0,108.912,0.0161859,0.0318546,0.520998,0.998528
613,17498312742367342,2025-06-13,16:14:34.236,NA,0.5136186770428139,108.90638590066379,1.8168917372396436,-0.8223083096381743,0.35089577178177933,41.63857704028487,-91.54053781181574,-9.064388627698463,108.90638590066379,623.974,0.5297079544045196,623.974,623.974,0,0.000802585,623.974,0.894046,0,1.18187,-0.0300532,-32.1336,1.81682,-0.184953,0.12213,-0.403702,0,0.151073,0,108.906,0.016287,0.0317107,0.529708,0.998743
613,17498312742964182,2025-06-13,16:14:34.296,NA,0.5246051728084353,108.88990615701533,1.8031586175326169,-0.8369834120960604,0.35431326139519115,41.638576914556324,-91.54053781181574,-8.992018259409633,108.88990615701533,623.966,0.5385019787129973,623.966,623.966,0,0.000815909,623.966,0.908889,0,1.17668,-0.0490645,-32.1964,1.80308,-0.0146031,0.219405,-0.242889,0,0.149867,0,108.89,0.0165096,0.0314711,0.538502,1.00069
613,17498312743443064,2025-06-13,16:14:34.344,NA,0.35431448844130387,108.87891966124971,1.90753032730602,-0.346473138164356,0.26545853144534703,41.6385800158605,-91.54053865000606,-8.593981233848353,108.87891966124971,623.97,0.25860534571322746,623.97,623.97,0,0.000391825,623.97,0.436477,0,1.18705,-0.0540574,-32.1449,1.90749,0.243247,0.331104,0.0277162,0,0.143233,0,108.879,0.011796,0.0332927,0.258605,0.999095
613,17498312743904642,2025-06-13,16:14:34.390,NA,0.35431448844130387,108.88990615701533,1.9130235751888307,-0.3561225206024119,0.2698811650627704,41.63857997395098,-91.54053856618702,-8.630166417979126,108.88990615701533,623.963,0.2647408920961196,623.963,623.963,0,0.000401121,623.963,0.446832,0,1.23833,-0.0465681,-32.0954,1.91299,0.37843,0.160158,0.418603,0,0.143836,0,108.89,0.01183,0.0333886,0.264741,0.997555
613,17498312744366598,2025-06-13,16:14:34.436,NA,0.37628747997254663,108.88441290913255,1.9212634470130467,-0.364565730235654,0.2734996834769845,41.638579932041466,-91.54053856618702,-8.762845426508648,108.88441290913255,623.955,0.27002591337374715,623.955,623.955,0,0.000409129,623.955,0.455752,0,1.23967,-0.111667,-32.1054,1.92122,-0.171125,0.491321,-0.466645,0,0.146047,0,108.884,0.0126177,0.0335324,0.270026,0.997866
613,17498312744827589,2025-06-13,16:14:34.482,NA,0.387273975738168,108.87891966124971,1.9212634470130467,-0.36979247905628654,0.2765151154887917,41.63857989013195,-91.54053848236799,-8.823154066749339,108.87891966124971,623.948,0.2735755613415188,623.948,623.948,0,0.000414507,623.948,0.461744,0,1.22873,-0.0709563,-32.0981,1.92122,0.171363,0.181377,0.0113845,0,0.147053,0,108.879,0.0129861,0.0335324,0.273576,0.997639
613,17498312745288162,2025-06-13,16:14:34.528,NA,0.3927672236209787,108.88441290913255,1.9102769512474254,-0.3774315734863194,0.2821439219110289,41.638579848222435,-91.54053848236799,-8.786968882604924,108.88441290913255,623.94,0.279197444532228,623.94,623.94,0,0.000423025,623.94,0.471232,0,1.21912,-0.128374,-32.1647,1.91023,-0.157416,-0.0154376,-0.0504851,0,0.146449,0,108.884,0.013095,0.0333406,0.279197,0.99971
613,17498312745749156,2025-06-13,16:14:34.574,NA,0.3982604715037894,108.88990615701533,1.915770199130236,-0.38486963911554994,0.28737067073166145,41.63857980631292,-91.54053839854896,-8.67841333017168,108.88990615701533,623.981,0.28458135015177166,623.981,623.981,0,0.000431182,623.981,0.480319,0,1.17304,-0.115124,-32.0954,1.91572,0.0922084,-0.2051,0.259697,0,0.14464,0,108.89,0.0133163,0.0334365,0.284581,0.997555
613,17498312746211503,2025-06-13,16:14:34.621,NA,0.387273975738168,108.88990615701533,1.915770199130236,-0.39170461834260095,0.29018507394266635,41.63857972249389,-91.54053831472993,-8.835215794797477,108.88990615701533,623.974,0.2888259084511495,623.974,623.974,0,0.000437613,623.974,0.487483,0,1.16228,-0.118004,-32.109,1.91573,-0.400364,-0.0732541,0.475109,0,0.147254,0,108.89,0.012949,0.0334365,0.288826,0.997979
613,17498312746672591,2025-06-13,16:14:34.667,NA,0.387273975738168,108.89539940489817,1.9047837033646147,-0.3987406263702269,0.29340153475550323,41.63857968058437,-91.54053831472993,-8.87140097892825,108.89539940489817,623.966,0.2933115265107311,623.966,623.966,0,0.00044441,623.966,0.495054,0,1.21451,-0.0602025,-32.1227,1.90474,-0.240028,0.234067,-0.145853,0,0.147857,0,108.895,0.0128747,0.0332447,0.293312,0.998403
613,17498312747133164,2025-06-13,16:14:34.713,NA,0.37628747997254663,108.90089265278095,1.899290455481804,-0.4087920664098874,0.2954118227632989,41.638579638674855,-91.5405382309109,-8.835215794797477,108.90089265278095,623.959,0.29882518228976407,623.959,623.959,0,0.000452764,623.959,0.50436,0,1.17438,-0.0486805,-32.177,1.89925,-0.108898,-0.280321,0.105441,0,0.147254,0,108.901,0.0124734,0.0331489,0.298825,1.00009
